timestamp,THROTTLE,BRAKE,ECU_MODE_ID,TORQUE_GAIN,TORQUE_REF_LEFT_MOTOR,TORQUE_REF_RIGHT_MOTOR,LEFT_MOTOR_SPEED,RIGHT_MOTOR_SPEED,REAR_LEFT_WHEEL_SPEED,REAR_RIGHT_WHEEL_SPEED,ACCEL_LONGITUDINAL,ACCEL_LATERAL,ACCEL_NORMAL,VEL_ANGULAR_YAW,VEL_ANGULAR_PITCH,VEL_ANGULAR_ROLL,STACK_1_CELL_1,STACK_1_CELL_2,STACK_1_CELL_3,STACK_1_CELL_4,STACK_2_CELL_1,STACK_2_CELL_2,STACK_2_CELL_3,STACK_2_CELL_4,STACK_3_CELL_1,STACK_3_CELL_2,STACK_3_CELL_3,STACK_3_CELL_4,STACK_4_CELL_1,STACK_4_CELL_2,STACK_4_CELL_3,STACK_4_CELL_4,STACK_5_CELL_1,STACK_5_CELL_2,STACK_5_CELL_3,STACK_5_CELL_4,STACK_6_CELL_1,STACK_6_CELL_2,STACK_6_CELL_3,STACK_6_CELL_4,MAX_VOLTAGE,MIN_VOLTAGE,TOTAL_VOLTAGE,SHUNT_CURRENT,BMS_MODE_ID,BMS_ERROR_ID,AIR_P,AIR_N,t,LEFT_MOTOR_RPM,RIGHT_MOTOR_RPM
1765224440049,0.0,0.0,1.0,10.0,0.0,0.0,0.0,0.0,0.0,0.0,-0.111752,-0.108214,0.9852719999999999,-0.6300000000000001,0.35000000000000003,-0.14,3.3,3.31,3.3,3.28,3.27,3.28,3.27,3.28,3.31,3.31,3.31,3.3,3.27,3.28,3.27,3.29,3.3,3.3,3.3,3.29,3.31,3.31,3.31,3.3,3.31,3.27,79.0,0.0,1.0,0.0,1.0,1.0,5935023,0.0,0.0
1765224440117,0.0,0.0,1.0,10.0,0.0,0.0,0.0,0.0,0.0,0.0,-0.111752,-0.108214,0.9852719999999999,-0.6300000000000001,0.35000000000000003,-0.14,3.3,3.31,3.3,3.28,3.27,3.28,3.27,3.28,3.31,3.31,3.31,3.3,3.27,3.28,3.27,3.29,3.3,3.3,3.3,3.29,3.31,3.31,3.31,3.3,3.31,3.27,79.0,0.0,1.0,0.0,1.0,1.0,5935091,0.0,0.0
1765224440216,0.0,0.0,1.0,10.0,0.0,0.0,0.0,0.0,0.0,0.0,0.055876,-0.04819,0.9897859999999999,-0.6300000000000001,0.42000000000000004,0.0,3.3,3.31,3.3,3.28,3.27,3.28,3.27,3.28,3.31,3.31,3.31,3.3,3.27,3.28,3.27,3.29,3.3,3.3,3.3,3.29,3.31,3.31,3.31,3.3,3.31,3.27,79.0,0.0,1.0,0.0,1.0,1.0,5935190,0.0,0.0
1765224440266,0.0,0.0,1.0,10.0,0.0,0.0,0.0,0.0,0.0,0.0,0.055876,-0.04819,0.9897859999999999,-0.6300000000000001,0.42000000000000004,0.0,3.3,3.31,3.3,3.28,3.27,3.28,3.27,3.28,3.31,3.31,3.31,3.3,3.27,3.28,3.27,3.29,3.3,3.3,3.3,3.29,3.31,3.31,3.31,3.3,3.31,3.27,79.0,0.0,1.0,0.0,1.0,1.0,5935240,0.0,0.0
1765224440283,0.0,0.0,2.0,25.0,0.0,0.0,0.0,0.0,0.0,0.0,0.055876,-0.04819,0.9897859999999999,-0.6300000000000001,0.42000000000000004,0.0,3.3,3.31,3.3,3.28,3.27,3.28,3.27,3.28,3.31,3.31,3.31,3.3,3.27,3.28,3.27,3.29,3.3,3.3,3.3,3.29,3.31,3.31,3.31,3.3,3.31,3.27,79.0,0.0,1.0,0.0,1.0,1.0,5935257,0.0,0.0
1765224440300,0.0,0.0,2.0,25.0,0.0,0.0,0.0,0.0,0.0,0.0,0.055876,-0.04819,0.9897859999999999,-0.6300000000000001,0.42000000000000004,0.0,3.3,3.31,3.3,3.28,3.27,3.28,3.27,3.28,3.31,3.31,3.31,3.3,3.27,3.28,3.27,3.29,3.3,3.3,3.3,3.29,3.31,3.31,3.31,3.3,3.31,3.27,79.0,0.0,1.0,0.0,1.0,1.0,5935274,0.0,0.0
1765224440333,0.0,0.0,2.0,25.0,0.0,0.0,0.0,0.0,0.0,0.0,0.055876,-0.04819,0.9897859999999999,-0.6300000000000001,0.42000000000000004,0.0,3.3,3.31,3.3,3.28,3.27,3.28,3.27,3.28,3.31,3.31,3.31,3.3,3.27,3.28,3.27,3.29,3.3,3.3,3.3,3.29,3.31,3.31,3.31,3.3,3.31,3.27,79.0,0.0,1.0,0.0,1.0,1.0,5935307,0.0,0.0
1765224440350,0.0,0.0,2.0,25.0,0.0,0.0,0.0,0.0,0.0,0.0,0.048068,-0.049776,0.996008,-0.6300000000000001,0.42000000000000004,0.0,3.3,3.31,3.3,3.28,3.27,3.28,3.27,3.28,3.31,3.31,3.31,3.3,3.27,3.28,3.27,3.29,3.3,3.3,3.3,3.29,3.31,3.31,3.31,3.3,3.31,3.27,79.0,0.0,1.0,0.0,1.0,1.0,5935324,0.0,0.0
1765224440383,0.0,0.0,2.0,25.0,0.0,0.0,0.0,0.0,0.0,0.0,0.048068,-0.049776,0.996008,-0.6300000000000001,0.42000000000000004,0.0,3.3,3.31,3.3,3.28,3.27,3.28,3.27,3.28,3.31,3.31,3.31,3.3,3.27,3.28,3.27,3.29,3.3,3.3,3.3,3.29,3.31,3.31,3.31,3.3,3.31,3.27,79.0,0.0,1.0,0.0,1.0,1.0,5935357,0.0,0.0
1765224440416,0.0,0.0,2.0,25.0,0.0,0.0,0.0,0.0,0.0,0.0,0.048068,-0.049776,0.996008,-0.6300000000000001,0.42000000000000004,0.0,3.3,3.31,3.3,3.28,3.27,3.28,3.27,3.28,3.31,3.31,3.31,3.3,3.27,3.28,3.27,3.29,3.3,3.3,3.3,3.29,3.31,3.31,3.31,3.3,3.31,3.27,79.0,0.0,1.0,0.0,1.0,1.0,5935390,0.0,0.0
1765224440433,0.0,0.0,2.0,25.0,0.0,0.0,0.0,0.0,0.0,0.0,0.048068,-0.049776,0.996008,-0.6300000000000001,0.42000000000000004,0.0,3.3,3.31,3.3,3.28,3.27,3.28,3.27,3.28,3.31,3.31,3.31,3.3,3.27,3.28,3.27,3.29,3.3,3.3,3.3,3.29,3.31,3.31,3.31,3.3,3.31,3.27,79.0,0.0,1.0,0.0,1.0,1.0,5935407,0.0,0.0
1765224440449,0.0,0.0,2.0,25.0,0.0,0.0,0.0,0.0,0.0,0.0,0.048068,-0.049776,0.996008,-0.6300000000000001,0.49000000000000005,0.0,3.3,3.31,3.3,3.28,3.27,3.28,3.27,3.28,3.31,3.31,3.31,3.3,3.27,3.28,3.27,3.29,3.3,3.3,3.3,3.29,3.31,3.31,3.31,3.3,3.31,3.27,79.0,0.0,1.0,0.0,1.0,1.0,5935423,0.0,0.0
1765224440533,0.0,0.0,2.0,25.0,0.0,0.0,0.0,0.0,0.0,0.0,0.052948,-0.04636,0.986248,-0.6300000000000001,0.49000000000000005,0.0,3.3,3.31,3.3,3.28,3.27,3.28,3.27,3.28,3.31,3.31,3.31,3.3,3.27,3.28,3.27,3.29,3.3,3.3,3.3,3.29,3.31,3.31,3.31,3.3,3.31,3.27,79.0,0.0,1.0,0.0,1.0,1.0,5935507,0.0,0.0
1765224440550,0.0,0.0,2.0,25.0,0.0,0.0,0.0,0.0,0.0,0.0,0.052948,-0.04636,0.986248,-0.77,0.56,-0.07,3.3,3.31,3.3,3.28,3.27,3.28,3.27,3.28,3.31,3.31,3.31,3.3,3.27,3.28,3.27,3.29,3.3,3.3,3.3,3.29,3.31,3.31,3.31,3.3,3.31,3.27,79.0,0.0,1.0,0.0,1.0,1.0,5935524,0.0,0.0
1765224440583,0.0,0.0,2.0,25.0,0.0,0.0,0.0,0.0,0.0,0.0,0.052948,-0.04636,0.986248,-0.77,0.56,-0.07,3.3,3.31,3.3,3.28,3.27,3.28,3.27,3.28,3.31,3.31,3.31,3.3,3.27,3.28,3.27,3.29,3.3,3.3,3.3,3.29,3.31,3.31,3.31,3.3,3.31,3.27,79.0,0.0,1.0,0.0,1.0,1.0,5935557,0.0,0.0
1765224440599,0.0,0.0,2.0,25.0,0.0,0.0,0.0,0.0,0.0,0.0,0.052948,-0.04636,0.986248,-0.77,0.56,-0.07,3.3,3.31,3.3,3.28,3.27,3.28,3.27,3.28,3.31,3.31,3.31,3.3,3.27,3.28,3.27,3.29,3.3,3.3,3.3,3.29,3.31,3.31,3.31,3.3,3.31,3.27,79.0,0.0,1.0,0.0,1.0,1.0,5935573,0.0,0.0
1765224440616,0.0,0.0,2.0,25.0,0.0,0.0,0.0,0.0,0.0,0.0,0.052948,-0.04636,0.986248,-0.77,0.56,-0.07,3.3,3.31,3.3,3.28,3.27,3.28,3.27,3.28,3.31,3.31,3.31,3.3,3.27,3.28,3.27,3.29,3.3,3.3,3.3,3.29,3.31,3.31,3.31,3.3,3.31,3.27,79.0,0.0,1.0,0.0,1.0,1.0,5935590,0.0,0.0
1765224440633,0.0,0.0,2.0,25.0,0.0,0.0,0.0,0.0,0.0,0.0,0.052948,-0.04636,0.986248,-0.77,0.56,-0.07,3.3,3.31,3.3,3.28,3.27,3.28,3.27,3.28,3.31,3.31,3.31,3.3,3.27,3.28,3.27,3.29,3.3,3.3,3.3,3.29,3.31,3.31,3.31,3.3,3.31,3.27,79.0,0.0,1.0,0.0,1.0,1.0,5935607,0.0,0.0
1765224440650,0.0,0.0,2.0,25.0,0.0,0.0,0.0,0.0,0.0,0.0,0.052948,-0.04636,0.986248,-0.77,0.56,-0.07,3.3,3.31,3.3,3.28,3.27,3.28,3.27,3.28,3.31,3.31,3.31,3.3,3.27,3.28,3.27,3.29,3.3,3.3,3.3,3.29,3.31,3.31,3.31,3.3,3.31,3.27,79.0,0.0,1.0,0.0,1.0,1.0,5935624,0.0,0.0
1765224440700,0.0,0.0,2.0,25.0,0.0,0.0,0.0,0.0,0.0,0.0,0.052704,-0.049898,0.995642,-0.77,0.56,-0.07,3.3,3.31,3.3,3.28,3.27,3.28,3.27,3.28,3.31,3.31,3.31,3.3,3.27,3.28,3.27,3.29,3.3,3.3,3.3,3.29,3.31,3.31,3.31,3.3,3.31,3.27,79.0,0.0,1.0,0.0,1.0,1.0,5935674,0.0,0.0
1765224440716,0.0,0.0,2.0,25.0,0.0,0.0,0.0,0.0,0.0,0.0,0.052704,-0.049898,0.995642,-0.77,0.56,-0.07,3.3,3.31,3.3,3.28,3.27,3.28,3.27,3.28,3.31,3.31,3.31,3.3,3.27,3.28,3.27,3.29,3.3,3.3,3.3,3.29,3.31,3.31,3.31,3.3,3.31,3.27,79.0,0.0,1.0,0.0,1.0,1.0,5935690,0.0,0.0
1765224440733,0.0,0.0,2.0,25.0,0.0,0.0,0.0,0.0,0.0,0.0,0.052704,-0.049898,0.995642,-0.77,0.56,-0.07,3.3,3.31,3.3,3.28,3.27,3.28,3.27,3.28,3.31,3.31,3.31,3.3,3.27,3.28,3.27,3.29,3.3,3.3,3.3,3.29,3.31,3.31,3.31,3.3,3.31,3.27,79.0,0.0,1.0,0.0,1.0,1.0,5935707,0.0,0.0
1765224440750,0.0,0.0,2.0,25.0,0.0,0.0,0.0,0.0,0.0,0.0,0.052704,-0.049898,0.995642,-0.77,0.56,-0.07,3.3,3.31,3.3,3.28,3.27,3.28,3.27,3.28,3.31,3.31,3.31,3.3,3.27,3.28,3.27,3.29,3.3,3.3,3.3,3.29,3.31,3.31,3.31,3.3,3.31,3.27,79.0,0.0,1.0,0.0,1.0,1.0,5935724,0.0,0.0
1765224440767,0.0,0.0,2.0,25.0,0.0,0.0,0.0,0.0,0.0,0.0,0.052704,-0.049898,0.995642,-0.77,0.56,-0.07,3.3,3.31,3.3,3.28,3.27,3.28,3.27,3.28,3.31,3.31,3.31,3.3,3.27,3.28,3.27,3.29,3.3,3.3,3.3,3.29,3.31,3.31,3.31,3.3,3.31,3.27,79.0,0.0,1.0,0.0,1.0,1.0,5935741,0.0,0.0
1765224440783,0.0,0.0,2.0,25.0,0.0,0.0,0.0,0.0,0.0,0.0,0.051972,-0.048434,0.992104,-0.77,0.56,-0.07,3.3,3.31,3.3,3.28,3.27,3.28,3.27,3.28,3.31,3.31,3.31,3.3,3.27,3.28,3.27,3.29,3.3,3.3,3.3,3.29,3.31,3.31,3.31,3.3,3.31,3.27,79.0,0.0,1.0,0.0,1.0,1.0,5935757,0.0,0.0
1765224440800,0.0,0.0,2.0,25.0,0.0,0.0,0.0,0.0,0.0,0.0,0.051972,-0.048434,0.992104,-0.77,0.56,-0.07,3.3,3.31,3.3,3.28,3.27,3.28,3.27,3.28,3.31,3.31,3.31,3.3,3.27,3.28,3.27,3.29,3.3,3.3,3.3,3.29,3.31,3.31,3.31,3.3,3.31,3.27,79.0,0.0,1.0,0.0,1.0,1.0,5935774,0.0,0.0
1765224440816,0.0,0.0,2.0,25.0,0.0,0.0,0.0,0.0,0.0,0.0,0.051972,-0.048434,0.992104,-0.6300000000000001,0.35000000000000003,-0.07,3.3,3.31,3.3,3.28,3.27,3.28,3.27,3.28,3.31,3.31,3.31,3.3,3.27,3.28,3.27,3.29,3.3,3.3,3.3,3.29,3.31,3.31,3.31,3.3,3.31,3.27,79.0,0.0,1.0,0.0,1.0,1.0,5935790,0.0,0.0
1765224440881,0.0,0.0,2.0,25.0,0.0,0.0,0.0,0.0,0.0,0.0,0.051972,-0.048434,0.992104,-0.6300000000000001,0.35000000000000003,-0.07,3.3,3.31,3.3,3.28,3.27,3.28,3.27,3.28,3.31,3.31,3.31,3.3,3.27,3.28,3.27,3.29,3.3,3.3,3.3,3.29,3.31,3.31,3.31,3.3,3.31,3.27,79.0,0.0,1.0,0.0,1.0,1.0,5935855,0.0,0.0
1765224440950,0.0,0.0,2.0,25.0,0.0,0.0,0.0,0.0,0.0,0.0,0.051727999999999996,-0.046848,0.989664,-0.6300000000000001,0.35000000000000003,-0.07,3.3,3.31,3.3,3.28,3.27,3.28,3.27,3.28,3.31,3.31,3.31,3.3,3.27,3.28,3.27,3.29,3.3,3.3,3.3,3.29,3.31,3.31,3.31,3.3,3.31,3.27,79.0,0.0,1.0,0.0,1.0,1.0,5935924,0.0,0.0
1765224440967,0.0,0.0,2.0,25.0,0.0,0.0,0.0,0.0,0.0,0.0,0.051727999999999996,-0.046848,0.989664,-0.6300000000000001,0.35000000000000003,0.0,3.3,3.31,3.3,3.28,3.27,3.28,3.27,3.28,3.31,3.31,3.31,3.3,3.27,3.28,3.27,3.29,3.3,3.3,3.3,3.29,3.31,3.31,3.31,3.3,3.31,3.27,79.0,0.0,1.0,0.0,1.0,1.0,5935941,0.0,0.0
1765224441016,0.0,1.0,2.0,25.0,0.0,0.0,0.0,0.0,0.0,0.0,0.051727999999999996,-0.046848,0.989664,-0.6300000000000001,0.35000000000000003,0.0,3.3,3.31,3.3,3.28,3.27,3.28,3.27,3.28,3.31,3.31,3.31,3.3,3.27,3.28,3.27,3.29,3.3,3.3,3.3,3.29,3.31,3.31,3.31,3.3,3.31,3.27,79.0,0.0,1.0,0.0,1.0,1.0,5935990,0.0,0.0
1765224441033,0.0,1.0,2.0,25.0,0.0,0.0,0.0,0.0,0.0,0.0,0.051727999999999996,-0.046848,0.989664,-0.6300000000000001,0.35000000000000003,0.0,3.3,3.31,3.3,3.28,3.27,3.28,3.27,3.28,3.31,3.31,3.31,3.3,3.27,3.28,3.27,3.29,3.3,3.3,3.3,3.29,3.31,3.31,3.31,3.3,3.31,3.27,79.0,0.0,1.0,0.0,1.0,1.0,5936007,0.0,0.0
1765224441050,0.0,1.0,2.0,25.0,0.0,0.0,0.0,0.0,0.0,0.0,0.051727999999999996,-0.046848,0.989664,-0.6300000000000001,0.35000000000000003,0.0,3.3,3.31,3.3,3.28,3.27,3.28,3.27,3.28,3.31,3.31,3.31,3.3,3.27,3.28,3.27,3.29,3.3,3.3,3.3,3.29,3.31,3.31,3.31,3.3,3.31,3.27,79.0,0.0,1.0,0.0,1.0,1.0,5936024,0.0,0.0
1765224441066,0.0,1.0,2.0,25.0,0.0,0.0,0.0,0.0,0.0,0.0,0.050996,-0.048068,0.9916159999999999,-0.6300000000000001,0.35000000000000003,0.0,3.3,3.31,3.3,3.28,3.27,3.28,3.27,3.28,3.31,3.31,3.31,3.3,3.27,3.28,3.27,3.29,3.3,3.3,3.3,3.29,3.31,3.31,3.31,3.3,3.31,3.27,79.0,0.0,1.0,0.0,1.0,1.0,5936040,0.0,0.0
1765224441083,0.0,1.0,2.0,25.0,0.0,0.0,0.0,0.0,0.0,0.0,0.050996,-0.048068,0.9916159999999999,-0.6300000000000001,0.35000000000000003,0.0,3.3,3.31,3.3,3.28,3.27,3.28,3.27,3.28,3.31,3.31,3.31,3.3,3.27,3.28,3.27,3.29,3.3,3.3,3.3,3.29,3.31,3.31,3.31,3.3,3.31,3.27,79.0,0.0,1.0,0.0,1.0,1.0,5936057,0.0,0.0
1765224441118,0.0,1.0,2.0,25.0,0.0,0.0,0.0,0.0,0.0,0.0,0.050996,-0.048068,0.9916159999999999,-0.6300000000000001,0.42000000000000004,0.0,3.3,3.31,3.3,3.28,3.27,3.28,3.27,3.28,3.31,3.31,3.31,3.3,3.27,3.28,3.27,3.29,3.3,3.3,3.3,3.29,3.31,3.31,3.31,3.3,3.31,3.27,79.0,0.0,1.0,0.0,1.0,1.0,5936092,0.0,0.0
1765224441149,0.0,1.0,2.0,25.0,0.0,0.0,0.0,0.0,0.0,0.0,0.050996,-0.048068,0.9916159999999999,-0.6300000000000001,0.42000000000000004,0.0,3.3,3.31,3.3,3.29,3.27,3.28,3.27,3.28,3.31,3.31,3.31,3.3,3.27,3.28,3.27,3.29,3.3,3.3,3.3,3.29,3.31,3.31,3.31,3.3,3.31,3.27,79.0,0.0,1.0,0.0,1.0,1.0,5936123,0.0,0.0
1765224441167,0.0,1.0,2.0,25.0,0.0,0.0,0.0,0.0,0.0,0.0,0.050996,-0.048068,0.9916159999999999,-0.6300000000000001,0.42000000000000004,0.0,3.3,3.31,3.3,3.29,3.27,3.28,3.27,3.28,3.31,3.31,3.31,3.3,3.27,3.28,3.27,3.29,3.3,3.3,3.3,3.29,3.31,3.31,3.31,3.3,3.31,3.27,79.0,0.0,1.0,0.0,1.0,1.0,5936141,0.0,0.0
1765224441217,0.0,1.0,2.0,25.0,0.0,0.0,0.0,0.0,0.0,0.0,0.050996,-0.048068,0.9916159999999999,-0.6300000000000001,0.42000000000000004,0.0,3.3,3.31,3.3,3.29,3.27,3.28,3.27,3.28,3.31,3.31,3.31,3.3,3.27,3.28,3.27,3.29,3.3,3.3,3.3,3.29,3.31,3.31,3.31,3.3,3.31,3.27,79.0,0.0,1.0,0.0,1.0,1.0,5936191,0.0,0.0
1765224441233,0.0,1.0,2.0,25.0,0.0,0.0,0.0,0.0,0.0,0.0,0.050996,-0.048068,0.9916159999999999,-0.6300000000000001,0.42000000000000004,0.0,3.3,3.31,3.3,3.29,3.27,3.28,3.27,3.28,3.31,3.31,3.31,3.3,3.27,3.28,3.28,3.29,3.3,3.3,3.3,3.29,3.31,3.31,3.31,3.3,3.31,3.27,79.0,0.0,1.0,0.0,1.0,1.0,5936207,0.0,0.0
1765224441266,0.0,1.0,2.0,25.0,0.0,0.0,0.0,0.0,0.0,0.0,0.050996,-0.048068,0.9916159999999999,-0.6300000000000001,0.42000000000000004,0.0,3.3,3.31,3.3,3.29,3.27,3.28,3.27,3.28,3.31,3.31,3.31,3.3,3.27,3.28,3.28,3.29,3.3,3.3,3.3,3.29,3.31,3.31,3.31,3.3,3.31,3.27,79.0,0.0,1.0,0.0,1.0,1.0,5936240,0.0,0.0
1765224441283,0.0,1.0,2.0,25.0,0.0,0.0,0.0,0.0,0.0,0.0,0.050996,-0.048068,0.9916159999999999,-0.6300000000000001,0.42000000000000004,0.0,3.3,3.31,3.3,3.29,3.27,3.28,3.27,3.28,3.31,3.31,3.31,3.3,3.27,3.28,3.28,3.29,3.3,3.3,3.3,3.29,3.31,3.31,3.31,3.3,3.31,3.27,79.0,0.0,1.0,0.0,1.0,1.0,5936257,0.0,0.0
1765224441315,0.0,1.0,2.0,25.0,0.0,0.0,0.0,0.0,0.0,0.0,0.053801999999999996,-0.048312,0.9910059999999999,-0.6300000000000001,0.42000000000000004,0.0,3.3,3.31,3.3,3.29,3.27,3.28,3.27,3.28,3.31,3.31,3.31,3.3,3.27,3.28,3.28,3.29,3.3,3.3,3.3,3.29,3.31,3.31,3.31,3.3,3.31,3.27,79.0,0.0,1.0,0.0,1.0,1.0,5936289,0.0,0.0
1765224441350,0.0,1.0,2.0,25.0,0.0,0.0,0.0,0.0,0.0,0.0,0.053801999999999996,-0.048312,0.9910059999999999,-0.6300000000000001,0.42000000000000004,0.0,3.3,3.31,3.3,3.28,3.27,3.28,3.27,3.28,3.31,3.31,3.31,3.3,3.27,3.28,3.28,3.29,3.3,3.3,3.3,3.29,3.31,3.31,3.31,3.3,3.31,3.27,79.0,0.0,1.0,0.0,1.0,1.0,5936324,0.0,0.0
1765224441366,0.0,1.0,2.0,25.0,0.0,0.0,0.0,0.0,0.0,0.0,0.053801999999999996,-0.048312,0.9910059999999999,-0.6300000000000001,0.42000000000000004,0.0,3.3,3.31,3.3,3.28,3.27,3.28,3.27,3.28,3.31,3.31,3.31,3.3,3.27,3.28,3.28,3.29,3.3,3.3,3.3,3.29,3.31,3.31,3.31,3.3,3.31,3.27,79.0,0.0,1.0,0.0,1.0,1.0,5936340,0.0,0.0
1765224441383,0.0,1.0,2.0,25.0,0.0,0.0,0.0,0.0,0.0,0.0,0.051727999999999996,-0.048312,0.9916159999999999,-0.6300000000000001,0.42000000000000004,0.0,3.3,3.31,3.3,3.28,3.27,3.28,3.27,3.28,3.31,3.31,3.31,3.3,3.27,3.28,3.28,3.29,3.3,3.3,3.3,3.29,3.31,3.31,3.31,3.3,3.31,3.27,79.0,0.0,1.0,0.0,1.0,1.0,5936357,0.0,0.0
1765224441416,0.0,1.0,2.0,25.0,0.0,0.0,0.0,0.0,0.0,0.0,0.051727999999999996,-0.048312,0.9916159999999999,-0.6300000000000001,0.42000000000000004,0.0,3.3,3.31,3.3,3.28,3.27,3.28,3.27,3.28,3.31,3.31,3.31,3.3,3.27,3.28,3.28,3.29,3.3,3.3,3.3,3.29,3.31,3.31,3.31,3.3,3.31,3.27,79.0,0.0,1.0,0.0,1.0,1.0,5936390,0.0,0.0
1765224441433,0.0,1.0,2.0,25.0,0.0,0.0,0.0,0.0,0.0,0.0,0.051727999999999996,-0.048312,0.9916159999999999,-0.6300000000000001,0.42000000000000004,0.0,3.3,3.31,3.3,3.28,3.27,3.28,3.27,3.28,3.31,3.31,3.31,3.3,3.27,3.28,3.28,3.29,3.3,3.3,3.3,3.29,3.31,3.31,3.31,3.3,3.31,3.27,79.0,0.0,1.0,0.0,1.0,1.0,5936407,0.0,0.0
1765224441450,0.0,1.0,2.0,25.0,0.0,0.0,0.0,0.0,0.0,0.0,0.051727999999999996,-0.048312,0.9916159999999999,-0.7000000000000001,0.35000000000000003,0.0,3.3,3.31,3.3,3.28,3.27,3.28,3.27,3.28,3.31,3.31,3.31,3.3,3.27,3.28,3.28,3.29,3.3,3.3,3.3,3.29,3.31,3.31,3.31,3.3,3.31,3.27,79.0,0.0,1.0,0.0,1.0,1.0,5936424,0.0,0.0
1765224441500,0.0,1.0,2.0,25.0,0.0,0.0,0.0,0.0,0.0,0.0,0.051727999999999996,-0.048312,0.9916159999999999,-0.7000000000000001,0.35000000000000003,0.0,3.3,3.31,3.3,3.28,3.27,3.28,3.27,3.28,3.31,3.31,3.31,3.3,3.27,3.28,3.28,3.29,3.3,3.3,3.3,3.29,3.31,3.31,3.31,3.3,3.31,3.27,79.0,0.0,1.0,0.0,1.0,1.0,5936474,0.0,0.0
1765224441516,0.0,1.0,2.0,25.0,0.0,0.0,0.0,0.0,0.0,0.0,0.051727999999999996,-0.048312,0.9916159999999999,-0.7000000000000001,0.35000000000000003,0.0,3.3,3.31,3.3,3.28,3.27,3.28,3.27,3.28,3.31,3.31,3.31,3.3,3.27,3.28,3.28,3.29,3.3,3.3,3.3,3.29,3.31,3.31,3.31,3.3,3.31,3.27,79.0,0.0,1.0,0.0,1.0,1.0,5936490,0.0,0.0
1765224441533,0.0,1.0,2.0,25.0,0.0,0.0,0.0,0.0,0.0,0.0,0.051727999999999996,-0.048312,0.9916159999999999,-0.7000000000000001,0.35000000000000003,0.0,3.3,3.31,3.3,3.28,3.27,3.28,3.27,3.28,3.31,3.31,3.31,3.3,3.27,3.28,3.28,3.29,3.3,3.3,3.3,3.29,3.31,3.31,3.31,3.3,3.31,3.27,79.0,0.0,1.0,0.0,1.0,1.0,5936507,0.0,0.0
1765224441567,0.0,1.0,2.0,25.0,0.0,0.0,0.0,0.0,0.0,0.0,0.051727999999999996,-0.048312,0.9916159999999999,-0.7000000000000001,0.35000000000000003,0.0,3.3,3.31,3.3,3.28,3.27,3.28,3.27,3.28,3.31,3.31,3.31,3.3,3.27,3.28,3.28,3.29,3.3,3.3,3.3,3.29,3.31,3.31,3.31,3.3,3.31,3.27,79.0,0.0,1.0,0.0,1.0,1.0,5936541,0.0,0.0
1765224441600,0.0,1.0,2.0,25.0,0.0,0.0,0.0,0.0,0.0,0.0,0.051727999999999996,-0.048068,0.99247,-0.7000000000000001,0.35000000000000003,0.0,3.3,3.31,3.3,3.28,3.27,3.28,3.27,3.28,3.31,3.31,3.31,3.3,3.27,3.28,3.28,3.29,3.3,3.3,3.3,3.29,3.31,3.31,3.31,3.3,3.31,3.27,79.0,0.0,1.0,0.0,1.0,1.0,5936574,0.0,0.0
1765224441633,0.0,1.0,2.0,25.0,0.0,0.0,0.0,0.0,0.0,0.0,0.051727999999999996,-0.048068,0.99247,-0.7000000000000001,0.35000000000000003,0.0,3.3,3.31,3.3,3.28,3.27,3.28,3.27,3.28,3.31,3.31,3.31,3.3,3.27,3.28,3.28,3.29,3.3,3.3,3.3,3.29,3.31,3.31,3.31,3.3,3.31,3.27,79.0,0.0,1.0,0.0,1.0,1.0,5936607,0.0,0.0
1765224441649,0.0,1.0,2.0,25.0,0.0,0.0,0.0,0.0,0.0,0.0,0.051727999999999996,-0.048068,0.99247,-0.7000000000000001,0.35000000000000003,-0.07,3.3,3.31,3.3,3.28,3.27,3.28,3.27,3.28,3.31,3.31,3.31,3.3,3.27,3.28,3.28,3.29,3.3,3.3,3.3,3.29,3.31,3.31,3.31,3.3,3.31,3.27,79.0,0.0,1.0,0.0,1.0,1.0,5936623,0.0,0.0
1765224441732,0.0,1.0,2.0,25.0,0.0,0.0,0.0,0.0,0.0,0.0,0.05124,-0.048922,0.992104,-0.56,0.42000000000000004,0.0,3.3,3.31,3.3,3.28,3.27,3.28,3.27,3.28,3.31,3.31,3.31,3.3,3.27,3.28,3.28,3.29,3.3,3.3,3.3,3.29,3.31,3.31,3.31,3.3,3.31,3.27,79.0,0.0,1.0,0.0,1.0,1.0,5936706,0.0,0.0
1765224441783,0.0,1.0,2.0,25.0,0.0,0.0,0.0,0.0,0.0,0.0,0.05124,-0.048922,0.992104,-0.56,0.42000000000000004,0.0,3.3,3.31,3.3,3.28,3.27,3.28,3.27,3.28,3.31,3.31,3.31,3.3,3.27,3.28,3.28,3.29,3.3,3.3,3.3,3.29,3.31,3.31,3.31,3.3,3.31,3.27,79.0,0.0,1.0,0.0,1.0,1.0,5936757,0.0,0.0
1765224441784,0.0,1.0,2.0,25.0,0.0,0.0,0.0,0.0,0.0,0.0,0.05124,-0.048922,0.992104,-0.56,0.42000000000000004,0.0,3.3,3.31,3.3,3.28,3.27,3.28,3.27,3.28,3.31,3.31,3.31,3.3,3.27,3.28,3.28,3.29,3.3,3.3,3.3,3.29,3.31,3.31,3.31,3.3,3.31,3.27,79.0,0.0,1.0,0.0,1.0,1.0,5936758,0.0,0.0
1765224441816,0.0,1.0,2.0,25.0,0.0,0.0,0.0,0.0,0.0,0.0,0.05124,-0.048922,0.992104,-0.56,0.42000000000000004,0.0,3.3,3.31,3.3,3.28,3.27,3.28,3.27,3.28,3.31,3.31,3.31,3.3,3.27,3.28,3.28,3.29,3.3,3.3,3.3,3.29,3.31,3.31,3.31,3.3,3.31,3.27,79.0,0.0,1.0,0.0,1.0,1.0,5936790,0.0,0.0
1765224441833,0.0,1.0,2.0,25.0,0.0,0.0,0.0,0.0,0.0,0.0,0.05124,-0.048922,0.992104,-0.56,0.42000000000000004,0.0,3.3,3.31,3.3,3.28,3.27,3.28,3.27,3.28,3.31,3.31,3.31,3.3,3.27,3.28,3.28,3.29,3.3,3.3,3.3,3.29,3.31,3.31,3.31,3.3,3.31,3.27,79.0,0.0,1.0,0.0,1.0,1.0,5936807,0.0,0.0
1765224441850,0.0,1.0,2.0,25.0,0.0,0.0,0.0,0.0,0.0,0.0,0.05124,-0.048922,0.992104,-0.56,0.42000000000000004,0.0,3.3,3.31,3.3,3.28,3.27,3.28,3.27,3.28,3.31,3.31,3.31,3.3,3.27,3.28,3.28,3.29,3.3,3.3,3.3,3.29,3.31,3.31,3.31,3.3,3.31,3.27,79.0,0.0,1.0,0.0,1.0,1.0,5936824,0.0,0.0
1765224441900,0.0,1.0,2.0,25.0,0.0,0.0,0.0,0.0,0.0,0.0,0.05185,-0.046726,0.991372,-0.56,0.42000000000000004,0.0,3.3,3.31,3.3,3.28,3.27,3.28,3.27,3.28,3.31,3.31,3.31,3.3,3.27,3.28,3.28,3.29,3.3,3.3,3.3,3.29,3.31,3.31,3.31,3.3,3.31,3.27,79.0,0.0,1.0,0.0,1.0,1.0,5936874,0.0,0.0
1765224441917,0.0,1.0,2.0,25.0,0.0,0.0,0.0,0.0,0.0,0.0,0.05185,-0.046726,0.991372,-0.56,0.42000000000000004,0.0,3.3,3.31,3.3,3.28,3.27,3.28,3.27,3.28,3.31,3.31,3.31,3.3,3.27,3.28,3.28,3.29,3.3,3.3,3.3,3.29,3.31,3.31,3.31,3.3,3.31,3.27,79.0,0.0,1.0,0.0,1.0,1.0,5936891,0.0,0.0
1765224441933,0.0,1.0,2.0,25.0,0.0,0.0,0.0,0.0,0.0,0.0,0.05185,-0.046726,0.991372,-0.6300000000000001,0.35000000000000003,0.0,3.3,3.31,3.3,3.28,3.27,3.28,3.27,3.28,3.31,3.31,3.31,3.3,3.27,3.28,3.28,3.29,3.3,3.3,3.3,3.29,3.31,3.31,3.31,3.3,3.31,3.27,79.0,0.0,1.0,0.0,1.0,1.0,5936907,0.0,0.0
1765224441949,0.0,1.0,2.0,25.0,0.0,0.0,0.0,0.0,0.0,0.0,0.05185,-0.046726,0.991372,-0.6300000000000001,0.35000000000000003,0.0,3.3,3.31,3.3,3.28,3.27,3.28,3.27,3.28,3.31,3.31,3.31,3.3,3.27,3.28,3.28,3.29,3.3,3.3,3.3,3.29,3.31,3.31,3.31,3.3,3.31,3.27,79.0,0.0,1.0,0.0,1.0,1.0,5936923,0.0,0.0
1765224441966,0.0,1.0,2.0,25.0,0.0,0.0,0.0,0.0,0.0,0.0,0.05185,-0.046726,0.991372,-0.6300000000000001,0.35000000000000003,0.0,3.3,3.31,3.3,3.28,3.27,3.28,3.27,3.28,3.31,3.31,3.31,3.3,3.27,3.28,3.28,3.29,3.3,3.3,3.3,3.29,3.31,3.31,3.31,3.3,3.31,3.27,79.0,0.0,1.0,0.0,1.0,1.0,5936940,0.0,0.0
1765224441982,0.0,1.0,2.0,25.0,0.0,0.0,0.0,0.0,0.0,0.0,0.050263999999999996,-0.047092,0.99064,-0.6300000000000001,0.35000000000000003,0.0,3.3,3.31,3.3,3.28,3.27,3.28,3.27,3.28,3.31,3.31,3.31,3.3,3.27,3.28,3.28,3.29,3.3,3.3,3.3,3.29,3.31,3.31,3.31,3.3,3.31,3.27,79.0,0.0,1.0,0.0,1.0,1.0,5936956,0.0,0.0
1765224441998,0.0,1.0,2.0,25.0,0.0,0.0,0.0,0.0,0.0,0.0,0.050263999999999996,-0.047092,0.99064,-0.6300000000000001,0.35000000000000003,0.0,3.3,3.31,3.3,3.28,3.27,3.28,3.27,3.28,3.31,3.31,3.31,3.3,3.27,3.28,3.28,3.29,3.3,3.3,3.3,3.29,3.31,3.31,3.31,3.3,3.31,3.27,79.0,0.0,1.0,0.0,1.0,1.0,5936972,0.0,0.0
1765224442015,0.0,1.0,2.0,25.0,0.0,0.0,0.0,0.0,0.0,0.0,0.050263999999999996,-0.047092,0.99064,-0.6300000000000001,0.49000000000000005,0.0,3.3,3.31,3.3,3.28,3.27,3.28,3.27,3.28,3.31,3.31,3.31,3.3,3.27,3.28,3.28,3.29,3.3,3.3,3.3,3.29,3.31,3.31,3.31,3.3,3.31,3.27,79.0,0.0,1.0,0.0,1.0,1.0,5936989,0.0,0.0
1765224442083,0.0,1.0,2.0,25.0,0.0,0.0,0.0,0.0,0.0,0.0,0.050263999999999996,-0.047092,0.99064,-0.6300000000000001,0.49000000000000005,0.0,3.3,3.31,3.3,3.28,3.27,3.28,3.27,3.28,3.31,3.31,3.31,3.3,3.27,3.28,3.28,3.29,3.3,3.3,3.3,3.29,3.31,3.31,3.31,3.3,3.31,3.27,79.0,0.0,1.0,0.0,1.0,1.0,5937057,0.0,0.0
1765224442150,0.0,1.0,2.0,25.0,0.0,0.0,0.0,0.0,0.0,0.0,0.051972,-0.045384,0.993568,-0.6300000000000001,0.49000000000000005,0.0,3.3,3.31,3.3,3.28,3.27,3.28,3.27,3.28,3.31,3.31,3.31,3.3,3.27,3.28,3.28,3.29,3.3,3.3,3.3,3.29,3.31,3.31,3.31,3.3,3.31,3.27,79.0,0.0,1.0,0.0,1.0,1.0,5937124,0.0,0.0
1765224442166,0.0,1.0,2.0,25.0,0.0,0.0,0.0,0.0,0.0,0.0,0.051972,-0.045384,0.993568,-0.6300000000000001,0.49000000000000005,-0.07,3.3,3.31,3.3,3.28,3.27,3.28,3.27,3.28,3.31,3.31,3.31,3.3,3.27,3.28,3.28,3.29,3.3,3.3,3.3,3.29,3.31,3.31,3.31,3.3,3.31,3.27,79.0,0.0,1.0,0.0,1.0,1.0,5937140,0.0,0.0
1765224442200,0.0,1.0,2.0,25.0,0.0,0.0,0.0,0.0,0.0,0.0,0.051972,-0.045384,0.993568,-0.6300000000000001,0.49000000000000005,-0.07,3.3,3.31,3.3,3.28,3.27,3.28,3.27,3.28,3.31,3.31,3.31,3.3,3.27,3.28,3.28,3.29,3.3,3.3,3.3,3.29,3.31,3.31,3.31,3.3,3.31,3.27,79.0,-1.0,1.0,0.0,1.0,1.0,5937174,0.0,0.0
1765224442265,0.0,1.0,2.0,25.0,0.0,0.0,0.0,0.0,0.0,0.0,0.051972,-0.045384,0.993568,-0.6300000000000001,0.49000000000000005,-0.07,3.3,3.31,3.3,3.28,3.27,3.28,3.27,3.28,3.31,3.31,3.31,3.3,3.27,3.28,3.28,3.29,3.3,3.3,3.3,3.29,3.31,3.31,3.31,3.3,3.31,3.27,79.0,-1.0,1.0,0.0,1.0,1.0,5937239,0.0,0.0
1765224442283,0.0,1.0,2.0,25.0,0.0,0.0,0.0,0.0,0.0,0.0,0.051972,-0.045384,0.993568,-0.6300000000000001,0.49000000000000005,-0.07,3.3,3.31,3.3,3.28,3.27,3.28,3.27,3.28,3.31,3.31,3.31,3.3,3.27,3.28,3.28,3.29,3.3,3.3,3.3,3.29,3.31,3.31,3.31,3.3,3.31,3.27,79.0,-1.0,1.0,0.0,1.0,1.0,5937257,0.0,0.0
1765224442300,0.0,1.0,2.0,25.0,0.0,0.0,0.0,0.0,0.0,0.0,0.051972,-0.045384,0.993568,-0.6300000000000001,0.49000000000000005,-0.07,3.3,3.31,3.3,3.28,3.27,3.28,3.27,3.28,3.31,3.31,3.31,3.3,3.27,3.28,3.28,3.29,3.3,3.3,3.3,3.29,3.31,3.31,3.31,3.3,3.31,3.27,79.0,-1.0,1.0,0.0,1.0,1.0,5937274,0.0,0.0
1765224442316,0.0,1.0,2.0,25.0,0.0,0.0,0.0,0.0,0.0,0.0,0.047824,-0.049288,0.99125,-0.6300000000000001,0.49000000000000005,-0.07,3.3,3.31,3.3,3.28,3.27,3.28,3.27,3.28,3.31,3.31,3.31,3.3,3.27,3.28,3.28,3.29,3.3,3.3,3.3,3.29,3.31,3.31,3.31,3.3,3.31,3.27,79.0,-1.0,1.0,0.0,1.0,1.0,5937290,0.0,0.0
1765224442333,0.0,1.0,2.0,25.0,0.0,0.0,0.0,0.0,0.0,0.0,0.047824,-0.049288,0.99125,-0.6300000000000001,0.49000000000000005,-0.07,3.3,3.31,3.3,3.28,3.27,3.28,3.27,3.28,3.31,3.31,3.31,3.3,3.27,3.28,3.28,3.29,3.3,3.3,3.3,3.29,3.31,3.31,3.31,3.3,3.31,3.27,79.0,-1.0,1.0,0.0,1.0,1.0,5937307,0.0,0.0
1765224442366,0.0,1.0,2.0,25.0,0.0,0.0,0.0,0.0,0.0,0.0,0.047824,-0.049288,0.99125,-0.6300000000000001,0.42000000000000004,0.0,3.3,3.31,3.3,3.28,3.27,3.28,3.27,3.28,3.31,3.31,3.31,3.3,3.27,3.28,3.28,3.29,3.3,3.3,3.3,3.29,3.31,3.31,3.31,3.3,3.31,3.27,79.0,-1.0,1.0,0.0,1.0,1.0,5937340,0.0,0.0
1765224442400,0.0,1.0,2.0,25.0,0.0,0.0,0.0,0.0,0.0,0.0,0.047824,-0.049288,0.99125,-0.6300000000000001,0.42000000000000004,0.0,3.3,3.31,3.3,3.28,3.27,3.28,3.27,3.28,3.31,3.31,3.31,3.3,3.27,3.28,3.28,3.29,3.3,3.3,3.3,3.29,3.31,3.31,3.31,3.3,3.31,3.27,79.0,-1.0,1.0,0.0,1.0,1.0,5937374,0.0,0.0
1765224442483,0.0,1.0,2.0,25.0,0.0,0.0,0.0,0.0,0.0,0.0,0.050873999999999996,-0.048799999999999996,0.99003,-0.6300000000000001,0.42000000000000004,0.0,3.3,3.31,3.3,3.28,3.27,3.28,3.27,3.28,3.31,3.31,3.31,3.3,3.27,3.28,3.28,3.29,3.3,3.3,3.3,3.29,3.31,3.31,3.31,3.3,3.31,3.27,79.0,-1.0,1.0,0.0,1.0,1.0,5937457,0.0,0.0
1765224442500,0.0,1.0,2.0,25.0,0.0,0.0,0.0,0.0,0.0,0.0,0.050873999999999996,-0.048799999999999996,0.99003,-0.56,0.42000000000000004,0.0,3.3,3.31,3.3,3.28,3.27,3.28,3.27,3.28,3.31,3.31,3.31,3.3,3.27,3.28,3.28,3.29,3.3,3.3,3.3,3.29,3.31,3.31,3.31,3.3,3.31,3.27,79.0,-1.0,1.0,0.0,1.0,1.0,5937474,0.0,0.0
1765224442550,0.0,1.0,2.0,25.0,0.0,0.0,0.0,0.0,0.0,0.0,0.050873999999999996,-0.048799999999999996,0.99003,-0.56,0.42000000000000004,0.0,3.3,3.31,3.3,3.28,3.27,3.28,3.27,3.28,3.31,3.31,3.31,3.3,3.27,3.28,3.28,3.29,3.3,3.3,3.3,3.29,3.31,3.31,3.31,3.3,3.31,3.27,79.0,-1.0,1.0,0.0,1.0,1.0,5937524,0.0,0.0
1765224442616,0.0,1.0,2.0,25.0,0.0,0.0,0.0,0.0,0.0,0.0,0.048678,-0.044407999999999996,0.977708,-0.56,0.42000000000000004,0.0,3.3,3.31,3.3,3.28,3.27,3.28,3.27,3.28,3.31,3.31,3.31,3.3,3.27,3.28,3.28,3.29,3.3,3.3,3.3,3.29,3.31,3.31,3.31,3.3,3.31,3.27,79.0,-1.0,1.0,0.0,1.0,1.0,5937590,0.0,0.0
1765224442633,0.0,1.0,2.0,25.0,0.0,0.0,0.0,0.0,0.0,0.0,0.048678,-0.044407999999999996,0.977708,-0.56,0.21000000000000002,0.0,3.3,3.31,3.3,3.28,3.27,3.28,3.27,3.28,3.31,3.31,3.31,3.3,3.27,3.28,3.28,3.29,3.3,3.3,3.3,3.29,3.31,3.31,3.31,3.3,3.31,3.27,79.0,-1.0,1.0,0.0,1.0,1.0,5937607,0.0,0.0
1765224442683,0.0,1.0,2.0,25.0,0.0,0.0,0.0,0.0,0.0,0.0,0.048678,-0.044407999999999996,0.977708,-0.56,0.21000000000000002,0.0,3.3,3.31,3.3,3.28,3.27,3.28,3.27,3.28,3.31,3.31,3.31,3.3,3.27,3.28,3.28,3.29,3.3,3.3,3.3,3.29,3.31,3.31,3.31,3.3,3.31,3.27,79.0,-1.0,1.0,0.0,1.0,1.0,5937657,0.0,0.0
1765224442700,0.0,1.0,2.0,25.0,0.0,0.0,0.0,0.0,0.0,0.0,0.048678,-0.044407999999999996,0.977708,-0.56,0.21000000000000002,0.0,3.3,3.31,3.3,3.28,3.27,3.28,3.27,3.28,3.31,3.31,3.31,3.3,3.27,3.28,3.28,3.29,3.3,3.3,3.3,3.29,3.31,3.31,3.31,3.3,3.31,3.27,79.0,-1.0,1.0,0.0,1.0,1.0,5937674,0.0,0.0
1765224442716,0.0,1.0,2.0,25.0,0.0,0.0,0.0,0.0,0.0,0.0,0.053924,-0.05124,1.002108,-0.56,0.21000000000000002,0.0,3.3,3.31,3.3,3.28,3.27,3.28,3.27,3.28,3.31,3.31,3.31,3.3,3.27,3.28,3.28,3.29,3.3,3.3,3.3,3.29,3.31,3.31,3.31,3.3,3.31,3.27,79.0,-1.0,1.0,0.0,1.0,1.0,5937690,0.0,0.0
1765224442733,0.0,1.0,2.0,25.0,0.0,0.0,0.0,0.0,0.0,0.0,0.053924,-0.05124,1.002108,-0.56,0.21000000000000002,0.0,3.3,3.31,3.3,3.28,3.27,3.28,3.27,3.28,3.31,3.31,3.31,3.3,3.27,3.28,3.28,3.29,3.3,3.3,3.3,3.29,3.31,3.31,3.31,3.3,3.31,3.27,79.0,-1.0,1.0,0.0,1.0,1.0,5937707,0.0,0.0
1765224442766,0.0,1.0,2.0,25.0,0.0,0.0,0.0,0.0,0.0,0.0,0.053924,-0.05124,1.002108,-0.6300000000000001,0.0,-0.07,3.3,3.31,3.3,3.28,3.27,3.28,3.27,3.28,3.31,3.31,3.31,3.3,3.27,3.28,3.28,3.29,3.3,3.3,3.3,3.29,3.31,3.31,3.31,3.3,3.31,3.27,79.0,-1.0,1.0,0.0,1.0,1.0,5937740,0.0,0.0
1765224442783,0.0,1.0,2.0,25.0,0.0,0.0,0.0,0.0,0.0,0.0,0.053924,-0.05124,1.002108,-0.6300000000000001,0.0,-0.07,3.3,3.31,3.3,3.28,3.27,3.28,3.27,3.28,3.31,3.31,3.31,3.3,3.27,3.28,3.28,3.29,3.3,3.3,3.3,3.29,3.31,3.31,3.31,3.3,3.31,3.27,79.0,-1.0,1.0,0.0,1.0,1.0,5937757,0.0,0.0
1765224442849,0.0,1.0,2.0,25.0,0.0,0.0,0.0,0.0,0.0,0.0,0.053924,-0.05124,1.002108,-0.6300000000000001,0.0,-0.07,3.3,3.31,3.3,3.28,3.27,3.28,3.27,3.28,3.31,3.31,3.31,3.3,3.27,3.28,3.28,3.29,3.3,3.3,3.3,3.29,3.31,3.31,3.31,3.3,3.31,3.27,79.0,-1.0,1.0,0.0,1.0,1.0,5937823,0.0,0.0
1765224442916,0.0,1.0,2.0,25.0,0.0,0.0,0.0,0.0,0.0,0.0,0.052216,-0.049166,0.998814,-0.7000000000000001,0.56,0.07,3.3,3.31,3.3,3.28,3.27,3.28,3.27,3.28,3.31,3.31,3.31,3.3,3.27,3.28,3.28,3.29,3.3,3.3,3.3,3.29,3.31,3.31,3.31,3.3,3.31,3.27,79.0,-1.0,1.0,0.0,1.0,1.0,5937890,0.0,0.0
1765224442966,0.0,1.0,2.0,25.0,0.0,0.0,0.0,0.0,0.0,0.0,0.052216,-0.049166,0.998814,-0.7000000000000001,0.56,0.07,3.3,3.31,3.3,3.29,3.27,3.28,3.28,3.28,3.31,3.31,3.31,3.3,3.27,3.28,3.28,3.29,3.3,3.3,3.3,3.29,3.31,3.31,3.31,3.3,3.31,3.27,79.0,-1.0,1.0,0.0,1.0,1.0,5937940,0.0,0.0
1765224443000,0.0,1.0,2.0,25.0,0.0,0.0,0.0,0.0,0.0,0.0,0.052216,-0.049166,0.998814,-0.7000000000000001,0.56,0.07,3.3,3.31,3.3,3.29,3.27,3.28,3.28,3.28,3.31,3.31,3.31,3.3,3.27,3.28,3.28,3.29,3.3,3.3,3.3,3.29,3.31,3.31,3.31,3.3,3.31,3.27,79.0,-1.0,1.0,0.0,1.0,1.0,5937974,0.0,0.0
1765224443016,0.0,1.0,2.0,25.0,0.0,0.0,0.0,0.0,0.0,0.0,0.052216,-0.049166,0.998814,-0.7000000000000001,0.56,0.07,3.3,3.31,3.3,3.29,3.27,3.28,3.28,3.28,3.31,3.31,3.31,3.3,3.27,3.28,3.28,3.29,3.3,3.3,3.3,3.29,3.31,3.31,3.31,3.3,3.31,3.27,79.0,-1.0,1.0,0.0,1.0,1.0,5937990,0.0,0.0
1765224443033,0.0,1.0,2.0,25.0,0.0,0.0,0.0,0.0,0.0,0.0,0.052216,-0.049166,0.998814,-0.7000000000000001,0.56,0.07,3.3,3.31,3.3,3.29,3.27,3.28,3.28,3.28,3.31,3.31,3.31,3.3,3.27,3.28,3.28,3.29,3.3,3.3,3.3,3.29,3.31,3.31,3.31,3.3,3.31,3.27,79.0,-1.0,1.0,0.0,1.0,1.0,5938007,0.0,0.0
1765224443049,0.0,1.0,2.0,25.0,0.0,0.0,0.0,0.0,0.0,0.0,0.052216,-0.049166,0.998814,-0.7000000000000001,0.56,0.07,3.3,3.31,3.3,3.29,3.27,3.28,3.28,3.28,3.31,3.31,3.31,3.3,3.27,3.28,3.28,3.29,3.3,3.3,3.3,3.29,3.31,3.31,3.31,3.3,3.31,3.27,79.0,-1.0,1.0,0.0,1.0,1.0,5938023,0.0,0.0
1765224443066,0.0,1.0,2.0,25.0,0.0,0.0,0.0,0.0,0.0,0.0,0.052216,-0.049166,0.998814,-0.7000000000000001,0.56,0.07,3.3,3.31,3.3,3.29,3.27,3.28,3.28,3.28,3.31,3.31,3.31,3.3,3.27,3.28,3.28,3.29,3.3,3.3,3.3,3.29,3.31,3.31,3.31,3.3,3.31,3.27,79.0,-1.0,1.0,0.0,1.0,1.0,5938040,0.0,0.0
1765224443083,0.0,1.0,2.0,25.0,0.0,0.0,0.0,0.0,0.0,0.0,0.052216,-0.049166,0.998814,-0.7000000000000001,0.56,0.07,3.3,3.31,3.3,3.29,3.27,3.28,3.28,3.28,3.31,3.31,3.31,3.3,3.27,3.28,3.28,3.29,3.3,3.3,3.3,3.29,3.31,3.31,3.31,3.3,3.31,3.27,79.0,-1.0,1.0,0.0,1.0,1.0,5938057,0.0,0.0
1765224443100,0.0,1.0,2.0,25.0,0.0,0.0,0.0,0.0,0.0,0.0,0.052216,-0.049166,0.998814,-0.7000000000000001,0.56,0.07,3.3,3.31,3.3,3.29,3.27,3.28,3.28,3.28,3.31,3.31,3.31,3.3,3.27,3.28,3.28,3.29,3.3,3.3,3.3,3.29,3.31,3.31,3.31,3.3,3.31,3.27,79.0,-1.0,1.0,0.0,1.0,1.0,5938074,0.0,0.0
1765224443133,0.0,1.0,2.0,25.0,0.0,0.0,0.0,0.0,0.0,0.0,0.048068,-0.041236,0.97905,-0.7000000000000001,0.56,0.07,3.3,3.31,3.3,3.29,3.27,3.28,3.28,3.28,3.31,3.31,3.31,3.3,3.27,3.28,3.28,3.29,3.3,3.3,3.3,3.29,3.31,3.31,3.31,3.3,3.31,3.27,79.0,-1.0,1.0,0.0,1.0,1.0,5938107,0.0,0.0
1765224443165,0.0,1.0,2.0,25.0,0.0,0.0,0.0,0.0,0.0,0.0,0.048068,-0.041236,0.97905,-0.7000000000000001,0.56,0.07,3.3,3.31,3.3,3.29,3.27,3.28,3.28,3.28,3.31,3.31,3.31,3.3,3.27,3.28,3.28,3.29,3.3,3.3,3.3,3.29,3.31,3.31,3.31,3.3,3.31,3.27,79.0,-1.0,1.0,0.0,1.0,1.0,5938139,0.0,0.0
1765224443180,0.0,1.0,2.0,25.0,0.0,0.0,0.0,0.0,0.0,0.0,0.048068,-0.041236,0.97905,-0.7000000000000001,0.56,0.07,3.3,3.31,3.3,3.29,3.27,3.28,3.28,3.28,3.31,3.31,3.31,3.3,3.27,3.28,3.28,3.29,3.3,3.3,3.3,3.29,3.31,3.31,3.31,3.3,3.31,3.27,79.0,-1.0,1.0,0.0,1.0,1.0,5938154,0.0,0.0
1765224443200,0.0,1.0,2.0,25.0,0.0,0.0,0.0,0.0,0.0,0.0,0.048068,-0.041236,0.97905,-0.7000000000000001,0.56,0.07,3.3,3.31,3.3,3.29,3.27,3.28,3.28,3.28,3.31,3.31,3.31,3.3,3.27,3.28,3.28,3.29,3.3,3.3,3.3,3.29,3.31,3.31,3.31,3.3,3.31,3.27,79.0,-1.0,1.0,0.0,1.0,1.0,5938174,0.0,0.0
1765224443233,0.0,1.0,2.0,25.0,0.0,0.0,0.0,0.0,0.0,0.0,0.048068,-0.041236,0.97905,-0.7000000000000001,0.56,0.07,3.3,3.31,3.3,3.29,3.27,3.28,3.28,3.28,3.31,3.31,3.31,3.3,3.27,3.28,3.28,3.29,3.3,3.3,3.3,3.29,3.31,3.31,3.31,3.3,3.31,3.27,79.0,-1.0,1.0,0.0,1.0,1.0,5938207,0.0,0.0
1765224443250,0.0,1.0,2.0,25.0,0.0,0.0,0.0,0.0,0.0,0.0,0.048068,-0.041236,0.97905,-0.7000000000000001,0.56,0.07,3.3,3.31,3.3,3.29,3.27,3.28,3.28,3.28,3.31,3.31,3.31,3.3,3.27,3.28,3.28,3.29,3.3,3.3,3.3,3.29,3.31,3.31,3.31,3.3,3.31,3.27,79.0,-1.0,1.0,0.0,1.0,1.0,5938224,0.0,0.0
1765224443266,0.0,1.0,2.0,25.0,0.0,0.0,0.0,0.0,0.0,0.0,0.048068,-0.041236,0.97905,-0.7000000000000001,0.56,0.07,3.3,3.31,3.3,3.29,3.27,3.28,3.28,3.28,3.31,3.31,3.31,3.3,3.27,3.28,3.28,3.29,3.3,3.3,3.3,3.29,3.31,3.31,3.31,3.3,3.31,3.27,79.0,-1.0,1.0,0.0,1.0,1.0,5938240,0.0,0.0
1765224443316,0.0,1.0,2.0,25.0,0.0,0.0,0.0,0.0,0.0,0.0,0.048068,-0.041236,0.97905,-0.7000000000000001,0.56,0.07,3.3,3.31,3.3,3.29,3.27,3.28,3.28,3.28,3.31,3.31,3.31,3.3,3.27,3.28,3.28,3.29,3.3,3.3,3.3,3.29,3.31,3.31,3.31,3.3,3.31,3.27,79.0,-1.0,1.0,0.0,1.0,1.0,5938290,0.0,0.0
1765224443383,0.0,1.0,2.0,25.0,0.0,0.0,0.0,0.0,0.0,0.0,0.054168,-0.047824,0.992592,-0.7000000000000001,0.56,0.07,3.3,3.31,3.3,3.29,3.27,3.28,3.28,3.28,3.31,3.31,3.31,3.3,3.27,3.28,3.28,3.29,3.3,3.3,3.3,3.29,3.31,3.31,3.31,3.3,3.31,3.27,79.0,-1.0,1.0,0.0,1.0,1.0,5938357,0.0,0.0
1765224443399,0.0,1.0,2.0,25.0,0.0,0.0,0.0,0.0,0.0,0.0,0.054168,-0.047824,0.992592,-0.6300000000000001,0.35000000000000003,0.0,3.3,3.31,3.3,3.29,3.27,3.28,3.28,3.28,3.31,3.31,3.31,3.3,3.27,3.28,3.28,3.29,3.3,3.3,3.3,3.29,3.31,3.31,3.31,3.3,3.31,3.27,79.0,-1.0,1.0,0.0,1.0,1.0,5938373,0.0,0.0
1765224443449,0.0,1.0,2.0,25.0,0.0,0.0,0.0,0.0,0.0,0.0,0.054168,-0.047824,0.992592,-0.6300000000000001,0.35000000000000003,0.0,3.3,3.31,3.3,3.29,3.27,3.28,3.28,3.28,3.31,3.31,3.31,3.3,3.27,3.28,3.28,3.29,3.3,3.3,3.3,3.29,3.31,3.31,3.31,3.3,3.31,3.27,79.0,-1.0,1.0,0.0,1.0,1.0,5938423,0.0,0.0
1765224443466,0.0,1.0,2.0,25.0,0.0,0.0,0.0,0.0,0.0,0.0,0.054168,-0.047824,0.992592,-0.6300000000000001,0.35000000000000003,0.0,3.3,3.31,3.3,3.29,3.27,3.28,3.28,3.28,3.31,3.31,3.31,3.3,3.27,3.28,3.28,3.29,3.3,3.3,3.3,3.29,3.31,3.31,3.31,3.3,3.31,3.27,79.0,-1.0,1.0,0.0,1.0,1.0,5938440,0.0,0.0
1765224443483,0.0,1.0,2.0,25.0,0.0,0.0,0.0,0.0,0.0,0.0,0.052094,-0.047824,0.9903959999999999,-0.6300000000000001,0.35000000000000003,0.0,3.3,3.31,3.3,3.29,3.27,3.28,3.28,3.28,3.31,3.31,3.31,3.3,3.27,3.28,3.28,3.29,3.3,3.3,3.3,3.29,3.31,3.31,3.31,3.3,3.31,3.27,79.0,-1.0,1.0,0.0,1.0,1.0,5938457,0.0,0.0
1765224443500,0.0,1.0,2.0,25.0,0.0,0.0,0.0,0.0,0.0,0.0,0.052094,-0.047824,0.9903959999999999,-0.6300000000000001,0.35000000000000003,0.0,3.3,3.31,3.3,3.29,3.27,3.28,3.28,3.28,3.31,3.31,3.31,3.3,3.27,3.28,3.28,3.29,3.3,3.3,3.3,3.29,3.31,3.31,3.31,3.3,3.31,3.27,79.0,-1.0,1.0,0.0,1.0,1.0,5938474,0.0,0.0
1765224443516,0.0,1.0,2.0,25.0,0.0,0.0,0.0,0.0,0.0,0.0,0.052094,-0.047824,0.9903959999999999,-0.7000000000000001,0.49000000000000005,0.0,3.3,3.31,3.3,3.29,3.27,3.28,3.28,3.28,3.31,3.31,3.31,3.3,3.27,3.28,3.28,3.29,3.3,3.3,3.3,3.29,3.31,3.31,3.31,3.3,3.31,3.27,79.0,-1.0,1.0,0.0,1.0,1.0,5938490,0.0,0.0
1765224443549,0.0,1.0,2.0,25.0,0.0,0.0,0.0,0.0,0.0,0.0,0.052094,-0.047824,0.9903959999999999,-0.7000000000000001,0.49000000000000005,0.0,3.3,3.31,3.3,3.29,3.27,3.28,3.28,3.28,3.31,3.31,3.31,3.3,3.27,3.28,3.28,3.29,3.3,3.3,3.3,3.29,3.31,3.31,3.31,3.3,3.31,3.27,79.0,-1.0,1.0,0.0,1.0,1.0,5938523,0.0,0.0
1765224443600,0.0,1.0,2.0,25.0,0.0,0.0,0.0,0.0,0.0,0.0,0.052094,-0.047824,0.9903959999999999,-0.7000000000000001,0.49000000000000005,0.0,3.3,3.31,3.3,3.29,3.27,3.28,3.28,3.28,3.31,3.31,3.31,3.3,3.27,3.28,3.28,3.29,3.3,3.3,3.3,3.29,3.31,3.31,3.31,3.3,3.31,3.27,79.0,-1.0,1.0,0.0,1.0,1.0,5938574,0.0,0.0
1765224443666,0.0,1.0,2.0,25.0,0.0,0.0,0.0,0.0,0.0,0.0,0.05002,-0.047214,0.991372,-0.7000000000000001,0.49000000000000005,0.0,3.3,3.31,3.3,3.29,3.27,3.28,3.28,3.28,3.31,3.31,3.31,3.3,3.27,3.28,3.28,3.29,3.3,3.3,3.3,3.29,3.31,3.31,3.31,3.3,3.31,3.27,79.0,-1.0,1.0,0.0,1.0,1.0,5938640,0.0,0.0
1765224443683,0.0,1.0,2.0,25.0,0.0,0.0,0.0,0.0,0.0,0.0,0.05002,-0.047214,0.991372,-0.56,0.35000000000000003,-0.07,3.3,3.31,3.3,3.29,3.27,3.28,3.28,3.28,3.31,3.31,3.31,3.3,3.27,3.28,3.28,3.29,3.3,3.3,3.3,3.29,3.31,3.31,3.31,3.3,3.31,3.27,79.0,-1.0,1.0,0.0,1.0,1.0,5938657,0.0,0.0
1765224443733,0.0,1.0,2.0,25.0,0.0,0.0,0.0,0.0,0.0,0.0,0.05246,-0.048068,0.990762,-0.56,0.35000000000000003,-0.07,3.3,3.31,3.3,3.29,3.27,3.28,3.28,3.28,3.31,3.31,3.31,3.3,3.27,3.28,3.28,3.29,3.3,3.3,3.3,3.29,3.31,3.31,3.31,3.3,3.31,3.27,79.0,-1.0,1.0,0.0,1.0,1.0,5938707,0.0,0.0
1765224443800,0.0,1.0,2.0,25.0,0.0,0.0,0.0,0.0,0.0,0.0,0.05246,-0.048068,0.990762,-0.6300000000000001,0.35000000000000003,0.0,3.3,3.31,3.3,3.29,3.27,3.28,3.28,3.28,3.31,3.31,3.31,3.3,3.27,3.28,3.28,3.29,3.3,3.3,3.3,3.29,3.31,3.31,3.31,3.3,3.31,3.27,79.0,-1.0,1.0,0.0,1.0,1.0,5938774,0.0,0.0
1765224443849,0.0,1.0,2.0,25.0,0.0,0.0,0.0,0.0,0.0,0.0,0.050752,-0.048312,0.9934459999999999,-0.6300000000000001,0.35000000000000003,0.0,3.3,3.31,3.3,3.29,3.27,3.28,3.28,3.28,3.31,3.31,3.31,3.3,3.27,3.28,3.28,3.29,3.3,3.3,3.3,3.29,3.31,3.31,3.31,3.3,3.31,3.27,79.0,-1.0,1.0,0.0,1.0,1.0,5938823,0.0,0.0
1765224443866,0.0,1.0,2.0,25.0,0.0,0.0,0.0,0.0,0.0,0.0,0.050752,-0.048312,0.9934459999999999,-0.7000000000000001,0.49000000000000005,-0.14,3.3,3.31,3.3,3.29,3.27,3.28,3.28,3.28,3.31,3.31,3.31,3.3,3.27,3.28,3.28,3.29,3.3,3.3,3.3,3.29,3.31,3.31,3.31,3.3,3.31,3.27,79.0,-1.0,1.0,0.0,1.0,1.0,5938840,0.0,0.0
1765224443900,0.0,1.0,2.0,25.0,0.0,0.0,0.0,0.0,0.0,0.0,0.050752,-0.048312,0.9934459999999999,-0.7000000000000001,0.49000000000000005,-0.14,3.3,3.31,3.3,3.29,3.27,3.28,3.28,3.28,3.31,3.31,3.31,3.3,3.27,3.28,3.28,3.29,3.3,3.3,3.3,3.29,3.31,3.31,3.31,3.3,3.31,3.27,79.0,-1.0,1.0,0.0,1.0,1.0,5938874,0.0,0.0
1765224443917,0.0,1.0,2.0,25.0,0.0,0.0,0.0,0.0,0.0,0.0,0.050752,-0.048312,0.9934459999999999,-0.7000000000000001,0.49000000000000005,-0.14,3.3,3.31,3.3,3.29,3.27,3.28,3.28,3.28,3.31,3.31,3.31,3.3,3.27,3.28,3.28,3.29,3.3,3.3,3.3,3.29,3.31,3.31,3.31,3.3,3.31,3.27,79.0,-1.0,1.0,0.0,1.0,1.0,5938891,0.0,0.0
1765224443932,0.0,1.0,2.0,25.0,0.0,0.0,0.0,0.0,0.0,0.0,0.050752,-0.048312,0.9934459999999999,-0.7000000000000001,0.49000000000000005,-0.14,3.3,3.31,3.3,3.29,3.27,3.28,3.28,3.28,3.31,3.31,3.31,3.3,3.27,3.28,3.28,3.29,3.3,3.3,3.3,3.29,3.31,3.31,3.31,3.3,3.31,3.27,79.0,-1.0,1.0,0.0,1.0,1.0,5938906,0.0,0.0
1765224443966,0.0,1.0,2.0,25.0,0.0,0.0,0.0,0.0,0.0,0.0,0.050752,-0.048312,0.9934459999999999,-0.7000000000000001,0.49000000000000005,-0.14,3.3,3.31,3.3,3.29,3.27,3.28,3.28,3.28,3.31,3.31,3.31,3.3,3.27,3.28,3.28,3.29,3.3,3.3,3.3,3.29,3.31,3.31,3.31,3.3,3.31,3.27,79.0,-1.0,1.0,0.0,1.0,1.0,5938940,0.0,0.0
1765224444015,0.0,1.0,2.0,25.0,0.0,0.0,0.0,0.0,0.0,0.0,0.050752,-0.048312,0.9934459999999999,-0.7000000000000001,0.49000000000000005,-0.14,3.3,3.31,3.3,3.29,3.27,3.28,3.28,3.28,3.31,3.31,3.31,3.3,3.27,3.28,3.28,3.29,3.3,3.3,3.3,3.29,3.31,3.31,3.31,3.3,3.31,3.27,79.0,-1.0,1.0,0.0,1.0,1.0,5938989,0.0,0.0
1765224444033,0.0,1.0,2.0,25.0,0.0,0.0,0.0,0.0,0.0,0.0,0.049776,-0.047702,0.99247,-0.7000000000000001,0.49000000000000005,-0.14,3.3,3.31,3.3,3.29,3.27,3.28,3.28,3.28,3.31,3.31,3.31,3.3,3.27,3.28,3.28,3.29,3.3,3.3,3.3,3.29,3.31,3.31,3.31,3.3,3.31,3.27,79.0,-1.0,1.0,0.0,1.0,1.0,5939007,0.0,0.0
1765224444066,0.0,1.0,2.0,25.0,0.0,0.0,0.0,0.0,0.0,0.0,0.049776,-0.047702,0.99247,-0.6300000000000001,0.35000000000000003,-0.14,3.3,3.31,3.3,3.29,3.27,3.28,3.28,3.28,3.31,3.31,3.31,3.3,3.27,3.28,3.28,3.29,3.3,3.3,3.3,3.29,3.31,3.31,3.31,3.3,3.31,3.27,79.0,-1.0,1.0,0.0,1.0,1.0,5939040,0.0,0.0
1765224444083,0.0,1.0,2.0,25.0,0.0,0.0,0.0,0.0,0.0,0.0,0.049776,-0.047702,0.99247,-0.6300000000000001,0.35000000000000003,-0.14,3.3,3.31,3.3,3.29,3.27,3.28,3.28,3.28,3.31,3.31,3.31,3.3,3.27,3.28,3.28,3.29,3.3,3.3,3.3,3.29,3.31,3.31,3.31,3.3,3.31,3.27,79.0,-1.0,1.0,0.0,1.0,1.0,5939057,0.0,0.0
1765224444116,0.0,1.0,2.0,25.0,0.0,0.0,0.0,0.0,0.0,0.0,0.049776,-0.047702,0.99247,-0.6300000000000001,0.35000000000000003,-0.14,3.3,3.31,3.3,3.29,3.27,3.28,3.28,3.28,3.31,3.31,3.31,3.3,3.27,3.28,3.28,3.29,3.3,3.3,3.3,3.29,3.31,3.31,3.31,3.3,3.31,3.27,79.0,-1.0,1.0,0.0,1.0,1.0,5939090,0.0,0.0
1765224444166,0.0,1.0,2.0,25.0,0.0,0.0,0.0,0.0,0.0,0.0,0.050752,-0.048068,0.99125,-0.6300000000000001,0.35000000000000003,-0.14,3.3,3.31,3.3,3.29,3.27,3.28,3.28,3.28,3.31,3.31,3.31,3.3,3.27,3.28,3.28,3.29,3.3,3.3,3.3,3.29,3.31,3.31,3.31,3.3,3.31,3.27,79.0,-1.0,1.0,0.0,1.0,1.0,5939140,0.0,0.0
1765224444183,0.0,1.0,2.0,25.0,0.0,0.0,0.0,0.0,0.0,0.0,0.050752,-0.048068,0.99125,-0.7000000000000001,0.49000000000000005,-0.07,3.3,3.31,3.3,3.29,3.27,3.28,3.28,3.28,3.31,3.31,3.31,3.3,3.27,3.28,3.28,3.29,3.3,3.3,3.3,3.29,3.31,3.31,3.31,3.3,3.31,3.27,79.0,-1.0,1.0,0.0,1.0,1.0,5939157,0.0,0.0
1765224444216,0.0,1.0,2.0,25.0,0.0,0.0,0.0,0.0,0.0,0.0,0.050752,-0.048068,0.99125,-0.7000000000000001,0.49000000000000005,-0.07,3.3,3.31,3.3,3.29,3.27,3.28,3.28,3.28,3.31,3.31,3.31,3.3,3.27,3.28,3.28,3.29,3.3,3.3,3.3,3.29,3.31,3.31,3.31,3.3,3.31,3.27,79.0,-1.0,1.0,0.0,1.0,1.0,5939190,0.0,0.0
1765224444233,0.0,1.0,2.0,25.0,0.0,0.0,0.0,0.0,0.0,0.0,0.050752,-0.048068,0.99125,-0.7000000000000001,0.49000000000000005,-0.07,3.3,3.31,3.3,3.29,3.27,3.28,3.28,3.28,3.31,3.31,3.31,3.3,3.27,3.28,3.28,3.29,3.3,3.3,3.3,3.29,3.31,3.31,3.31,3.3,3.31,3.27,79.0,-1.0,1.0,0.0,1.0,1.0,5939207,0.0,0.0
1765224444249,0.0,1.0,2.0,25.0,0.0,0.0,0.0,0.0,0.0,0.0,0.050752,-0.048068,0.99125,-0.7000000000000001,0.49000000000000005,-0.07,3.3,3.31,3.3,3.29,3.27,3.28,3.28,3.28,3.31,3.31,3.31,3.3,3.27,3.28,3.28,3.29,3.3,3.3,3.3,3.29,3.31,3.31,3.31,3.3,3.31,3.27,79.0,-1.0,1.0,0.0,1.0,1.0,5939223,0.0,0.0
1765224444266,0.0,1.0,2.0,25.0,0.0,0.0,0.0,0.0,0.0,0.0,0.050752,-0.048068,0.99125,-0.7000000000000001,0.49000000000000005,-0.07,3.3,3.31,3.3,3.29,3.27,3.28,3.28,3.28,3.31,3.31,3.31,3.3,3.27,3.28,3.28,3.29,3.3,3.3,3.3,3.29,3.31,3.31,3.31,3.3,3.31,3.27,79.0,-1.0,1.0,0.0,1.0,1.0,5939240,0.0,0.0
1765224444280,0.0,1.0,2.0,25.0,0.0,0.0,0.0,0.0,0.0,0.0,0.050752,-0.048068,0.99125,-0.7000000000000001,0.49000000000000005,-0.07,3.3,3.31,3.3,3.29,3.27,3.28,3.28,3.28,3.31,3.31,3.31,3.3,3.27,3.28,3.28,3.29,3.3,3.3,3.3,3.29,3.31,3.31,3.31,3.3,3.31,3.27,79.0,-1.0,1.0,0.0,1.0,1.0,5939254,0.0,0.0
1765224444333,0.0,1.0,2.0,25.0,0.0,0.0,0.0,0.0,0.0,0.0,0.050752,-0.048068,0.99125,-0.7000000000000001,0.49000000000000005,-0.07,3.3,3.31,3.3,3.29,3.27,3.28,3.28,3.28,3.31,3.31,3.31,3.3,3.27,3.28,3.28,3.29,3.3,3.3,3.3,3.29,3.31,3.31,3.31,3.3,3.31,3.27,79.0,-1.0,1.0,0.0,1.0,1.0,5939307,0.0,0.0
1765224444366,0.0,1.0,2.0,25.0,0.0,0.0,0.0,0.0,0.0,0.0,0.050752,-0.048068,0.99125,-0.7000000000000001,0.49000000000000005,-0.07,3.3,3.31,3.3,3.29,3.27,3.28,3.28,3.28,3.31,3.31,3.31,3.3,3.27,3.28,3.28,3.29,3.3,3.3,3.3,3.29,3.31,3.31,3.31,3.3,3.31,3.27,79.0,-1.0,1.0,0.0,1.0,1.0,5939340,0.0,0.0
1765224444382,0.0,1.0,2.0,25.0,0.0,0.0,0.0,0.0,0.0,0.0,0.050752,-0.048068,0.99125,-0.7000000000000001,0.49000000000000005,-0.07,3.3,3.31,3.3,3.29,3.27,3.28,3.28,3.28,3.31,3.31,3.31,3.3,3.27,3.28,3.28,3.29,3.3,3.3,3.3,3.29,3.31,3.31,3.31,3.3,3.31,3.27,79.0,-1.0,1.0,0.0,1.0,1.0,5939356,0.0,0.0
1765224444399,0.0,1.0,2.0,25.0,0.0,0.0,0.0,0.0,0.0,0.0,0.050752,-0.048068,0.99125,-0.7000000000000001,0.49000000000000005,-0.07,3.3,3.31,3.3,3.29,3.27,3.28,3.28,3.28,3.31,3.31,3.31,3.3,3.27,3.28,3.28,3.29,3.3,3.3,3.3,3.29,3.31,3.31,3.31,3.3,3.31,3.27,79.0,-1.0,1.0,0.0,1.0,1.0,5939373,0.0,0.0
1765224444415,0.0,1.0,2.0,25.0,0.0,0.0,0.0,0.0,0.0,0.0,0.050752,-0.048068,0.99125,-0.7000000000000001,0.49000000000000005,-0.07,3.3,3.31,3.3,3.29,3.27,3.28,3.28,3.28,3.31,3.31,3.31,3.3,3.27,3.28,3.28,3.29,3.3,3.3,3.3,3.29,3.31,3.31,3.31,3.3,3.31,3.27,79.0,-1.0,1.0,0.0,1.0,1.0,5939389,0.0,0.0
1765224444432,0.0,1.0,2.0,25.0,0.0,0.0,0.0,0.0,0.0,0.0,0.051727999999999996,-0.048312,0.991738,-0.7000000000000001,0.49000000000000005,-0.07,3.3,3.31,3.3,3.29,3.27,3.28,3.28,3.28,3.31,3.31,3.31,3.3,3.27,3.28,3.28,3.29,3.3,3.3,3.3,3.29,3.31,3.31,3.31,3.3,3.31,3.27,79.0,-1.0,1.0,0.0,1.0,1.0,5939406,0.0,0.0
1765224444483,0.0,1.0,2.0,25.0,0.0,0.0,0.0,0.0,0.0,0.0,0.051727999999999996,-0.048312,0.991738,-0.56,0.49000000000000005,-0.07,3.3,3.31,3.3,3.29,3.27,3.28,3.28,3.28,3.31,3.31,3.31,3.3,3.27,3.28,3.28,3.29,3.3,3.3,3.3,3.29,3.31,3.31,3.31,3.3,3.31,3.27,79.0,-1.0,1.0,0.0,1.0,1.0,5939457,0.0,0.0
1765224444499,0.0,1.0,2.0,25.0,0.0,0.0,0.0,0.0,0.0,0.0,0.051727999999999996,-0.048312,0.991738,-0.56,0.49000000000000005,-0.07,3.3,3.31,3.3,3.29,3.27,3.28,3.28,3.28,3.31,3.31,3.31,3.3,3.27,3.28,3.28,3.29,3.3,3.3,3.3,3.29,3.31,3.31,3.31,3.3,3.31,3.27,79.0,-1.0,1.0,0.0,1.0,1.0,5939473,0.0,0.0
1765224444583,0.0,1.0,2.0,25.0,0.0,0.0,0.0,0.0,0.0,0.0,0.050263999999999996,-0.04758,0.990518,-0.77,0.42000000000000004,0.0,3.3,3.31,3.3,3.29,3.27,3.28,3.28,3.28,3.31,3.31,3.31,3.3,3.27,3.28,3.28,3.29,3.3,3.3,3.3,3.29,3.31,3.31,3.31,3.3,3.31,3.27,79.0,-1.0,1.0,0.0,1.0,1.0,5939557,0.0,0.0
1765224444650,0.0,1.0,2.0,25.0,0.0,0.0,0.0,0.0,0.0,0.0,0.050263999999999996,-0.04758,0.990518,-0.77,0.42000000000000004,0.0,3.3,3.31,3.3,3.29,3.27,3.28,3.28,3.28,3.31,3.31,3.31,3.3,3.27,3.28,3.28,3.29,3.3,3.3,3.3,3.29,3.31,3.31,3.31,3.3,3.31,3.27,79.0,-1.0,1.0,0.0,1.0,1.0,5939624,0.0,0.0
1765224444666,0.0,1.0,2.0,25.0,0.0,0.0,0.0,0.0,0.0,0.0,0.050263999999999996,-0.04758,0.990518,-0.77,0.42000000000000004,0.0,3.3,3.31,3.3,3.29,3.27,3.28,3.28,3.28,3.31,3.31,3.31,3.3,3.27,3.28,3.28,3.29,3.3,3.3,3.3,3.29,3.31,3.31,3.31,3.3,3.31,3.27,79.0,-1.0,1.0,0.0,1.0,1.0,5939640,0.0,0.0
1765224444683,0.0,1.0,2.0,25.0,0.0,0.0,0.0,0.0,0.0,0.0,0.050263999999999996,-0.04758,0.990518,-0.77,0.42000000000000004,0.0,3.3,3.31,3.3,3.29,3.27,3.28,3.28,3.28,3.31,3.31,3.31,3.3,3.27,3.28,3.28,3.29,3.3,3.3,3.3,3.29,3.31,3.31,3.31,3.3,3.31,3.27,79.0,-1.0,1.0,0.0,1.0,1.0,5939657,0.0,0.0
1765224444716,0.0,1.0,2.0,25.0,0.0,0.0,0.0,0.0,0.0,0.0,0.050263999999999996,-0.04758,0.990518,-0.77,0.42000000000000004,0.0,3.3,3.31,3.3,3.29,3.27,3.28,3.28,3.28,3.31,3.31,3.31,3.3,3.27,3.28,3.28,3.29,3.3,3.3,3.3,3.29,3.31,3.31,3.31,3.3,3.31,3.27,79.0,-1.0,1.0,0.0,1.0,1.0,5939690,0.0,0.0
1765224444733,0.0,1.0,2.0,25.0,0.0,0.0,0.0,0.0,0.0,0.0,0.049898,-0.04758,0.991372,-0.77,0.42000000000000004,0.0,3.3,3.31,3.3,3.29,3.27,3.28,3.28,3.28,3.31,3.31,3.31,3.3,3.27,3.28,3.28,3.29,3.3,3.3,3.3,3.29,3.31,3.31,3.31,3.3,3.31,3.27,79.0,-1.0,1.0,0.0,1.0,1.0,5939707,0.0,0.0
1765224444766,0.0,1.0,2.0,25.0,0.0,0.0,0.0,0.0,0.0,0.0,0.049898,-0.04758,0.991372,-0.7000000000000001,0.42000000000000004,0.0,3.3,3.31,3.3,3.29,3.27,3.28,3.28,3.28,3.31,3.31,3.31,3.3,3.27,3.28,3.28,3.29,3.3,3.3,3.3,3.29,3.31,3.31,3.31,3.3,3.31,3.27,79.0,-1.0,1.0,0.0,1.0,1.0,5939740,0.0,0.0
1765224444783,0.0,1.0,2.0,25.0,0.0,0.0,0.0,0.0,0.0,0.0,0.049898,-0.04758,0.991372,-0.7000000000000001,0.42000000000000004,0.0,3.3,3.31,3.3,3.29,3.27,3.28,3.28,3.28,3.31,3.31,3.31,3.3,3.27,3.28,3.28,3.29,3.3,3.3,3.3,3.29,3.31,3.31,3.31,3.3,3.31,3.27,79.0,-1.0,1.0,0.0,1.0,1.0,5939757,0.0,0.0
1765224444850,0.0,1.0,2.0,25.0,0.0,0.0,0.0,0.0,0.0,0.0,0.049898,-0.04758,0.991372,-0.7000000000000001,0.42000000000000004,0.0,3.3,3.31,3.3,3.29,3.27,3.28,3.28,3.28,3.31,3.31,3.31,3.3,3.27,3.28,3.28,3.29,3.3,3.3,3.3,3.29,3.31,3.31,3.31,3.3,3.31,3.27,79.0,-1.0,1.0,0.0,1.0,1.0,5939824,0.0,0.0
1765224444883,0.0,1.0,2.0,25.0,0.0,0.0,0.0,0.0,0.0,0.0,0.049898,-0.04758,0.991372,-0.7000000000000001,0.42000000000000004,0.0,3.3,3.31,3.3,3.29,3.27,3.28,3.28,3.28,3.31,3.31,3.31,3.3,3.27,3.28,3.28,3.29,3.3,3.3,3.3,3.29,3.31,3.31,3.31,3.3,3.31,3.27,79.0,-1.0,1.0,0.0,1.0,1.0,5939857,0.0,0.0
1765224444900,0.0,1.0,2.0,25.0,0.0,0.0,0.0,0.0,0.0,0.0,0.049898,-0.04758,0.991372,-0.7000000000000001,0.42000000000000004,0.0,3.3,3.31,3.3,3.29,3.27,3.28,3.28,3.28,3.31,3.31,3.31,3.3,3.27,3.28,3.28,3.29,3.3,3.3,3.3,3.29,3.31,3.31,3.31,3.3,3.31,3.27,79.0,-1.0,1.0,0.0,1.0,1.0,5939874,0.0,0.0
1765224444916,0.0,1.0,2.0,25.0,0.0,0.0,0.0,0.0,0.0,0.0,0.049898,-0.04758,0.991372,-0.7000000000000001,0.42000000000000004,0.0,3.3,3.31,3.3,3.29,3.27,3.28,3.28,3.28,3.31,3.31,3.31,3.3,3.27,3.28,3.28,3.29,3.3,3.3,3.3,3.29,3.31,3.31,3.31,3.3,3.31,3.27,79.0,-1.0,1.0,0.0,1.0,1.0,5939890,0.0,0.0
1765224444933,0.0,1.0,2.0,25.0,0.0,0.0,0.0,0.0,0.0,0.0,0.052582,-0.047458,0.991372,-0.7000000000000001,0.42000000000000004,0.0,3.3,3.31,3.3,3.29,3.27,3.28,3.28,3.28,3.31,3.31,3.31,3.3,3.27,3.28,3.28,3.29,3.3,3.3,3.3,3.29,3.31,3.31,3.31,3.3,3.31,3.27,79.0,-1.0,1.0,0.0,1.0,1.0,5939907,0.0,0.0
1765224444966,0.0,1.0,2.0,25.0,0.0,0.0,0.0,0.0,0.0,0.0,0.05429,-0.048312,0.9910059999999999,-0.7000000000000001,0.42000000000000004,0.0,3.3,3.31,3.3,3.29,3.27,3.28,3.28,3.28,3.31,3.31,3.31,3.3,3.27,3.28,3.28,3.29,3.3,3.3,3.3,3.29,3.31,3.31,3.31,3.3,3.31,3.27,79.0,-1.0,1.0,0.0,1.0,1.0,5939940,0.0,0.0
1765224444999,0.0,1.0,2.0,25.0,0.0,0.0,0.0,0.0,0.0,0.0,0.05429,-0.048312,0.9910059999999999,-0.56,0.35000000000000003,0.0,3.3,3.31,3.3,3.29,3.27,3.28,3.28,3.28,3.31,3.31,3.31,3.3,3.27,3.28,3.28,3.29,3.3,3.3,3.3,3.29,3.31,3.31,3.31,3.3,3.31,3.27,79.0,-1.0,1.0,0.0,1.0,1.0,5939973,0.0,0.0
1765224445017,0.0,1.0,2.0,25.0,0.0,0.0,0.0,0.0,0.0,0.0,0.05429,-0.048312,0.9910059999999999,-0.56,0.35000000000000003,0.0,3.3,3.31,3.3,3.29,3.27,3.28,3.28,3.28,3.31,3.31,3.31,3.3,3.27,3.28,3.28,3.29,3.3,3.3,3.3,3.29,3.31,3.31,3.31,3.3,3.31,3.27,79.0,-1.0,1.0,0.0,1.0,1.0,5939991,0.0,0.0
1765224445033,0.0,1.0,2.0,25.0,0.0,0.0,0.0,0.0,0.0,0.0,0.05429,-0.048312,0.9910059999999999,-0.56,0.35000000000000003,0.0,3.3,3.31,3.3,3.29,3.27,3.28,3.28,3.28,3.31,3.31,3.31,3.3,3.27,3.28,3.28,3.29,3.3,3.3,3.3,3.29,3.31,3.31,3.31,3.3,3.31,3.27,79.0,-1.0,1.0,0.0,1.0,1.0,5940007,0.0,0.0
1765224445048,0.0,1.0,2.0,25.0,0.0,0.0,0.0,0.0,0.0,0.0,0.05429,-0.048312,0.9910059999999999,-0.56,0.35000000000000003,0.0,3.3,3.31,3.3,3.29,3.27,3.28,3.28,3.28,3.31,3.31,3.31,3.3,3.27,3.28,3.28,3.29,3.3,3.3,3.3,3.29,3.31,3.31,3.31,3.3,3.31,3.27,79.0,-1.0,1.0,0.0,1.0,1.0,5940022,0.0,0.0
1765224445066,0.0,1.0,2.0,25.0,0.0,0.0,0.0,0.0,0.0,0.0,0.05429,-0.048312,0.9910059999999999,-0.56,0.35000000000000003,0.0,3.3,3.31,3.3,3.29,3.27,3.28,3.28,3.28,3.31,3.31,3.31,3.3,3.27,3.28,3.28,3.29,3.3,3.3,3.3,3.29,3.31,3.31,3.31,3.3,3.31,3.27,79.0,-1.0,1.0,0.0,1.0,1.0,5940040,0.0,0.0
1765224445083,0.0,1.0,2.0,25.0,0.0,0.0,0.0,0.0,0.0,0.0,0.05429,-0.048312,0.9910059999999999,-0.56,0.35000000000000003,0.0,3.3,3.31,3.3,3.29,3.27,3.28,3.28,3.28,3.31,3.31,3.31,3.3,3.27,3.28,3.28,3.29,3.3,3.3,3.3,3.29,3.31,3.31,3.31,3.3,3.31,3.27,79.0,-1.0,1.0,0.0,1.0,1.0,5940057,0.0,0.0
1765224445100,0.0,1.0,2.0,25.0,0.0,0.0,0.0,0.0,0.0,0.0,0.05429,-0.048312,0.9910059999999999,-0.56,0.35000000000000003,0.0,3.3,3.31,3.3,3.29,3.27,3.28,3.28,3.28,3.31,3.31,3.31,3.3,3.27,3.28,3.28,3.29,3.3,3.3,3.3,3.29,3.31,3.31,3.31,3.3,3.31,3.27,79.0,-1.0,1.0,0.0,1.0,1.0,5940074,0.0,0.0
1765224445131,0.0,1.0,2.0,25.0,0.0,0.0,0.0,0.0,0.0,0.0,0.05429,-0.048312,0.9910059999999999,-0.56,0.35000000000000003,0.0,3.3,3.31,3.3,3.29,3.27,3.28,3.28,3.28,3.31,3.31,3.31,3.3,3.27,3.28,3.28,3.29,3.3,3.3,3.3,3.29,3.31,3.31,3.31,3.3,3.31,3.27,79.0,-1.0,1.0,0.0,1.0,1.0,5940105,0.0,0.0
1765224445147,0.0,1.0,2.0,25.0,0.0,0.0,0.0,0.0,0.0,0.0,0.05429,-0.048312,0.9910059999999999,-0.56,0.35000000000000003,0.0,3.3,3.31,3.3,3.29,3.27,3.28,3.28,3.28,3.31,3.31,3.31,3.3,3.27,3.28,3.28,3.29,3.3,3.3,3.3,3.29,3.31,3.31,3.31,3.3,3.31,3.27,79.0,-1.0,1.0,0.0,1.0,1.0,5940121,0.0,0.0
1765224445164,0.0,1.0,2.0,25.0,0.0,0.0,0.0,0.0,0.0,0.0,0.05429,-0.048312,0.9910059999999999,-0.56,0.35000000000000003,0.0,3.3,3.31,3.3,3.29,3.27,3.28,3.28,3.28,3.31,3.31,3.31,3.3,3.27,3.28,3.28,3.29,3.3,3.3,3.3,3.29,3.31,3.31,3.31,3.3,3.31,3.27,79.0,-1.0,1.0,0.0,1.0,1.0,5940138,0.0,0.0
1765224445198,0.0,1.0,2.0,25.0,0.0,0.0,0.0,0.0,0.0,0.0,0.050142,-0.047214,0.990884,-0.56,0.35000000000000003,0.0,3.3,3.31,3.3,3.29,3.27,3.28,3.28,3.28,3.31,3.31,3.31,3.3,3.27,3.28,3.28,3.29,3.3,3.3,3.3,3.29,3.31,3.31,3.31,3.3,3.31,3.27,79.0,-1.0,1.0,0.0,1.0,1.0,5940172,0.0,0.0
1765224445216,0.0,1.0,2.0,25.0,0.0,0.0,0.0,0.0,0.0,0.0,0.050142,-0.047214,0.990884,-0.6300000000000001,0.42000000000000004,-0.07,3.3,3.31,3.3,3.29,3.27,3.28,3.28,3.28,3.31,3.31,3.31,3.3,3.27,3.28,3.28,3.29,3.3,3.3,3.3,3.29,3.31,3.31,3.31,3.3,3.31,3.27,79.0,-1.0,1.0,0.0,1.0,1.0,5940190,0.0,0.0
1765224445266,0.0,1.0,2.0,25.0,0.0,0.0,0.0,0.0,0.0,0.0,0.050142,-0.047214,0.990884,-0.6300000000000001,0.42000000000000004,-0.07,3.3,3.31,3.3,3.29,3.27,3.28,3.28,3.28,3.31,3.31,3.31,3.3,3.27,3.28,3.28,3.29,3.3,3.3,3.3,3.29,3.31,3.31,3.31,3.3,3.31,3.27,79.0,-1.0,1.0,0.0,1.0,1.0,5940240,0.0,0.0
1765224445349,0.0,1.0,2.0,25.0,0.0,0.0,0.0,0.0,0.0,0.0,0.051362,-0.048068,0.991982,-0.6300000000000001,0.42000000000000004,-0.07,3.3,3.31,3.3,3.29,3.27,3.28,3.28,3.28,3.31,3.31,3.31,3.3,3.27,3.28,3.28,3.29,3.3,3.3,3.3,3.29,3.31,3.31,3.31,3.3,3.31,3.27,79.0,-1.0,1.0,0.0,1.0,1.0,5940323,0.0,0.0
1765224445366,0.0,1.0,2.0,25.0,0.0,0.0,0.0,0.0,0.0,0.0,0.051362,-0.048068,0.991982,-0.56,0.42000000000000004,-0.07,3.3,3.31,3.3,3.29,3.27,3.28,3.28,3.28,3.31,3.31,3.31,3.3,3.27,3.28,3.28,3.29,3.3,3.3,3.3,3.29,3.31,3.31,3.31,3.3,3.31,3.27,79.0,-1.0,1.0,0.0,1.0,1.0,5940340,0.0,0.0
1765224445416,0.0,1.0,2.0,25.0,0.0,0.0,0.0,0.0,0.0,0.0,0.051362,-0.048068,0.991982,-0.56,0.42000000000000004,-0.07,3.3,3.31,3.3,3.29,3.27,3.28,3.28,3.28,3.31,3.31,3.31,3.3,3.27,3.28,3.28,3.29,3.3,3.3,3.3,3.29,3.31,3.31,3.31,3.3,3.31,3.27,79.0,-1.0,1.0,0.0,1.0,1.0,5940390,0.0,0.0
1765224445433,0.0,1.0,2.0,25.0,0.0,0.0,0.0,0.0,0.0,0.0,0.051362,-0.048068,0.991982,-0.56,0.42000000000000004,-0.07,3.3,3.31,3.3,3.29,3.27,3.28,3.28,3.28,3.31,3.31,3.31,3.3,3.27,3.28,3.28,3.29,3.3,3.3,3.3,3.29,3.31,3.31,3.31,3.3,3.31,3.27,79.0,-1.0,1.0,0.0,1.0,1.0,5940407,0.0,0.0
1765224445449,0.0,1.0,2.0,25.0,0.0,0.0,0.0,0.0,0.0,0.0,0.051362,-0.048068,0.991982,-0.56,0.42000000000000004,-0.07,3.3,3.31,3.3,3.29,3.27,3.28,3.28,3.28,3.31,3.31,3.31,3.3,3.27,3.28,3.28,3.29,3.3,3.3,3.3,3.29,3.31,3.31,3.31,3.3,3.31,3.27,79.0,-1.0,1.0,0.0,1.0,1.0,5940423,0.0,0.0
1765224445483,0.0,1.0,2.0,25.0,0.0,0.0,0.0,0.0,0.0,0.0,0.051972,-0.049409999999999996,0.9922259999999999,-0.56,0.42000000000000004,-0.07,3.3,3.31,3.3,3.29,3.27,3.28,3.28,3.28,3.31,3.31,3.31,3.3,3.27,3.28,3.28,3.29,3.3,3.3,3.3,3.29,3.31,3.31,3.31,3.3,3.31,3.27,79.0,-1.0,1.0,0.0,1.0,1.0,5940457,0.0,0.0
1765224445533,0.0,1.0,2.0,25.0,0.0,0.0,0.0,0.0,0.0,0.0,0.051972,-0.049409999999999996,0.9922259999999999,-0.7000000000000001,0.42000000000000004,0.0,3.3,3.31,3.3,3.29,3.27,3.28,3.28,3.28,3.31,3.31,3.31,3.3,3.27,3.28,3.28,3.29,3.3,3.3,3.3,3.29,3.31,3.31,3.31,3.3,3.31,3.27,79.0,-1.0,1.0,0.0,1.0,1.0,5940507,0.0,0.0
1765224445550,0.0,1.0,2.0,25.0,0.0,0.0,0.0,0.0,0.0,0.0,0.051972,-0.049409999999999996,0.9922259999999999,-0.7000000000000001,0.42000000000000004,0.0,3.3,3.31,3.3,3.29,3.27,3.28,3.28,3.28,3.31,3.31,3.31,3.3,3.27,3.28,3.28,3.29,3.3,3.3,3.3,3.29,3.31,3.31,3.31,3.3,3.31,3.27,79.0,-1.0,1.0,0.0,1.0,1.0,5940524,0.0,0.0
1765224445584,0.0,1.0,2.0,25.0,0.0,0.0,0.0,0.0,0.0,0.0,0.051972,-0.049409999999999996,0.9922259999999999,-0.7000000000000001,0.35000000000000003,-0.07,3.3,3.31,3.3,3.29,3.27,3.28,3.28,3.28,3.31,3.31,3.31,3.3,3.27,3.28,3.28,3.29,3.3,3.3,3.3,3.29,3.31,3.31,3.31,3.3,3.31,3.27,79.0,-1.0,1.0,0.0,1.0,1.0,5940558,0.0,0.0
1765224445600,0.0,1.0,2.0,25.0,0.0,0.0,0.0,0.0,0.0,0.0,0.051972,-0.049409999999999996,0.9922259999999999,-0.7000000000000001,0.35000000000000003,-0.07,3.3,3.31,3.3,3.29,3.27,3.28,3.28,3.28,3.31,3.31,3.31,3.3,3.27,3.28,3.28,3.29,3.3,3.3,3.3,3.29,3.31,3.31,3.31,3.3,3.31,3.27,79.0,-1.0,1.0,0.0,1.0,1.0,5940574,0.0,0.0
1765224445633,0.0,1.0,2.0,25.0,0.0,0.0,0.0,0.0,0.0,0.0,0.051972,-0.049409999999999996,0.9922259999999999,-0.7000000000000001,0.35000000000000003,-0.07,3.3,3.31,3.3,3.29,3.27,3.28,3.28,3.28,3.31,3.31,3.31,3.3,3.27,3.28,3.28,3.29,3.3,3.3,3.3,3.29,3.31,3.31,3.31,3.3,3.31,3.27,79.0,-1.0,1.0,0.0,1.0,1.0,5940607,0.0,0.0
1765224445700,0.0,1.0,2.0,25.0,0.0,0.0,0.0,0.0,0.0,0.0,0.051972,-0.049409999999999996,0.9922259999999999,-0.7000000000000001,0.35000000000000003,-0.07,3.3,3.31,3.3,3.29,3.27,3.28,3.28,3.28,3.31,3.31,3.31,3.3,3.27,3.28,3.28,3.29,3.3,3.3,3.3,3.29,3.31,3.31,3.31,3.3,3.31,3.27,79.0,-1.0,1.0,0.0,1.0,1.0,5940674,0.0,0.0
1765224445766,0.0,1.0,2.0,25.0,0.0,0.0,0.0,0.0,0.0,0.0,0.049044,-0.04636,0.992348,-0.7000000000000001,0.35000000000000003,-0.07,3.3,3.31,3.3,3.29,3.27,3.28,3.28,3.28,3.31,3.31,3.31,3.3,3.27,3.28,3.28,3.29,3.3,3.3,3.3,3.29,3.31,3.31,3.31,3.3,3.31,3.27,79.0,-1.0,1.0,0.0,1.0,1.0,5940740,0.0,0.0
1765224445783,0.0,1.0,2.0,25.0,0.0,0.0,0.0,0.0,0.0,0.0,0.049044,-0.04636,0.992348,-0.6300000000000001,0.35000000000000003,-0.07,3.3,3.31,3.3,3.29,3.27,3.28,3.28,3.28,3.31,3.31,3.31,3.3,3.27,3.28,3.28,3.29,3.3,3.3,3.3,3.29,3.31,3.31,3.31,3.3,3.31,3.27,79.0,-1.0,1.0,0.0,1.0,1.0,5940757,0.0,0.0
1765224445833,0.0,1.0,2.0,25.0,0.0,0.0,0.0,0.0,0.0,0.0,0.049044,-0.04636,0.992348,-0.6300000000000001,0.35000000000000003,-0.07,3.3,3.31,3.3,3.29,3.27,3.28,3.28,3.28,3.31,3.31,3.31,3.3,3.27,3.28,3.28,3.29,3.3,3.3,3.3,3.29,3.31,3.31,3.31,3.3,3.31,3.27,79.0,-1.0,1.0,0.0,1.0,1.0,5940807,0.0,0.0
1765224445850,0.0,1.0,2.0,25.0,0.0,0.0,0.0,0.0,0.0,0.0,0.051484,-0.048678,0.99125,-0.6300000000000001,0.35000000000000003,-0.07,3.3,3.31,3.3,3.29,3.27,3.28,3.28,3.28,3.31,3.31,3.31,3.3,3.27,3.28,3.28,3.29,3.3,3.3,3.3,3.29,3.31,3.31,3.31,3.3,3.32,3.27,79.0,-1.0,1.0,0.0,1.0,1.0,5940824,0.0,0.0
1765224445883,0.0,1.0,2.0,25.0,0.0,0.0,0.0,0.0,0.0,0.0,0.051484,-0.048678,0.99125,-0.6300000000000001,0.35000000000000003,-0.07,3.3,3.31,3.3,3.29,3.27,3.28,3.28,3.28,3.31,3.31,3.31,3.3,3.27,3.28,3.28,3.29,3.3,3.3,3.3,3.29,3.31,3.31,3.31,3.3,3.32,3.27,79.0,-1.0,1.0,0.0,1.0,1.0,5940857,0.0,0.0
1765224445900,0.0,1.0,2.0,25.0,0.0,0.0,0.0,0.0,0.0,0.0,0.051484,-0.048678,0.99125,-0.6300000000000001,0.35000000000000003,-0.07,3.3,3.31,3.3,3.29,3.27,3.28,3.28,3.28,3.31,3.31,3.31,3.3,3.27,3.28,3.28,3.29,3.3,3.3,3.3,3.29,3.31,3.31,3.31,3.3,3.32,3.27,79.0,-1.0,1.0,0.0,1.0,1.0,5940874,0.0,0.0
1765224445915,0.0,1.0,2.0,25.0,0.0,0.0,0.0,0.0,0.0,0.0,0.051484,-0.048678,0.99125,-0.6300000000000001,0.35000000000000003,-0.07,3.3,3.31,3.3,3.29,3.27,3.28,3.28,3.28,3.31,3.31,3.31,3.3,3.27,3.28,3.28,3.29,3.3,3.3,3.3,3.29,3.31,3.31,3.31,3.3,3.32,3.27,79.0,-1.0,1.0,0.0,1.0,1.0,5940889,0.0,0.0
1765224445933,0.0,1.0,2.0,25.0,0.0,0.0,0.0,0.0,0.0,0.0,0.051484,-0.048678,0.99125,-0.7000000000000001,0.28,0.07,3.3,3.31,3.3,3.29,3.27,3.28,3.28,3.28,3.31,3.31,3.31,3.3,3.27,3.28,3.28,3.29,3.3,3.3,3.3,3.29,3.31,3.31,3.31,3.3,3.32,3.27,79.0,-1.0,1.0,0.0,1.0,1.0,5940907,0.0,0.0
1765224445950,0.0,1.0,2.0,25.0,0.0,0.0,0.0,0.0,0.0,0.0,0.051484,-0.048678,0.99125,-0.7000000000000001,0.28,0.07,3.3,3.31,3.3,3.29,3.27,3.28,3.28,3.28,3.31,3.31,3.31,3.3,3.27,3.28,3.28,3.29,3.3,3.3,3.3,3.29,3.31,3.31,3.31,3.3,3.32,3.27,79.0,-1.0,1.0,0.0,1.0,1.0,5940924,0.0,0.0
1765224446017,0.0,1.0,2.0,25.0,0.0,0.0,0.0,0.0,0.0,0.0,0.051484,-0.048678,0.99125,-0.7000000000000001,0.28,0.07,3.3,3.31,3.3,3.29,3.27,3.28,3.28,3.28,3.31,3.31,3.31,3.3,3.27,3.28,3.28,3.29,3.3,3.3,3.3,3.29,3.31,3.31,3.31,3.3,3.32,3.27,79.0,-1.0,1.0,0.0,1.0,1.0,5940991,0.0,0.0
1765224446083,0.0,1.0,2.0,25.0,0.0,0.0,0.0,0.0,0.0,0.0,0.056119999999999996,-0.048556,0.9891759999999999,-0.7000000000000001,0.28,0.07,3.3,3.31,3.3,3.29,3.27,3.28,3.28,3.28,3.31,3.31,3.31,3.3,3.27,3.28,3.28,3.29,3.3,3.3,3.3,3.29,3.31,3.31,3.31,3.3,3.32,3.27,79.0,-1.0,1.0,0.0,1.0,1.0,5941057,0.0,0.0
1765224446116,0.0,1.0,2.0,25.0,0.0,0.0,0.0,0.0,0.0,0.0,0.056119999999999996,-0.048556,0.9891759999999999,-0.8400000000000001,0.49000000000000005,0.0,3.3,3.31,3.3,3.29,3.27,3.28,3.28,3.28,3.31,3.31,3.31,3.3,3.27,3.28,3.28,3.29,3.3,3.3,3.3,3.29,3.31,3.31,3.31,3.3,3.32,3.27,79.0,-1.0,1.0,0.0,1.0,1.0,5941090,0.0,0.0
1765224446149,0.0,1.0,2.0,25.0,0.0,0.0,0.0,0.0,0.0,0.0,0.056119999999999996,-0.048556,0.9891759999999999,-0.8400000000000001,0.49000000000000005,0.0,3.3,3.31,3.3,3.29,3.27,3.28,3.28,3.28,3.31,3.31,3.31,3.3,3.27,3.28,3.28,3.29,3.3,3.3,3.3,3.29,3.31,3.31,3.31,3.3,3.32,3.27,79.0,-1.0,1.0,0.0,1.0,1.0,5941123,0.0,0.0
1765224446216,0.0,1.0,2.0,25.0,0.0,0.0,0.0,0.0,0.0,0.0,0.054655999999999996,-0.05124,0.98881,-0.8400000000000001,0.49000000000000005,0.0,3.3,3.31,3.3,3.29,3.27,3.28,3.28,3.28,3.31,3.31,3.31,3.3,3.27,3.28,3.28,3.29,3.3,3.3,3.3,3.29,3.31,3.31,3.31,3.3,3.32,3.27,79.0,-1.0,1.0,0.0,1.0,1.0,5941190,0.0,0.0
1765224446233,0.0,1.0,2.0,25.0,0.0,0.0,0.0,0.0,0.0,0.0,0.054655999999999996,-0.05124,0.98881,-0.56,0.42000000000000004,0.0,3.3,3.31,3.3,3.29,3.27,3.28,3.28,3.28,3.31,3.31,3.31,3.3,3.27,3.28,3.28,3.29,3.3,3.3,3.3,3.29,3.31,3.31,3.31,3.3,3.32,3.27,79.0,-1.0,1.0,0.0,1.0,1.0,5941207,0.0,0.0
