timestamp,THROTTLE,BRAKE,ECU_MODE_ID,TORQUE_GAIN,TORQUE_REF_LEFT_MOTOR,TORQUE_REF_RIGHT_MOTOR,LEFT_MOTOR_SPEED,RIGHT_MOTOR_SPEED,REAR_LEFT_WHEEL_SPEED,REAR_RIGHT_WHEEL_SPEED,ACCEL_LONGITUDINAL,ACCEL_LATERAL,ACCEL_NORMAL,VEL_ANGULAR_YAW,VEL_ANGULAR_PITCH,VEL_ANGULAR_ROLL,STACK_1_CELL_1,STACK_1_CELL_2,STACK_1_CELL_3,STACK_1_CELL_4,STACK_2_CELL_1,STACK_2_CELL_2,STACK_2_CELL_3,STACK_2_CELL_4,STACK_3_CELL_1,STACK_3_CELL_2,STACK_3_CELL_3,STACK_3_CELL_4,STACK_4_CELL_1,STACK_4_CELL_2,STACK_4_CELL_3,STACK_4_CELL_4,STACK_5_CELL_1,STACK_5_CELL_2,STACK_5_CELL_3,STACK_5_CELL_4,STACK_6_CELL_1,STACK_6_CELL_2,STACK_6_CELL_3,STACK_6_CELL_4,MAX_VOLTAGE,MIN_VOLTAGE,TOTAL_VOLTAGE,SHUNT_CURRENT,BMS_MODE_ID,BMS_ERROR_ID,AIR_P,AIR_N,t
1765226450009,0.0,0.0,0.0,0.0,0.0,0.0,34.87576615714286,32.325496457142854,34.87576615714286,32.325496457142854,-0.18287799999999999,0.08064199999999999,0.87596,-0.56,0.28,0.0,3.27,3.31,3.26,3.26,3.27,3.28,3.27,3.27,3.3,3.3,3.3,3.29,3.27,3.27,3.27,3.29,3.28,3.28,3.28,3.27,3.3,3.31,3.3,3.29,3.31,3.26,78.7,-45.0,1.0,2.0,0.0,0.0,7944983
1765226450057,0.0,0.0,0.0,0.0,0.0,0.0,34.87576615714286,0.0,34.87576615714286,32.325496457142854,-0.18287799999999999,0.08064199999999999,0.87596,-0.56,0.28,0.0,3.27,3.31,3.26,3.26,3.27,3.28,3.27,3.27,3.3,3.3,3.3,3.29,3.27,3.27,3.27,3.29,3.28,3.28,3.28,3.27,3.3,3.31,3.3,3.29,3.31,3.26,78.7,-45.0,1.0,2.0,0.0,0.0,7945031
1765226450157,0.0,0.0,0.0,0.0,0.0,0.0,34.87576615714286,0.0,34.87576615714286,32.325496457142854,-0.017811999999999998,0.00488,0.9928359999999999,-0.56,0.28,0.0,3.28,3.31,3.28,3.28,3.27,3.28,3.27,3.27,3.3,3.3,3.3,3.29,3.27,3.27,3.27,3.29,3.28,3.28,3.28,3.27,3.3,3.31,3.3,3.29,3.31,3.26,78.7,-45.0,1.0,2.0,0.0,0.0,7945131
1765226450174,0.0,0.0,0.0,0.0,0.0,0.0,34.87576615714286,0.0,34.87576615714286,32.325496457142854,-0.017811999999999998,0.00488,0.9928359999999999,-0.56,0.28,0.0,3.28,3.31,3.28,3.28,3.28,3.28,3.28,3.28,3.3,3.3,3.3,3.29,3.27,3.27,3.27,3.29,3.28,3.28,3.28,3.27,3.3,3.31,3.3,3.29,3.31,3.26,78.7,-45.0,1.0,2.0,0.0,0.0,7945148
1765226450194,0.0,0.0,0.0,0.0,0.0,0.0,34.87576615714286,0.0,34.87576615714286,32.325496457142854,-0.017811999999999998,0.00488,0.9928359999999999,-0.56,0.28,0.0,3.28,3.31,3.28,3.28,3.28,3.28,3.28,3.28,3.31,3.31,3.31,3.3,3.27,3.27,3.27,3.29,3.28,3.28,3.28,3.27,3.3,3.31,3.3,3.29,3.31,3.26,78.7,-45.0,1.0,2.0,0.0,0.0,7945168
1765226450208,0.0,0.0,0.0,0.0,0.0,0.0,34.87576615714286,0.0,34.87576615714286,32.325496457142854,-0.017811999999999998,0.00488,0.9928359999999999,-0.56,0.28,0.0,3.28,3.31,3.28,3.28,3.28,3.28,3.28,3.28,3.31,3.31,3.31,3.3,3.28,3.28,3.28,3.29,3.28,3.28,3.28,3.27,3.3,3.31,3.3,3.29,3.31,3.26,78.7,-45.0,1.0,2.0,0.0,0.0,7945182
1765226450226,0.0,0.0,0.0,0.0,0.0,0.0,34.87576615714286,0.0,34.87576615714286,32.325496457142854,-0.017811999999999998,0.00488,0.9928359999999999,-0.56,0.28,0.0,3.28,3.31,3.28,3.28,3.28,3.28,3.28,3.28,3.31,3.31,3.31,3.3,3.28,3.28,3.28,3.29,3.28,3.29,3.29,3.28,3.31,3.31,3.31,3.3,3.31,3.26,78.7,-45.0,1.0,2.0,0.0,0.0,7945200
1765226450240,0.0,0.0,0.0,0.0,0.0,0.0,34.87576615714286,0.0,34.87576615714286,32.325496457142854,-0.017811999999999998,0.00488,0.9928359999999999,-0.56,0.28,-0.07,3.28,3.31,3.28,3.28,3.28,3.28,3.28,3.28,3.31,3.31,3.31,3.3,3.28,3.28,3.28,3.29,3.28,3.29,3.29,3.28,3.31,3.31,3.31,3.3,3.31,3.26,78.7,-45.0,1.0,2.0,0.0,0.0,7945214
1765226450275,0.0,0.0,2.0,20.0,0.0,0.0,34.87576615714286,0.0,34.87576615714286,32.325496457142854,-0.017811999999999998,0.00488,0.9928359999999999,-0.56,0.28,-0.07,3.28,3.31,3.28,3.28,3.28,3.28,3.28,3.28,3.31,3.31,3.31,3.3,3.28,3.28,3.28,3.29,3.28,3.29,3.29,3.28,3.31,3.31,3.31,3.3,3.31,3.26,78.7,-45.0,1.0,2.0,0.0,0.0,7945249
1765226450293,0.0,0.0,2.0,20.0,0.0,0.0,34.87576615714286,0.0,34.87576615714286,32.325496457142854,-0.017811999999999998,0.00488,0.9928359999999999,-0.56,0.28,-0.07,3.28,3.31,3.28,3.28,3.28,3.28,3.28,3.28,3.31,3.31,3.31,3.3,3.28,3.28,3.28,3.29,3.28,3.29,3.29,3.28,3.31,3.31,3.31,3.3,3.31,3.26,78.7,-45.0,1.0,2.0,0.0,0.0,7945267
1765226450307,0.0,0.0,2.0,20.0,0.0,0.0,34.87576615714286,0.0,0.0,0.0,-0.017811999999999998,0.00488,0.9928359999999999,-0.56,0.28,-0.07,3.28,3.31,3.28,3.28,3.28,3.28,3.28,3.28,3.31,3.31,3.31,3.3,3.28,3.28,3.28,3.29,3.28,3.29,3.29,3.28,3.31,3.31,3.31,3.3,3.31,3.26,78.7,-45.0,1.0,2.0,0.0,0.0,7945281
1765226450342,0.0,0.0,2.0,20.0,0.0,0.0,0.0,0.0,0.0,0.0,-0.017811999999999998,0.00488,0.9928359999999999,-0.56,0.28,-0.07,3.28,3.31,3.28,3.28,3.28,3.28,3.28,3.28,3.31,3.31,3.31,3.3,3.28,3.28,3.28,3.29,3.28,3.29,3.29,3.28,3.31,3.31,3.31,3.3,3.31,3.26,78.7,-45.0,1.0,2.0,0.0,0.0,7945316
1765226450408,0.0,0.0,2.0,20.0,0.0,0.0,0.0,0.0,0.0,0.0,-0.017811999999999998,0.00488,0.9928359999999999,-0.56,0.28,-0.07,3.28,3.31,3.28,3.28,3.28,3.28,3.28,3.28,3.31,3.31,3.31,3.3,3.28,3.28,3.28,3.29,3.28,3.29,3.29,3.28,3.31,3.31,3.31,3.3,3.31,3.26,78.7,-45.0,1.0,2.0,0.0,0.0,7945382
1765226450473,0.0,0.0,2.0,20.0,0.0,0.0,0.0,0.0,0.0,0.0,-0.025254,-0.004148,0.985394,-0.7000000000000001,0.35000000000000003,-0.14,3.28,3.31,3.28,3.28,3.28,3.28,3.28,3.28,3.31,3.31,3.31,3.3,3.28,3.28,3.28,3.29,3.28,3.29,3.29,3.28,3.31,3.31,3.31,3.3,3.31,3.26,78.7,-45.0,1.0,2.0,0.0,0.0,7945447
1765226450540,0.0,0.0,2.0,20.0,0.0,0.0,0.0,0.0,0.0,0.0,-0.025254,-0.004148,0.985394,-0.7000000000000001,0.35000000000000003,-0.14,3.28,3.31,3.28,3.28,3.28,3.28,3.28,3.28,3.31,3.31,3.31,3.3,3.28,3.28,3.28,3.29,3.28,3.29,3.29,3.28,3.31,3.31,3.31,3.3,3.31,3.26,78.7,-45.0,1.0,2.0,0.0,0.0,7945514
1765226450609,0.0,0.0,2.0,20.0,0.0,0.0,0.0,0.0,0.0,0.0,-0.015127999999999999,0.0,0.993812,-0.7000000000000001,0.35000000000000003,-0.14,3.28,3.31,3.28,3.28,3.28,3.28,3.28,3.28,3.31,3.31,3.31,3.3,3.28,3.28,3.28,3.29,3.28,3.29,3.29,3.28,3.31,3.31,3.31,3.3,3.31,3.26,78.7,-45.0,1.0,2.0,0.0,0.0,7945583
1765226450625,0.0,0.0,2.0,20.0,0.0,0.0,0.0,0.0,0.0,0.0,-0.015127999999999999,0.0,0.993812,-0.6300000000000001,0.49000000000000005,-0.07,3.28,3.31,3.28,3.28,3.28,3.28,3.28,3.28,3.31,3.31,3.31,3.3,3.28,3.28,3.28,3.29,3.28,3.29,3.29,3.28,3.31,3.31,3.31,3.3,3.31,3.26,78.7,-45.0,1.0,2.0,0.0,0.0,7945599
1765226450676,0.0,0.0,2.0,20.0,0.0,0.0,0.0,0.0,0.0,0.0,-0.015127999999999999,0.0,0.993812,-0.6300000000000001,0.49000000000000005,-0.07,3.28,3.31,3.28,3.28,3.28,3.28,3.28,3.28,3.31,3.31,3.31,3.3,3.28,3.28,3.28,3.29,3.28,3.29,3.29,3.28,3.31,3.31,3.31,3.3,3.31,3.26,78.7,-45.0,1.0,2.0,0.0,0.0,7945650
1765226450709,0.0,0.0,2.0,20.0,0.0,0.0,0.0,0.0,0.0,0.0,-0.015127999999999999,0.0,0.993812,-0.6300000000000001,0.49000000000000005,-0.07,3.28,3.31,3.28,3.28,3.28,3.28,3.28,3.28,3.31,3.31,3.31,3.3,3.28,3.28,3.28,3.29,3.28,3.29,3.29,3.28,3.31,3.31,3.31,3.3,3.31,3.26,78.7,-45.0,1.0,2.0,0.0,0.0,7945683
1765226450725,0.0,0.0,2.0,20.0,0.0,0.0,0.0,0.0,0.0,0.0,-0.015127999999999999,0.0,0.993812,-0.6300000000000001,0.49000000000000005,-0.07,3.28,3.31,3.28,3.28,3.28,3.28,3.28,3.28,3.31,3.31,3.31,3.3,3.28,3.28,3.28,3.29,3.28,3.29,3.29,3.28,3.31,3.31,3.31,3.3,3.31,3.26,78.7,-45.0,1.0,2.0,0.0,0.0,7945699
1765226450742,0.0,0.0,2.0,20.0,0.0,0.0,0.0,0.0,0.0,0.0,-0.015127999999999999,0.0,0.993812,-0.6300000000000001,0.49000000000000005,-0.07,3.28,3.31,3.28,3.28,3.28,3.28,3.28,3.28,3.31,3.31,3.31,3.3,3.28,3.28,3.28,3.29,3.28,3.29,3.29,3.28,3.31,3.31,3.31,3.3,3.31,3.26,78.7,-45.0,1.0,2.0,0.0,0.0,7945716
1765226450758,0.0,0.0,2.0,20.0,0.0,0.0,0.0,0.0,0.0,0.0,-0.020496,-0.000366,0.997838,-0.6300000000000001,0.49000000000000005,-0.07,3.28,3.31,3.28,3.28,3.28,3.28,3.28,3.28,3.31,3.31,3.31,3.3,3.28,3.28,3.28,3.29,3.28,3.29,3.29,3.28,3.31,3.31,3.31,3.3,3.31,3.26,78.7,-45.0,1.0,2.0,0.0,0.0,7945732
1765226450807,0.0,0.0,2.0,20.0,0.0,0.0,0.0,0.0,0.0,0.0,-0.020496,-0.000366,0.997838,-0.6300000000000001,0.42000000000000004,-0.07,3.28,3.31,3.28,3.28,3.28,3.28,3.28,3.28,3.31,3.31,3.31,3.3,3.28,3.28,3.28,3.29,3.28,3.29,3.29,3.28,3.31,3.31,3.31,3.3,3.31,3.26,78.7,-45.0,1.0,2.0,0.0,0.0,7945781
1765226450825,0.0,0.0,2.0,20.0,0.0,0.0,0.0,0.0,0.0,0.0,-0.020496,-0.000366,0.997838,-0.6300000000000001,0.42000000000000004,-0.07,3.28,3.31,3.28,3.28,3.28,3.28,3.28,3.28,3.31,3.31,3.31,3.3,3.28,3.28,3.28,3.29,3.28,3.29,3.29,3.28,3.31,3.31,3.31,3.3,3.31,3.26,78.7,-45.0,1.0,2.0,0.0,0.0,7945799
1765226450907,0.0,0.0,2.0,20.0,0.0,0.0,0.0,0.0,0.0,0.0,-0.02135,0.0030499999999999998,0.989298,-0.6300000000000001,0.42000000000000004,-0.07,3.28,3.31,3.28,3.28,3.28,3.28,3.28,3.28,3.31,3.31,3.31,3.3,3.28,3.28,3.28,3.29,3.28,3.29,3.29,3.28,3.31,3.31,3.31,3.3,3.31,3.26,78.7,-45.0,1.0,2.0,0.0,0.0,7945881
1765226450926,0.0,0.0,2.0,20.0,0.0,0.0,0.0,0.0,0.0,0.0,-0.02135,0.0030499999999999998,0.989298,-0.56,0.49000000000000005,0.0,3.28,3.31,3.28,3.28,3.28,3.28,3.28,3.28,3.31,3.31,3.31,3.3,3.28,3.28,3.28,3.29,3.28,3.29,3.29,3.28,3.31,3.31,3.31,3.3,3.31,3.26,78.7,-45.0,1.0,2.0,0.0,0.0,7945900
1765226450973,0.0,0.0,2.0,20.0,0.0,0.0,0.0,0.0,0.0,0.0,-0.02135,0.0030499999999999998,0.989298,-0.56,0.49000000000000005,0.0,3.28,3.31,3.28,3.28,3.28,3.28,3.28,3.28,3.31,3.31,3.31,3.3,3.28,3.28,3.28,3.29,3.28,3.29,3.29,3.28,3.31,3.31,3.31,3.3,3.31,3.26,78.7,-45.0,1.0,2.0,0.0,0.0,7945947
1765226451008,0.0,0.0,2.0,20.0,0.0,0.0,0.0,0.0,0.0,0.0,-0.02135,0.0030499999999999998,0.989298,-0.56,0.49000000000000005,0.0,3.28,3.31,3.28,3.28,3.28,3.28,3.28,3.28,3.31,3.31,3.31,3.3,3.28,3.28,3.28,3.29,3.28,3.29,3.29,3.28,3.31,3.31,3.31,3.3,3.31,3.27,79.0,-1.0,1.0,2.0,0.0,0.0,7945982
1765226451023,0.0,0.0,2.0,20.0,0.0,0.0,0.0,0.0,0.0,0.0,-0.02135,0.0030499999999999998,0.989298,-0.56,0.49000000000000005,0.0,3.28,3.31,3.28,3.28,3.28,3.28,3.28,3.28,3.31,3.31,3.31,3.3,3.28,3.28,3.28,3.29,3.28,3.29,3.29,3.28,3.31,3.31,3.31,3.3,3.31,3.27,79.0,-1.0,1.0,2.0,0.0,0.0,7945997
1765226451041,0.0,0.0,2.0,20.0,0.0,0.0,0.0,0.0,0.0,0.0,-0.02135,0.0030499999999999998,0.989298,-0.56,0.49000000000000005,0.0,3.28,3.31,3.28,3.28,3.28,3.28,3.28,3.28,3.31,3.31,3.31,3.3,3.28,3.28,3.28,3.29,3.28,3.29,3.29,3.28,3.31,3.31,3.31,3.3,3.31,3.27,79.0,-1.0,1.0,2.0,0.0,0.0,7946015
1765226451075,0.0,0.0,2.0,20.0,0.0,0.0,0.0,0.0,0.0,0.0,-0.02135,0.0030499999999999998,0.989298,-0.56,0.49000000000000005,0.0,3.28,3.31,3.28,3.28,3.28,3.28,3.28,3.28,3.31,3.31,3.31,3.3,3.28,3.28,3.28,3.29,3.28,3.29,3.29,3.28,3.31,3.31,3.31,3.3,3.31,3.27,79.0,-1.0,1.0,2.0,0.0,0.0,7946049
1765226451107,0.0,0.0,2.0,20.0,0.0,0.0,0.0,0.0,0.0,0.0,-0.02135,0.0030499999999999998,0.989298,-0.56,0.49000000000000005,0.0,3.28,3.31,3.28,3.28,3.28,3.28,3.28,3.28,3.31,3.31,3.31,3.3,3.28,3.28,3.28,3.29,3.28,3.29,3.29,3.28,3.31,3.31,3.31,3.3,3.31,3.27,79.0,-1.0,1.0,2.0,0.0,0.0,7946081
1765226451156,0.0,0.0,2.0,20.0,0.0,0.0,0.0,0.0,0.0,0.0,-0.02135,0.0030499999999999998,0.989298,-0.56,0.49000000000000005,0.0,3.28,3.31,3.28,3.28,3.28,3.28,3.28,3.28,3.31,3.31,3.31,3.3,3.28,3.28,3.28,3.29,3.28,3.29,3.29,3.28,3.31,3.31,3.31,3.3,3.31,3.27,79.0,-1.0,1.0,2.0,0.0,0.0,7946130
1765226451208,0.0,0.0,2.0,20.0,0.0,0.0,0.0,0.0,0.0,0.0,-0.02135,0.0030499999999999998,0.989298,-0.56,0.49000000000000005,0.0,3.28,3.31,3.28,3.28,3.28,3.28,3.28,3.28,3.31,3.31,3.31,3.3,3.28,3.28,3.28,3.29,3.28,3.29,3.29,3.28,3.31,3.31,3.31,3.3,3.31,3.28,79.0,-1.0,1.0,2.0,0.0,0.0,7946182
1765226451240,0.0,0.0,2.0,20.0,0.0,0.0,0.0,0.0,0.0,0.0,-0.02135,0.0030499999999999998,0.989298,-0.56,0.49000000000000005,0.0,3.28,3.31,3.28,3.28,3.28,3.28,3.28,3.28,3.31,3.31,3.31,3.3,3.28,3.28,3.28,3.29,3.28,3.29,3.29,3.28,3.31,3.31,3.31,3.3,3.31,3.28,79.0,-1.0,1.0,2.0,0.0,0.0,7946214
1765226451309,0.0,0.0,2.0,20.0,0.0,0.0,0.0,0.0,0.0,0.0,-0.021716,0.00122,0.992592,-0.56,0.49000000000000005,0.0,3.28,3.31,3.28,3.28,3.28,3.28,3.28,3.28,3.31,3.31,3.31,3.3,3.28,3.28,3.28,3.29,3.28,3.29,3.29,3.28,3.31,3.31,3.31,3.3,3.31,3.28,79.0,-1.0,1.0,2.0,0.0,0.0,7946283
1765226451323,0.0,0.0,2.0,20.0,0.0,0.0,0.0,0.0,0.0,0.0,-0.021716,0.00122,0.992592,-0.6300000000000001,0.35000000000000003,-0.14,3.28,3.31,3.28,3.28,3.28,3.28,3.28,3.28,3.31,3.31,3.31,3.3,3.28,3.28,3.28,3.29,3.28,3.29,3.29,3.28,3.31,3.31,3.31,3.3,3.31,3.28,79.0,-1.0,1.0,2.0,0.0,0.0,7946297
1765226451390,0.0,0.0,2.0,20.0,0.0,0.0,0.0,0.0,0.0,0.0,-0.022082,-0.000366,0.992104,-0.6300000000000001,0.35000000000000003,-0.14,3.28,3.31,3.28,3.28,3.28,3.28,3.28,3.28,3.31,3.31,3.31,3.3,3.28,3.28,3.28,3.29,3.28,3.29,3.29,3.28,3.31,3.31,3.31,3.3,3.31,3.28,79.0,-1.0,1.0,2.0,0.0,0.0,7946364
1765226451406,0.0,0.0,2.0,20.0,0.0,0.0,0.0,0.0,0.0,0.0,-0.022082,-0.000366,0.992104,-0.6300000000000001,0.35000000000000003,-0.14,3.28,3.31,3.28,3.28,3.28,3.28,3.28,3.28,3.31,3.31,3.31,3.3,3.28,3.28,3.28,3.29,3.28,3.29,3.29,3.28,3.31,3.31,3.31,3.3,3.31,3.28,79.0,-1.0,1.0,2.0,0.0,0.0,7946380
1765226451425,0.0,0.0,2.0,20.0,0.0,0.0,0.0,0.0,0.0,0.0,-0.022082,-0.000366,0.992104,-0.6300000000000001,0.35000000000000003,-0.14,3.28,3.31,3.28,3.28,3.28,3.28,3.28,3.28,3.31,3.31,3.31,3.3,3.28,3.28,3.28,3.29,3.28,3.29,3.29,3.28,3.31,3.31,3.31,3.3,3.31,3.28,79.0,-1.0,1.0,2.0,0.0,0.0,7946399
1765226451456,0.0,0.0,2.0,20.0,0.0,0.0,0.0,0.0,0.0,0.0,-0.022082,-0.000366,0.992104,-0.77,0.35000000000000003,0.07,3.28,3.31,3.28,3.28,3.28,3.28,3.28,3.28,3.31,3.31,3.31,3.3,3.28,3.28,3.28,3.29,3.28,3.29,3.29,3.28,3.31,3.31,3.31,3.3,3.31,3.28,79.0,-1.0,1.0,2.0,0.0,0.0,7946430
1765226451473,0.0,0.0,2.0,20.0,0.0,0.0,0.0,0.0,0.0,0.0,-0.022082,-0.000366,0.992104,-0.77,0.35000000000000003,0.07,3.28,3.31,3.28,3.28,3.28,3.28,3.28,3.28,3.31,3.31,3.31,3.3,3.28,3.28,3.28,3.29,3.28,3.29,3.29,3.28,3.31,3.31,3.31,3.3,3.31,3.28,79.0,-1.0,1.0,2.0,0.0,0.0,7946447
1765226451543,0.0,0.0,2.0,20.0,0.0,0.0,0.0,0.0,0.0,0.0,-0.022082,-0.000366,0.992104,-0.77,0.35000000000000003,0.07,3.28,3.31,3.28,3.28,3.28,3.28,3.28,3.28,3.31,3.31,3.31,3.3,3.28,3.28,3.28,3.29,3.28,3.29,3.29,3.28,3.31,3.31,3.31,3.3,3.31,3.28,79.0,-1.0,1.0,2.0,0.0,0.0,7946517
1765226451607,0.0,0.0,2.0,20.0,0.0,0.0,0.0,0.0,0.0,0.0,-0.021471999999999998,0.0023179999999999997,0.993812,-0.77,0.35000000000000003,0.07,3.28,3.31,3.28,3.28,3.28,3.28,3.28,3.28,3.31,3.31,3.31,3.3,3.28,3.28,3.28,3.29,3.28,3.29,3.29,3.28,3.31,3.31,3.31,3.3,3.31,3.28,79.0,-1.0,1.0,2.0,0.0,0.0,7946581
1765226451624,0.0,0.0,2.0,20.0,0.0,0.0,0.0,0.0,0.0,0.0,-0.021471999999999998,0.0023179999999999997,0.993812,-0.7000000000000001,0.28,0.0,3.28,3.31,3.28,3.28,3.28,3.28,3.28,3.28,3.31,3.31,3.31,3.3,3.28,3.28,3.28,3.29,3.28,3.29,3.29,3.28,3.31,3.31,3.31,3.3,3.31,3.28,79.0,-1.0,1.0,2.0,0.0,0.0,7946598
1765226451673,0.0,0.0,2.0,20.0,0.0,0.0,0.0,0.0,0.0,0.0,-0.021471999999999998,0.0023179999999999997,0.993812,-0.7000000000000001,0.28,0.0,3.28,3.31,3.28,3.28,3.28,3.28,3.28,3.28,3.31,3.31,3.31,3.3,3.28,3.28,3.28,3.29,3.28,3.29,3.29,3.28,3.31,3.31,3.31,3.3,3.31,3.28,79.0,-1.0,1.0,2.0,0.0,0.0,7946647
1765226451690,0.0,0.0,2.0,20.0,0.0,0.0,0.0,0.0,0.0,0.0,-0.021471999999999998,0.0023179999999999997,0.993812,-0.7000000000000001,0.28,0.0,3.28,3.31,3.28,3.28,3.28,3.28,3.28,3.28,3.31,3.31,3.31,3.3,3.28,3.28,3.28,3.29,3.28,3.29,3.29,3.28,3.31,3.31,3.31,3.3,3.31,3.28,79.0,-1.0,1.0,2.0,0.0,0.0,7946664
1765226451707,0.0,0.0,2.0,20.0,0.0,0.0,0.0,0.0,0.0,0.0,-0.021471999999999998,0.0023179999999999997,0.993812,-0.7000000000000001,0.28,0.0,3.28,3.31,3.28,3.28,3.28,3.28,3.28,3.28,3.31,3.31,3.31,3.3,3.28,3.28,3.28,3.29,3.28,3.29,3.29,3.28,3.31,3.31,3.31,3.3,3.31,3.28,79.0,-1.0,1.0,2.0,0.0,0.0,7946681
1765226451708,0.0,0.0,2.0,20.0,0.0,0.0,0.0,0.0,0.0,0.0,-0.021471999999999998,0.0023179999999999997,0.993812,-0.7000000000000001,0.28,0.0,3.28,3.31,3.28,3.27,3.28,3.28,3.28,3.28,3.31,3.31,3.31,3.3,3.28,3.28,3.28,3.29,3.28,3.29,3.29,3.28,3.31,3.31,3.31,3.3,3.31,3.28,79.0,-1.0,1.0,2.0,0.0,0.0,7946682
1765226451725,0.0,0.0,2.0,20.0,0.0,0.0,0.0,0.0,0.0,0.0,-0.021471999999999998,0.0023179999999999997,0.993812,-0.7000000000000001,0.28,0.0,3.28,3.31,3.28,3.27,3.28,3.28,3.28,3.28,3.31,3.31,3.31,3.3,3.28,3.28,3.28,3.29,3.28,3.29,3.29,3.28,3.31,3.31,3.31,3.3,3.31,3.28,79.0,-1.0,1.0,2.0,0.0,0.0,7946699
1765226451742,0.0,0.0,2.0,20.0,0.0,0.0,0.0,0.0,0.0,0.0,-0.021471999999999998,0.0023179999999999997,0.993812,-0.7000000000000001,0.28,0.0,3.28,3.31,3.28,3.27,3.28,3.28,3.28,3.28,3.31,3.31,3.31,3.3,3.28,3.28,3.28,3.29,3.28,3.29,3.29,3.28,3.31,3.31,3.31,3.3,3.31,3.28,79.0,-1.0,1.0,2.0,0.0,0.0,7946716
1765226451759,0.0,0.0,2.0,20.0,0.0,0.0,0.0,0.0,0.0,0.0,-0.021471999999999998,0.0023179999999999997,0.993812,-0.7000000000000001,0.28,0.0,3.28,3.31,3.28,3.27,3.28,3.28,3.28,3.28,3.31,3.31,3.31,3.3,3.28,3.28,3.28,3.29,3.28,3.29,3.29,3.28,3.31,3.31,3.31,3.3,3.31,3.28,79.0,-1.0,1.0,2.0,0.0,0.0,7946733
1765226451806,0.0,0.0,2.0,20.0,0.0,0.0,0.0,0.0,0.0,0.0,-0.021471999999999998,0.0023179999999999997,0.993812,-0.7000000000000001,0.28,0.0,3.28,3.31,3.28,3.27,3.28,3.28,3.28,3.28,3.31,3.31,3.31,3.3,3.28,3.28,3.28,3.29,3.28,3.29,3.29,3.28,3.31,3.31,3.31,3.3,3.31,3.28,79.0,-1.0,1.0,2.0,0.0,0.0,7946780
1765226451841,0.0,0.0,2.0,20.0,0.0,0.0,0.0,0.0,0.0,0.0,-0.021471999999999998,0.0023179999999999997,0.993812,-0.7000000000000001,0.28,0.0,3.28,3.31,3.28,3.27,3.28,3.28,3.28,3.28,3.31,3.31,3.31,3.3,3.28,3.28,3.28,3.29,3.28,3.29,3.29,3.28,3.31,3.31,3.31,3.3,3.31,3.28,79.0,-1.0,1.0,2.0,0.0,0.0,7946815
1765226451876,0.0,0.0,2.0,20.0,0.0,0.0,0.0,0.0,0.0,0.0,-0.021471999999999998,0.0023179999999999997,0.993812,-0.7000000000000001,0.28,0.0,3.28,3.31,3.28,3.27,3.28,3.28,3.28,3.28,3.31,3.31,3.31,3.3,3.28,3.28,3.28,3.29,3.28,3.29,3.29,3.28,3.31,3.31,3.31,3.3,3.31,3.28,79.0,-1.0,1.0,2.0,0.0,0.0,7946850
1765226451906,0.0,0.0,2.0,20.0,0.0,0.0,0.0,0.0,0.0,0.0,-0.021471999999999998,0.0023179999999999997,0.993812,-0.7000000000000001,0.28,0.0,3.28,3.31,3.28,3.28,3.28,3.28,3.28,3.28,3.31,3.31,3.31,3.3,3.28,3.28,3.28,3.29,3.28,3.29,3.29,3.28,3.31,3.31,3.31,3.3,3.31,3.28,79.0,-1.0,1.0,2.0,0.0,0.0,7946880
1765226451925,0.0,0.0,2.0,20.0,0.0,0.0,0.0,0.0,0.0,0.0,-0.021471999999999998,0.0023179999999999997,0.993812,-0.7000000000000001,0.28,0.0,3.28,3.31,3.28,3.28,3.28,3.28,3.28,3.28,3.31,3.31,3.31,3.3,3.28,3.28,3.28,3.29,3.28,3.29,3.29,3.28,3.31,3.31,3.31,3.3,3.31,3.28,79.0,-1.0,1.0,2.0,0.0,0.0,7946899
1765226451940,0.0,0.0,2.0,20.0,0.0,0.0,0.0,0.0,0.0,0.0,-0.021471999999999998,0.0023179999999999997,0.993812,-0.7000000000000001,0.28,0.0,3.28,3.31,3.28,3.28,3.28,3.28,3.28,3.28,3.31,3.31,3.31,3.3,3.28,3.28,3.28,3.29,3.28,3.29,3.29,3.28,3.31,3.31,3.31,3.3,3.31,3.28,79.0,-1.0,1.0,2.0,0.0,0.0,7946914
1765226451956,0.0,0.0,2.0,20.0,0.0,0.0,0.0,0.0,0.0,0.0,-0.021471999999999998,0.0023179999999999997,0.993812,-0.7000000000000001,0.28,0.0,3.28,3.31,3.28,3.28,3.28,3.28,3.28,3.28,3.31,3.31,3.31,3.3,3.28,3.28,3.28,3.29,3.28,3.29,3.29,3.28,3.31,3.31,3.31,3.3,3.31,3.28,79.0,-1.0,1.0,2.0,0.0,0.0,7946930
1765226451973,0.0,0.0,2.0,20.0,0.0,0.0,0.0,0.0,0.0,0.0,-0.021471999999999998,0.0023179999999999997,0.993812,-0.7000000000000001,0.28,0.0,3.28,3.31,3.28,3.28,3.28,3.28,3.28,3.28,3.31,3.31,3.31,3.3,3.28,3.28,3.28,3.29,3.28,3.29,3.29,3.28,3.31,3.31,3.31,3.3,3.31,3.28,79.0,-1.0,1.0,2.0,0.0,0.0,7946947
1765226452007,0.0,0.0,2.0,20.0,0.0,0.0,0.0,0.0,0.0,0.0,-0.021471999999999998,0.0023179999999999997,0.993812,-0.7000000000000001,0.28,0.0,3.28,3.31,3.28,3.28,3.28,3.28,3.28,3.28,3.31,3.31,3.31,3.3,3.28,3.28,3.28,3.29,3.28,3.29,3.29,3.28,3.31,3.31,3.31,3.3,3.31,3.28,79.0,-1.0,1.0,2.0,0.0,0.0,7946981
1765226452024,0.0,0.0,2.0,20.0,0.0,0.0,0.0,0.0,0.0,0.0,-0.021471999999999998,0.0023179999999999997,0.993812,-0.7000000000000001,0.28,0.0,3.28,3.31,3.28,3.28,3.28,3.28,3.28,3.28,3.31,3.31,3.31,3.3,3.28,3.28,3.28,3.29,3.28,3.29,3.29,3.28,3.31,3.31,3.31,3.3,3.31,3.28,79.0,-1.0,1.0,2.0,0.0,0.0,7946998
1765226452059,0.0,0.0,2.0,20.0,0.0,0.0,0.0,0.0,0.0,0.0,-0.019275999999999998,0.000122,0.9910059999999999,-0.7000000000000001,0.28,0.0,3.28,3.31,3.28,3.28,3.28,3.28,3.28,3.28,3.31,3.31,3.31,3.3,3.28,3.28,3.28,3.29,3.28,3.29,3.29,3.28,3.31,3.31,3.31,3.3,3.31,3.28,79.0,-1.0,1.0,2.0,0.0,0.0,7947033
1765226452075,0.0,0.0,2.0,20.0,0.0,0.0,0.0,0.0,0.0,0.0,-0.019275999999999998,0.000122,0.9910059999999999,-0.56,0.42000000000000004,0.0,3.28,3.31,3.28,3.28,3.28,3.28,3.28,3.28,3.31,3.31,3.31,3.3,3.28,3.28,3.28,3.29,3.28,3.29,3.29,3.28,3.31,3.31,3.31,3.3,3.31,3.28,79.0,-1.0,1.0,2.0,0.0,0.0,7947049
1765226452126,0.0,0.0,2.0,20.0,0.0,0.0,0.0,0.0,0.0,0.0,-0.019275999999999998,0.000122,0.9910059999999999,-0.56,0.42000000000000004,0.0,3.28,3.31,3.28,3.28,3.28,3.28,3.28,3.28,3.31,3.31,3.31,3.3,3.28,3.28,3.28,3.29,3.28,3.29,3.29,3.28,3.31,3.31,3.31,3.3,3.31,3.28,79.0,-1.0,1.0,2.0,0.0,0.0,7947100
1765226452142,0.0,0.0,2.0,20.0,0.0,0.0,0.0,0.0,0.0,0.0,-0.016836,0.0034159999999999998,0.9943,-0.56,0.42000000000000004,0.0,3.28,3.31,3.28,3.28,3.28,3.28,3.28,3.28,3.31,3.31,3.31,3.3,3.28,3.28,3.28,3.29,3.28,3.29,3.29,3.28,3.31,3.31,3.31,3.3,3.31,3.28,79.0,-1.0,1.0,2.0,0.0,0.0,7947116
1765226452159,0.0,0.0,2.0,20.0,0.0,0.0,0.0,0.0,0.0,0.0,-0.016836,0.0034159999999999998,0.9943,-0.56,0.42000000000000004,0.0,3.28,3.31,3.28,3.28,3.28,3.28,3.28,3.28,3.31,3.31,3.31,3.3,3.28,3.28,3.28,3.29,3.28,3.29,3.29,3.28,3.31,3.31,3.31,3.3,3.31,3.28,79.0,-1.0,1.0,2.0,0.0,0.0,7947133
1765226452174,0.0,0.0,2.0,20.0,0.0,0.0,0.0,0.0,0.0,0.0,-0.016836,0.0034159999999999998,0.9943,-0.56,0.42000000000000004,0.0,3.28,3.31,3.28,3.28,3.28,3.28,3.28,3.28,3.31,3.31,3.31,3.3,3.28,3.28,3.28,3.29,3.28,3.29,3.29,3.28,3.31,3.31,3.31,3.3,3.31,3.28,79.0,-1.0,1.0,2.0,0.0,0.0,7947148
1765226452210,0.0,0.0,2.0,20.0,0.0,0.0,0.0,0.0,0.0,0.0,-0.016836,0.0034159999999999998,0.9943,-0.6300000000000001,0.42000000000000004,-0.14,3.28,3.31,3.28,3.28,3.28,3.28,3.28,3.28,3.31,3.31,3.31,3.3,3.28,3.28,3.28,3.29,3.28,3.29,3.29,3.28,3.31,3.31,3.31,3.3,3.31,3.28,79.0,-1.0,1.0,2.0,0.0,0.0,7947184
1765226452273,0.0,0.0,2.0,20.0,0.0,0.0,0.0,0.0,0.0,0.0,-0.016836,0.0034159999999999998,0.9943,-0.6300000000000001,0.42000000000000004,-0.14,3.28,3.31,3.28,3.28,3.28,3.28,3.28,3.28,3.31,3.31,3.31,3.3,3.28,3.28,3.28,3.29,3.28,3.29,3.29,3.28,3.31,3.31,3.31,3.3,3.31,3.28,79.0,-1.0,1.0,2.0,0.0,0.0,7947247
1765226452356,0.0,0.0,2.0,20.0,0.0,0.0,0.0,0.0,0.0,0.0,-0.017811999999999998,0.000488,0.993324,-0.6300000000000001,0.42000000000000004,-0.14,3.28,3.31,3.28,3.28,3.28,3.28,3.28,3.28,3.31,3.31,3.31,3.3,3.28,3.28,3.28,3.29,3.28,3.29,3.29,3.28,3.31,3.31,3.31,3.3,3.31,3.28,79.0,-1.0,1.0,2.0,0.0,0.0,7947330
1765226452391,0.0,0.0,2.0,20.0,0.0,0.0,0.0,0.0,0.0,0.0,-0.017811999999999998,0.000488,0.993324,-0.6300000000000001,0.42000000000000004,-0.14,3.28,3.31,3.28,3.28,3.28,3.28,3.28,3.28,3.31,3.31,3.31,3.3,3.28,3.28,3.28,3.29,3.28,3.29,3.29,3.28,3.31,3.31,3.31,3.3,3.31,3.28,79.0,-1.0,1.0,2.0,0.0,0.0,7947365
1765226452408,0.0,0.0,2.0,20.0,0.0,0.0,0.0,0.0,0.0,0.0,-0.017811999999999998,0.000488,0.993324,-0.6300000000000001,0.42000000000000004,0.0,3.28,3.31,3.28,3.28,3.28,3.28,3.28,3.28,3.31,3.31,3.31,3.3,3.28,3.28,3.28,3.29,3.28,3.29,3.29,3.28,3.31,3.31,3.31,3.3,3.31,3.28,79.0,-1.0,1.0,2.0,0.0,0.0,7947382
1765226452507,0.0,0.0,2.0,20.0,0.0,0.0,0.0,0.0,0.0,0.0,-0.02013,0.000122,0.99247,-0.6300000000000001,0.42000000000000004,0.07,3.28,3.31,3.28,3.28,3.28,3.28,3.28,3.28,3.31,3.31,3.31,3.3,3.28,3.28,3.28,3.29,3.28,3.29,3.29,3.28,3.31,3.31,3.31,3.3,3.31,3.28,79.0,-1.0,1.0,2.0,0.0,0.0,7947481
1765226452556,0.0,0.0,2.0,20.0,0.0,0.0,0.0,0.0,0.0,0.0,-0.02013,0.000122,0.99247,-0.6300000000000001,0.42000000000000004,0.07,3.28,3.31,3.28,3.28,3.28,3.28,3.28,3.28,3.31,3.31,3.31,3.3,3.28,3.28,3.28,3.29,3.28,3.29,3.29,3.28,3.31,3.31,3.31,3.3,3.31,3.28,79.0,-1.0,1.0,2.0,0.0,0.0,7947530
1765226452573,0.0,0.0,2.0,20.0,0.0,0.0,0.0,0.0,0.0,0.0,-0.02013,0.000122,0.99247,-0.6300000000000001,0.42000000000000004,0.07,3.28,3.31,3.28,3.28,3.28,3.28,3.28,3.28,3.31,3.31,3.31,3.3,3.28,3.28,3.28,3.29,3.28,3.29,3.29,3.28,3.31,3.31,3.31,3.3,3.31,3.28,79.0,-1.0,1.0,2.0,0.0,0.0,7947547
1765226452589,0.0,0.0,2.0,20.0,0.0,0.0,0.0,0.0,0.0,0.0,-0.02013,0.000122,0.99247,-0.6300000000000001,0.42000000000000004,0.07,3.28,3.31,3.28,3.28,3.28,3.28,3.28,3.28,3.31,3.31,3.31,3.3,3.28,3.28,3.28,3.29,3.28,3.29,3.29,3.28,3.31,3.31,3.31,3.3,3.31,3.28,79.0,-1.0,1.0,2.0,0.0,0.0,7947563
1765226452623,0.0,0.0,2.0,20.0,0.0,0.0,0.0,0.0,0.0,0.0,-0.02013,0.000122,0.99247,-0.6300000000000001,0.42000000000000004,0.07,3.28,3.31,3.28,3.28,3.28,3.28,3.28,3.28,3.31,3.31,3.31,3.3,3.28,3.28,3.28,3.29,3.28,3.29,3.29,3.28,3.31,3.31,3.31,3.3,3.31,3.28,79.0,-1.0,1.0,2.0,0.0,0.0,7947597
1765226452675,0.0,0.0,2.0,20.0,0.0,0.0,0.0,0.0,0.0,0.0,-0.02013,0.000122,0.99247,-0.6300000000000001,0.42000000000000004,0.07,3.28,3.31,3.28,3.28,3.28,3.28,3.28,3.28,3.31,3.31,3.31,3.3,3.28,3.28,3.28,3.29,3.28,3.29,3.29,3.28,3.31,3.31,3.31,3.3,3.31,3.28,79.0,-1.0,1.0,2.0,0.0,0.0,7947649
1765226452708,0.0,0.0,2.0,20.0,0.0,0.0,0.0,0.0,0.0,0.0,-0.020007999999999998,0.002196,0.9928359999999999,-0.6300000000000001,0.42000000000000004,0.07,3.28,3.31,3.28,3.28,3.28,3.28,3.28,3.28,3.31,3.31,3.31,3.3,3.28,3.28,3.28,3.29,3.28,3.29,3.29,3.28,3.31,3.31,3.31,3.3,3.31,3.28,79.0,-1.0,1.0,2.0,0.0,0.0,7947682
1765226452761,0.0,0.0,2.0,20.0,0.0,0.0,0.0,0.0,0.0,0.0,-0.020007999999999998,0.002196,0.9928359999999999,-0.6300000000000001,0.28,-0.07,3.28,3.31,3.28,3.28,3.28,3.28,3.28,3.28,3.31,3.31,3.31,3.3,3.28,3.28,3.28,3.29,3.28,3.29,3.29,3.28,3.31,3.31,3.31,3.3,3.31,3.28,79.0,-1.0,1.0,2.0,0.0,0.0,7947735
1765226452773,0.0,0.0,2.0,20.0,0.0,0.0,0.0,0.0,0.0,0.0,-0.020007999999999998,0.002196,0.9928359999999999,-0.6300000000000001,0.28,-0.07,3.28,3.31,3.28,3.28,3.28,3.28,3.28,3.28,3.31,3.31,3.31,3.3,3.28,3.28,3.28,3.29,3.28,3.29,3.29,3.28,3.31,3.31,3.31,3.3,3.31,3.27,79.0,-1.0,1.0,2.0,0.0,0.0,7947747
1765226452823,0.0,0.0,2.0,20.0,0.0,0.0,0.0,0.0,0.0,0.0,-0.020007999999999998,0.002196,0.9928359999999999,-0.6300000000000001,0.28,-0.07,3.28,3.31,3.28,3.28,3.28,3.28,3.28,3.28,3.31,3.31,3.31,3.3,3.28,3.28,3.28,3.29,3.28,3.29,3.29,3.28,3.31,3.31,3.31,3.3,3.31,3.27,79.0,-1.0,1.0,0.0,1.0,1.0,7947797
1765226452840,0.0,0.0,2.0,20.0,0.0,0.0,0.0,0.0,0.0,0.0,-0.019275999999999998,0.00122,0.992348,-0.6300000000000001,0.28,-0.07,3.28,3.31,3.28,3.28,3.28,3.28,3.28,3.28,3.31,3.31,3.31,3.3,3.28,3.28,3.28,3.29,3.28,3.29,3.29,3.28,3.31,3.31,3.31,3.3,3.31,3.27,79.0,-1.0,1.0,0.0,1.0,1.0,7947814
1765226452857,0.0,0.0,2.0,20.0,0.0,0.0,0.0,0.0,0.0,0.0,-0.019275999999999998,0.00122,0.992348,-0.6300000000000001,0.28,-0.07,3.28,3.31,3.28,3.28,3.28,3.28,3.28,3.28,3.31,3.31,3.31,3.3,3.28,3.28,3.28,3.29,3.28,3.29,3.29,3.28,3.31,3.31,3.31,3.3,3.31,3.27,79.0,-1.0,1.0,0.0,1.0,1.0,7947831
1765226452879,0.0,0.0,2.0,20.0,0.0,0.0,0.0,0.0,0.0,0.0,-0.019275999999999998,0.00122,0.992348,-0.6300000000000001,0.28,-0.07,3.28,3.31,3.28,3.28,3.28,3.28,3.28,3.28,3.31,3.31,3.31,3.3,3.28,3.28,3.28,3.29,3.28,3.29,3.29,3.28,3.31,3.31,3.31,3.3,3.31,3.27,79.0,-1.0,1.0,0.0,1.0,1.0,7947853
1765226452889,0.0,0.0,2.0,20.0,0.0,0.0,0.0,0.0,0.0,0.0,-0.019275999999999998,0.00122,0.992348,-0.7000000000000001,0.49000000000000005,-0.07,3.28,3.31,3.28,3.28,3.28,3.28,3.28,3.28,3.31,3.31,3.31,3.3,3.28,3.28,3.28,3.29,3.28,3.29,3.29,3.28,3.31,3.31,3.31,3.3,3.31,3.27,79.0,-1.0,1.0,0.0,1.0,1.0,7947863
1765226452907,0.0,0.0,2.0,20.0,0.0,0.0,0.0,0.0,0.0,0.0,-0.019275999999999998,0.00122,0.992348,-0.7000000000000001,0.49000000000000005,-0.07,3.28,3.31,3.28,3.28,3.28,3.28,3.28,3.28,3.31,3.31,3.31,3.3,3.28,3.28,3.28,3.29,3.28,3.29,3.29,3.28,3.31,3.31,3.31,3.3,3.31,3.27,79.0,-1.0,1.0,0.0,1.0,1.0,7947881
1765226452925,0.0,0.0,2.0,20.0,0.0,0.0,0.0,0.0,0.0,0.0,-0.019275999999999998,0.00122,0.992348,-0.7000000000000001,0.49000000000000005,-0.07,3.28,3.31,3.28,3.28,3.28,3.28,3.28,3.28,3.31,3.31,3.31,3.3,3.28,3.28,3.28,3.29,3.28,3.29,3.29,3.28,3.31,3.31,3.31,3.3,3.31,3.27,79.0,-1.0,1.0,0.0,1.0,1.0,7947899
1765226452957,0.0,0.0,2.0,20.0,0.0,0.0,0.0,0.0,0.0,0.0,-0.019275999999999998,0.00122,0.992348,-0.7000000000000001,0.49000000000000005,-0.07,3.28,3.31,3.28,3.28,3.28,3.28,3.28,3.28,3.31,3.31,3.31,3.3,3.28,3.28,3.28,3.29,3.28,3.29,3.29,3.28,3.31,3.31,3.31,3.3,3.31,3.27,79.0,-1.0,1.0,0.0,1.0,1.0,7947931
1765226452992,0.0,0.0,2.0,20.0,0.0,0.0,0.0,0.0,0.0,0.0,-0.019275999999999998,0.00122,0.992348,-0.7000000000000001,0.49000000000000005,-0.07,3.28,3.31,3.28,3.28,3.28,3.28,3.28,3.28,3.31,3.31,3.31,3.3,3.28,3.28,3.28,3.29,3.28,3.29,3.29,3.28,3.31,3.31,3.31,3.3,3.31,3.27,79.0,-1.0,1.0,0.0,1.0,1.0,7947966
1765226453010,0.0,0.0,2.0,20.0,0.0,0.0,0.0,0.0,0.0,0.0,-0.019275999999999998,0.00122,0.992348,-0.7000000000000001,0.49000000000000005,-0.07,3.28,3.31,3.28,3.28,3.28,3.28,3.28,3.28,3.31,3.31,3.31,3.3,3.28,3.28,3.28,3.29,3.28,3.29,3.29,3.28,3.31,3.31,3.31,3.3,3.31,3.27,79.0,-1.0,1.0,0.0,1.0,1.0,7947984
1765226453023,0.0,0.0,2.0,20.0,0.0,0.0,0.0,0.0,0.0,0.0,-0.019275999999999998,0.00122,0.992348,-0.7000000000000001,0.49000000000000005,-0.07,3.28,3.31,3.28,3.28,3.28,3.28,3.28,3.28,3.31,3.31,3.31,3.3,3.28,3.28,3.28,3.29,3.28,3.29,3.29,3.28,3.31,3.31,3.31,3.3,3.31,3.27,79.0,-1.0,1.0,0.0,1.0,1.0,7947997
1765226453042,0.0,0.0,2.0,20.0,0.0,0.0,0.0,0.0,0.0,0.0,-0.017568,0.00122,0.993934,-0.7000000000000001,0.49000000000000005,-0.07,3.28,3.31,3.28,3.28,3.28,3.28,3.28,3.28,3.31,3.31,3.31,3.3,3.28,3.28,3.28,3.29,3.28,3.29,3.29,3.28,3.31,3.31,3.31,3.3,3.31,3.27,79.0,-1.0,1.0,0.0,1.0,1.0,7948016
1765226453074,0.0,0.0,2.0,20.0,0.0,0.0,0.0,0.0,0.0,0.0,-0.017568,0.00122,0.993934,-0.7000000000000001,0.49000000000000005,-0.07,3.28,3.31,3.28,3.28,3.28,3.28,3.28,3.28,3.31,3.31,3.31,3.3,3.28,3.28,3.28,3.29,3.28,3.29,3.29,3.28,3.31,3.31,3.31,3.3,3.31,3.27,79.0,-1.0,1.0,0.0,1.0,1.0,7948048
1765226453092,0.0,0.0,2.0,20.0,0.0,0.0,0.0,0.0,0.0,0.0,-0.017568,0.00122,0.993934,-0.56,0.42000000000000004,0.0,3.28,3.31,3.28,3.28,3.28,3.28,3.28,3.28,3.31,3.31,3.31,3.3,3.28,3.28,3.28,3.29,3.28,3.29,3.29,3.28,3.31,3.31,3.31,3.3,3.31,3.27,79.0,-1.0,1.0,0.0,1.0,1.0,7948066
1765226453140,0.0,0.0,2.0,20.0,0.0,0.0,0.0,0.0,0.0,0.0,-0.017568,0.00122,0.993934,-0.56,0.42000000000000004,0.0,3.28,3.31,3.28,3.28,3.28,3.28,3.28,3.28,3.31,3.31,3.31,3.3,3.28,3.28,3.28,3.29,3.28,3.29,3.29,3.28,3.31,3.31,3.31,3.3,3.31,3.27,79.0,-1.0,1.0,0.0,1.0,1.0,7948114
1765226453224,0.0,0.0,2.0,20.0,0.0,0.0,0.0,0.0,0.0,0.0,-0.018788,0.0017079999999999999,0.993324,-0.56,0.42000000000000004,0.0,3.28,3.31,3.28,3.28,3.28,3.28,3.28,3.28,3.31,3.31,3.31,3.3,3.28,3.28,3.28,3.29,3.28,3.29,3.29,3.28,3.31,3.31,3.31,3.3,3.31,3.27,79.0,-1.0,1.0,0.0,1.0,1.0,7948198
1765226453242,0.0,0.0,2.0,20.0,0.0,0.0,0.0,0.0,0.0,0.0,-0.018788,0.0017079999999999999,0.993324,-0.6300000000000001,0.42000000000000004,0.0,3.28,3.31,3.28,3.28,3.28,3.28,3.28,3.28,3.31,3.31,3.31,3.3,3.28,3.28,3.28,3.29,3.28,3.29,3.29,3.28,3.31,3.31,3.31,3.3,3.31,3.27,79.0,-1.0,1.0,0.0,1.0,1.0,7948216
1765226453290,0.0,0.0,2.0,20.0,0.0,0.0,0.0,0.0,0.0,0.0,-0.018788,0.0017079999999999999,0.993324,-0.6300000000000001,0.42000000000000004,0.0,3.28,3.31,3.28,3.28,3.28,3.28,3.28,3.28,3.31,3.31,3.31,3.3,3.28,3.28,3.28,3.29,3.28,3.29,3.29,3.28,3.31,3.31,3.31,3.3,3.31,3.27,79.0,-1.0,1.0,0.0,1.0,1.0,7948264
1765226453308,0.0,0.0,2.0,20.0,0.0,0.0,0.0,0.0,0.0,0.0,-0.018788,0.0017079999999999999,0.993324,-0.6300000000000001,0.42000000000000004,0.0,3.28,3.31,3.28,3.28,3.28,3.28,3.28,3.28,3.31,3.31,3.31,3.3,3.28,3.28,3.28,3.29,3.28,3.29,3.29,3.28,3.31,3.31,3.31,3.3,3.31,3.27,79.0,-1.0,1.0,0.0,1.0,1.0,7948282
1765226453323,0.0,0.0,2.0,20.0,0.0,0.0,0.0,0.0,0.0,0.0,-0.018788,0.0017079999999999999,0.993324,-0.6300000000000001,0.42000000000000004,0.0,3.28,3.31,3.28,3.28,3.28,3.28,3.28,3.28,3.31,3.31,3.31,3.3,3.28,3.28,3.28,3.29,3.28,3.29,3.29,3.28,3.31,3.31,3.31,3.3,3.31,3.27,79.0,-1.0,1.0,0.0,1.0,1.0,7948297
1765226453356,0.0,0.0,2.0,20.0,0.0,0.0,0.0,0.0,0.0,0.0,-0.018788,0.0017079999999999999,0.993324,-0.6300000000000001,0.42000000000000004,0.0,3.28,3.31,3.28,3.28,3.28,3.28,3.28,3.28,3.31,3.31,3.31,3.3,3.28,3.28,3.28,3.29,3.28,3.29,3.29,3.28,3.31,3.31,3.31,3.3,3.31,3.27,79.0,-1.0,1.0,0.0,1.0,1.0,7948330
1765226453373,0.0,0.0,2.0,20.0,0.0,0.0,0.0,0.0,0.0,0.0,-0.021716,0.005124,0.993812,-0.6300000000000001,0.42000000000000004,0.0,3.28,3.31,3.28,3.28,3.28,3.28,3.28,3.28,3.31,3.31,3.31,3.3,3.28,3.28,3.28,3.29,3.28,3.29,3.29,3.28,3.31,3.31,3.31,3.3,3.31,3.27,79.0,-1.0,1.0,0.0,1.0,1.0,7948347
1765226453409,0.0,0.0,2.0,20.0,0.0,0.0,0.0,0.0,0.0,0.0,-0.021716,0.005124,0.993812,-0.6300000000000001,0.42000000000000004,0.0,3.28,3.31,3.28,3.28,3.28,3.28,3.28,3.28,3.31,3.31,3.31,3.3,3.28,3.28,3.28,3.29,3.28,3.29,3.29,3.28,3.31,3.31,3.31,3.3,3.31,3.27,79.0,-1.0,1.0,0.0,1.0,1.0,7948383
1765226453441,0.0,0.0,2.0,20.0,0.0,0.0,0.0,0.0,0.0,0.0,-0.021716,0.005124,0.993812,-0.56,0.42000000000000004,0.0,3.28,3.31,3.28,3.28,3.28,3.28,3.28,3.28,3.31,3.31,3.31,3.3,3.28,3.28,3.28,3.29,3.28,3.29,3.29,3.28,3.31,3.31,3.31,3.3,3.31,3.27,79.0,-1.0,1.0,0.0,1.0,1.0,7948415
1765226453506,0.0,0.0,2.0,20.0,0.0,0.0,0.0,0.0,0.0,0.0,-0.021716,0.005124,0.993812,-0.56,0.42000000000000004,0.0,3.28,3.31,3.28,3.27,3.28,3.28,3.28,3.28,3.31,3.31,3.31,3.3,3.28,3.28,3.28,3.29,3.28,3.29,3.29,3.28,3.31,3.31,3.31,3.3,3.31,3.27,79.0,-1.0,1.0,0.0,1.0,1.0,7948480
1765226453524,0.0,0.0,2.0,20.0,0.0,0.0,0.0,0.0,0.0,0.0,-0.021716,0.005124,0.993812,-0.56,0.42000000000000004,0.0,3.28,3.31,3.28,3.27,3.28,3.28,3.28,3.28,3.31,3.31,3.31,3.3,3.28,3.28,3.28,3.29,3.28,3.29,3.29,3.28,3.31,3.31,3.31,3.3,3.31,3.27,79.0,-1.0,1.0,0.0,1.0,1.0,7948498
1765226453541,0.0,0.0,2.0,20.0,0.0,0.0,0.0,0.0,0.0,0.0,-0.021716,0.005124,0.993812,-0.56,0.42000000000000004,0.0,3.28,3.31,3.28,3.27,3.28,3.28,3.28,3.28,3.31,3.31,3.31,3.3,3.28,3.28,3.28,3.29,3.28,3.29,3.29,3.28,3.31,3.31,3.31,3.3,3.31,3.27,79.0,-1.0,1.0,0.0,1.0,1.0,7948515
1765226453557,0.0,0.0,2.0,20.0,0.0,0.0,0.0,0.0,0.0,0.0,-0.021716,0.005124,0.993812,-0.56,0.42000000000000004,0.0,3.28,3.31,3.28,3.27,3.28,3.28,3.28,3.28,3.31,3.31,3.31,3.3,3.28,3.28,3.28,3.29,3.28,3.29,3.29,3.28,3.31,3.31,3.31,3.3,3.31,3.27,79.0,-1.0,1.0,0.0,1.0,1.0,7948531
1765226453589,0.0,0.0,2.0,20.0,0.0,0.0,0.0,0.0,0.0,0.0,-0.015616,-0.00061,0.994788,-0.56,0.42000000000000004,0.0,3.28,3.31,3.28,3.27,3.28,3.28,3.28,3.28,3.31,3.31,3.31,3.3,3.28,3.28,3.28,3.29,3.28,3.29,3.29,3.28,3.31,3.31,3.31,3.3,3.31,3.27,79.0,-1.0,1.0,0.0,1.0,1.0,7948563
1765226453624,0.0,0.0,2.0,20.0,0.0,0.0,0.0,0.0,0.0,0.0,-0.015616,-0.00061,0.994788,-0.56,0.56,-0.07,3.28,3.31,3.28,3.27,3.28,3.28,3.28,3.28,3.31,3.31,3.31,3.3,3.28,3.28,3.28,3.29,3.28,3.29,3.29,3.28,3.31,3.31,3.31,3.3,3.31,3.27,79.0,-1.0,1.0,0.0,1.0,1.0,7948598
1765226453659,0.0,0.0,2.0,20.0,0.0,0.0,0.0,0.0,0.0,0.0,-0.015616,-0.00061,0.994788,-0.56,0.56,-0.07,3.28,3.31,3.28,3.27,3.28,3.28,3.28,3.28,3.31,3.31,3.31,3.3,3.28,3.28,3.28,3.29,3.28,3.29,3.29,3.28,3.31,3.31,3.31,3.3,3.31,3.27,79.0,-1.0,1.0,0.0,1.0,1.0,7948633
1765226453676,0.0,0.0,2.0,20.0,0.0,0.0,0.0,0.0,0.0,0.0,-0.015616,-0.00061,0.994788,-0.56,0.56,-0.07,3.28,3.31,3.28,3.27,3.28,3.28,3.28,3.28,3.31,3.31,3.31,3.3,3.28,3.28,3.28,3.29,3.28,3.29,3.29,3.28,3.31,3.31,3.31,3.3,3.31,3.27,79.0,-1.0,1.0,0.0,1.0,1.0,7948650
1765226453692,0.0,0.0,2.0,20.0,0.0,0.0,0.0,0.0,0.0,0.0,-0.015616,-0.00061,0.994788,-0.56,0.56,-0.07,3.28,3.31,3.28,3.27,3.28,3.28,3.28,3.28,3.31,3.31,3.31,3.3,3.28,3.28,3.28,3.29,3.28,3.29,3.29,3.28,3.31,3.31,3.31,3.3,3.31,3.27,79.0,-1.0,1.0,0.0,1.0,1.0,7948666
1765226453709,0.0,0.0,2.0,20.0,0.0,0.0,0.0,0.0,0.0,0.0,-0.015616,-0.00061,0.994788,-0.56,0.56,-0.07,3.28,3.31,3.28,3.27,3.28,3.28,3.28,3.28,3.31,3.31,3.31,3.3,3.28,3.28,3.28,3.29,3.28,3.29,3.29,3.28,3.31,3.31,3.31,3.3,3.31,3.27,79.0,-1.0,1.0,0.0,1.0,1.0,7948683
1765226453723,0.0,0.0,2.0,20.0,0.0,0.0,0.0,0.0,0.0,0.0,-0.015616,-0.00061,0.994788,-0.56,0.56,-0.07,3.28,3.31,3.28,3.27,3.28,3.28,3.28,3.28,3.31,3.31,3.31,3.3,3.28,3.28,3.28,3.29,3.28,3.29,3.29,3.28,3.31,3.31,3.31,3.3,3.31,3.27,79.0,-1.0,1.0,0.0,1.0,1.0,7948697
1765226453740,0.0,0.0,2.0,20.0,0.0,0.0,0.0,0.0,0.0,0.0,-0.015616,-0.00061,0.994788,-0.56,0.56,-0.07,3.28,3.31,3.28,3.27,3.28,3.28,3.28,3.28,3.31,3.31,3.31,3.3,3.28,3.28,3.28,3.29,3.28,3.29,3.29,3.28,3.31,3.31,3.31,3.3,3.31,3.27,79.0,-1.0,1.0,0.0,1.0,1.0,7948714
1765226453756,0.0,0.0,2.0,20.0,0.0,0.0,0.0,0.0,0.0,0.0,-0.015616,-0.00061,0.994788,-0.56,0.56,-0.07,3.28,3.31,3.28,3.27,3.28,3.28,3.28,3.28,3.31,3.31,3.31,3.3,3.28,3.28,3.28,3.29,3.28,3.29,3.29,3.28,3.31,3.31,3.31,3.3,3.31,3.27,79.0,-1.0,1.0,0.0,1.0,1.0,7948730
1765226453790,0.0,0.0,2.0,20.0,0.0,0.0,0.0,0.0,0.0,0.0,-0.015616,-0.00061,0.994788,-0.56,0.56,-0.07,3.28,3.31,3.28,3.27,3.28,3.28,3.28,3.28,3.31,3.31,3.31,3.3,3.28,3.28,3.28,3.29,3.28,3.29,3.29,3.28,3.31,3.31,3.31,3.3,3.31,3.27,79.0,-1.0,1.0,0.0,1.0,1.0,7948764
1765226453807,0.0,0.0,2.0,20.0,0.0,0.0,0.0,0.0,0.0,0.0,-0.015616,-0.00061,0.994788,-0.56,0.56,-0.07,3.28,3.31,3.28,3.27,3.28,3.28,3.28,3.28,3.31,3.31,3.31,3.3,3.28,3.28,3.28,3.29,3.28,3.29,3.29,3.28,3.31,3.31,3.31,3.3,3.31,3.27,79.0,-1.0,1.0,0.0,1.0,1.0,7948781
1765226453823,0.0,0.0,2.0,20.0,0.0,0.0,0.0,0.0,0.0,0.0,-0.018788,-0.00366,0.986858,-0.56,0.56,-0.07,3.28,3.31,3.28,3.27,3.28,3.28,3.28,3.28,3.31,3.31,3.31,3.3,3.28,3.28,3.28,3.29,3.28,3.29,3.29,3.28,3.31,3.31,3.31,3.3,3.31,3.27,79.0,-1.0,1.0,0.0,1.0,1.0,7948797
1765226453873,0.0,0.0,2.0,20.0,0.0,0.0,0.0,0.0,0.0,0.0,-0.018788,-0.00366,0.986858,-0.6300000000000001,0.28,0.0,3.28,3.31,3.28,3.27,3.28,3.28,3.28,3.28,3.31,3.31,3.31,3.3,3.28,3.28,3.28,3.29,3.28,3.29,3.29,3.28,3.31,3.31,3.31,3.3,3.31,3.27,79.0,-1.0,1.0,0.0,1.0,1.0,7948847
1765226453977,0.0,0.0,2.0,20.0,0.0,0.0,0.0,0.0,0.0,0.0,-0.02196,0.004026,0.9983259999999999,-0.6300000000000001,0.28,0.0,3.28,3.31,3.28,3.27,3.28,3.28,3.28,3.28,3.31,3.31,3.31,3.3,3.28,3.28,3.28,3.29,3.28,3.29,3.29,3.28,3.31,3.31,3.31,3.3,3.31,3.27,79.0,-1.0,1.0,0.0,1.0,1.0,7948951
1765226453993,0.0,0.0,2.0,20.0,0.0,0.0,0.0,0.0,0.0,0.0,-0.02196,0.004026,0.9983259999999999,-0.77,0.35000000000000003,0.0,3.28,3.31,3.28,3.27,3.28,3.28,3.28,3.28,3.31,3.31,3.31,3.3,3.28,3.28,3.28,3.29,3.28,3.29,3.29,3.28,3.31,3.31,3.31,3.3,3.31,3.27,79.0,-1.0,1.0,0.0,1.0,1.0,7948967
1765226454026,0.0,0.0,2.0,20.0,0.0,0.0,0.0,0.0,0.0,0.0,-0.02196,0.004026,0.9983259999999999,-0.77,0.35000000000000003,0.0,3.28,3.31,3.28,3.27,3.28,3.28,3.28,3.28,3.31,3.31,3.31,3.3,3.28,3.28,3.28,3.29,3.28,3.29,3.29,3.28,3.31,3.31,3.31,3.3,3.31,3.27,79.0,-1.0,1.0,0.0,1.0,1.0,7949000
1765226454039,0.0,0.0,2.0,20.0,0.0,0.0,0.0,0.0,0.0,0.0,-0.02196,0.004026,0.9983259999999999,-0.77,0.35000000000000003,0.0,3.28,3.31,3.28,3.27,3.28,3.28,3.28,3.28,3.31,3.31,3.31,3.3,3.28,3.28,3.28,3.29,3.28,3.29,3.29,3.28,3.31,3.31,3.31,3.3,3.31,3.27,79.0,-1.0,1.0,0.0,1.0,1.0,7949013
1765226454073,0.0,0.0,2.0,20.0,0.0,0.0,0.0,0.0,0.0,0.0,-0.02196,0.004026,0.9983259999999999,-0.77,0.35000000000000003,0.0,3.28,3.31,3.28,3.27,3.28,3.28,3.28,3.28,3.31,3.31,3.31,3.3,3.28,3.28,3.28,3.29,3.28,3.29,3.29,3.28,3.31,3.31,3.31,3.3,3.31,3.27,79.0,-1.0,1.0,0.0,1.0,1.0,7949047
1765226454089,0.0,0.0,2.0,20.0,0.0,0.0,0.0,0.0,0.0,0.0,-0.02196,0.004026,0.9983259999999999,-0.77,0.35000000000000003,0.0,3.28,3.31,3.28,3.27,3.28,3.28,3.28,3.28,3.31,3.31,3.31,3.3,3.28,3.28,3.28,3.29,3.28,3.29,3.29,3.28,3.31,3.31,3.31,3.3,3.31,3.27,79.0,-1.0,1.0,0.0,1.0,1.0,7949063
1765226454140,0.0,0.0,2.0,20.0,0.0,0.0,0.0,0.0,0.0,0.0,-0.02196,0.004026,0.9983259999999999,-0.77,0.35000000000000003,0.0,3.28,3.31,3.28,3.27,3.28,3.28,3.28,3.28,3.31,3.31,3.31,3.3,3.28,3.28,3.28,3.29,3.28,3.29,3.29,3.28,3.31,3.31,3.31,3.3,3.31,3.27,79.0,-1.0,1.0,0.0,1.0,1.0,7949114
1765226454158,0.0,0.0,2.0,20.0,0.0,0.0,0.0,0.0,0.0,0.0,-0.022692,0.001952,0.991372,-0.77,0.35000000000000003,0.0,3.28,3.31,3.28,3.27,3.28,3.28,3.28,3.28,3.31,3.31,3.31,3.3,3.28,3.28,3.28,3.29,3.28,3.29,3.29,3.28,3.31,3.31,3.31,3.3,3.31,3.27,79.0,-1.0,1.0,0.0,1.0,1.0,7949132
1765226454206,0.0,0.0,2.0,20.0,0.0,0.0,0.0,0.0,0.0,0.0,-0.022692,0.001952,0.991372,-0.6300000000000001,0.35000000000000003,0.0,3.28,3.31,3.28,3.27,3.28,3.28,3.28,3.28,3.31,3.31,3.31,3.3,3.28,3.28,3.28,3.29,3.28,3.29,3.29,3.28,3.31,3.31,3.31,3.3,3.31,3.27,79.0,-1.0,1.0,0.0,1.0,1.0,7949180
1765226454260,0.0,0.0,2.0,20.0,0.0,0.0,0.0,0.0,0.0,0.0,-0.022692,0.001952,0.991372,-0.6300000000000001,0.35000000000000003,0.0,3.28,3.31,3.28,3.27,3.28,3.28,3.28,3.28,3.31,3.31,3.31,3.3,3.28,3.28,3.28,3.29,3.28,3.29,3.29,3.28,3.31,3.31,3.31,3.3,3.31,3.27,79.0,-1.0,1.0,0.0,1.0,1.0,7949234
1765226454307,0.0,0.0,2.0,20.0,0.0,0.0,0.0,0.0,0.0,0.0,-0.019398,0.030255999999999998,0.9943,-0.6300000000000001,0.35000000000000003,0.0,3.28,3.31,3.28,3.27,3.28,3.28,3.28,3.28,3.31,3.31,3.31,3.3,3.28,3.28,3.28,3.29,3.28,3.29,3.29,3.28,3.31,3.31,3.31,3.3,3.31,3.27,79.0,-1.0,1.0,0.0,1.0,1.0,7949281
1765226454341,0.0,0.0,2.0,20.0,0.0,0.0,0.0,0.0,0.0,0.0,-0.019398,0.030255999999999998,0.9943,-0.56,0.42000000000000004,0.07,3.28,3.31,3.28,3.27,3.28,3.28,3.28,3.28,3.31,3.31,3.31,3.3,3.28,3.28,3.28,3.29,3.28,3.29,3.29,3.28,3.31,3.31,3.31,3.3,3.31,3.27,79.0,-1.0,1.0,0.0,1.0,1.0,7949315
1765226454392,0.0,0.0,2.0,20.0,0.0,0.0,0.0,0.0,0.0,0.0,-0.019398,0.004148,0.986004,-0.56,0.42000000000000004,0.07,3.28,3.31,3.28,3.27,3.28,3.28,3.28,3.28,3.31,3.31,3.31,3.3,3.28,3.28,3.28,3.29,3.28,3.29,3.29,3.28,3.31,3.31,3.31,3.3,3.31,3.27,79.0,-1.0,1.0,0.0,1.0,1.0,7949366
1765226454425,0.0,0.0,2.0,20.0,0.0,0.0,0.0,0.0,0.0,0.0,-0.019398,0.004148,0.986004,-0.56,0.42000000000000004,0.07,3.28,3.31,3.28,3.27,3.28,3.28,3.28,3.28,3.31,3.31,3.31,3.3,3.28,3.28,3.28,3.29,3.28,3.29,3.29,3.28,3.31,3.31,3.31,3.3,3.31,3.27,79.0,-1.0,1.0,0.0,1.0,1.0,7949399
1765226454446,0.0,0.0,2.0,20.0,0.0,0.0,0.0,0.0,0.0,0.0,-0.019398,0.004148,0.986004,-0.7000000000000001,0.49000000000000005,0.07,3.28,3.31,3.28,3.27,3.28,3.28,3.28,3.28,3.31,3.31,3.31,3.3,3.28,3.28,3.28,3.29,3.28,3.29,3.29,3.28,3.31,3.31,3.31,3.3,3.31,3.27,79.0,-1.0,1.0,0.0,1.0,1.0,7949420
1765226454457,0.0,0.0,2.0,20.0,0.0,0.0,0.0,0.0,0.0,0.0,-0.019398,0.004148,0.986004,-0.7000000000000001,0.49000000000000005,0.07,3.28,3.31,3.28,3.27,3.28,3.28,3.28,3.28,3.31,3.31,3.31,3.3,3.28,3.28,3.28,3.29,3.28,3.29,3.29,3.28,3.31,3.31,3.31,3.3,3.31,3.27,79.0,-1.0,1.0,0.0,1.0,1.0,7949431
1765226454506,0.0,0.0,2.0,20.0,0.0,0.0,0.0,0.0,0.0,0.0,-0.019398,0.004148,0.986004,-0.7000000000000001,0.49000000000000005,0.07,3.28,3.31,3.28,3.27,3.28,3.28,3.28,3.28,3.31,3.31,3.31,3.3,3.28,3.28,3.28,3.29,3.28,3.29,3.29,3.28,3.31,3.31,3.31,3.3,3.31,3.27,79.0,-1.0,1.0,0.0,1.0,1.0,7949480
1765226454575,0.0,0.0,2.0,20.0,0.0,0.0,0.0,0.0,0.0,0.0,-0.019398,0.004148,0.986004,-0.7000000000000001,0.49000000000000005,0.07,3.28,3.31,3.28,3.27,3.28,3.28,3.28,3.28,3.31,3.31,3.31,3.3,3.28,3.28,3.28,3.29,3.28,3.29,3.29,3.28,3.31,3.31,3.31,3.3,3.31,3.27,79.0,-1.0,1.0,0.0,1.0,1.0,7949549
1765226454641,0.0,0.0,2.0,20.0,0.0,0.0,0.0,0.0,0.0,0.0,-0.021716,0.002196,0.9964959999999999,-0.7000000000000001,0.49000000000000005,0.07,3.28,3.31,3.28,3.27,3.28,3.28,3.28,3.28,3.31,3.31,3.31,3.3,3.28,3.28,3.28,3.29,3.28,3.29,3.29,3.28,3.31,3.31,3.31,3.3,3.31,3.27,79.0,-1.0,1.0,0.0,1.0,1.0,7949615
1765226454656,0.0,0.0,2.0,20.0,0.0,0.0,0.0,0.0,0.0,0.0,-0.021716,0.002196,0.9964959999999999,-0.42000000000000004,0.42000000000000004,0.0,3.28,3.31,3.28,3.27,3.28,3.28,3.28,3.28,3.31,3.31,3.31,3.3,3.28,3.28,3.28,3.29,3.28,3.29,3.29,3.28,3.31,3.31,3.31,3.3,3.31,3.27,79.0,-1.0,1.0,0.0,1.0,1.0,7949630
1765226454709,0.0,0.0,2.0,20.0,0.0,0.0,0.0,0.0,0.0,0.0,-0.021716,0.002196,0.9964959999999999,-0.42000000000000004,0.42000000000000004,0.0,3.28,3.31,3.28,3.27,3.28,3.28,3.28,3.28,3.31,3.31,3.31,3.3,3.28,3.28,3.28,3.29,3.28,3.29,3.29,3.28,3.31,3.31,3.31,3.3,3.31,3.27,79.0,-1.0,1.0,0.0,1.0,1.0,7949683
1765226454726,0.0,0.0,2.0,20.0,0.0,0.0,0.0,0.0,0.0,0.0,-0.031354,-0.004026,0.997594,-0.42000000000000004,0.42000000000000004,0.0,3.28,3.31,3.28,3.27,3.28,3.28,3.28,3.28,3.31,3.31,3.31,3.3,3.28,3.28,3.28,3.29,3.28,3.29,3.29,3.28,3.31,3.31,3.31,3.3,3.31,3.27,79.0,-1.0,1.0,0.0,1.0,1.0,7949700
1765226454759,0.0,0.0,2.0,20.0,0.0,0.0,0.0,0.0,0.0,0.0,-0.031354,-0.004026,0.997594,-0.42000000000000004,0.42000000000000004,0.0,3.28,3.31,3.28,3.27,3.28,3.28,3.28,3.28,3.31,3.31,3.31,3.3,3.28,3.28,3.28,3.29,3.28,3.29,3.29,3.28,3.31,3.31,3.31,3.3,3.31,3.27,79.0,-1.0,1.0,0.0,1.0,1.0,7949733
1765226454789,0.0,0.0,2.0,20.0,0.0,0.0,0.0,0.0,0.0,0.0,-0.031354,-0.004026,0.997594,-1.05,0.7000000000000001,0.14,3.28,3.31,3.28,3.27,3.28,3.28,3.28,3.28,3.31,3.31,3.31,3.3,3.28,3.28,3.28,3.29,3.28,3.29,3.29,3.28,3.31,3.31,3.31,3.3,3.31,3.27,79.0,-1.0,1.0,0.0,1.0,1.0,7949763
1765226454806,0.0,0.0,2.0,20.0,0.0,0.0,0.0,0.0,0.0,0.0,-0.031354,-0.004026,0.997594,-1.05,0.7000000000000001,0.14,3.28,3.31,3.28,3.27,3.28,3.28,3.28,3.28,3.31,3.31,3.31,3.3,3.28,3.28,3.28,3.29,3.28,3.29,3.29,3.28,3.31,3.31,3.31,3.3,3.31,3.27,79.0,-1.0,1.0,0.0,1.0,1.0,7949780
1765226454857,0.0,0.0,2.0,20.0,0.0,0.0,0.0,0.0,0.0,0.0,-0.031354,-0.004026,0.997594,-1.05,0.7000000000000001,0.14,3.28,3.31,3.28,3.27,3.28,3.28,3.28,3.28,3.31,3.31,3.31,3.3,3.28,3.28,3.28,3.29,3.28,3.29,3.29,3.28,3.31,3.31,3.31,3.3,3.31,3.27,79.0,-1.0,1.0,0.0,1.0,1.0,7949831
1765226454893,0.0,0.0,2.0,20.0,0.0,0.0,0.0,0.0,0.0,0.0,-0.031354,-0.004026,0.997594,-1.05,0.7000000000000001,0.14,3.28,3.31,3.28,3.27,3.28,3.28,3.28,3.28,3.31,3.31,3.31,3.3,3.28,3.28,3.28,3.29,3.28,3.29,3.29,3.28,3.31,3.31,3.31,3.3,3.31,3.27,79.0,-1.0,1.0,0.0,1.0,1.0,7949867
1765226454910,0.0,0.0,2.0,20.0,0.0,0.0,0.0,0.0,0.0,0.0,-0.022203999999999998,-0.000732,0.9946659999999999,-1.05,0.7000000000000001,0.14,3.28,3.31,3.28,3.27,3.28,3.28,3.28,3.28,3.31,3.31,3.31,3.3,3.28,3.28,3.28,3.29,3.28,3.29,3.29,3.28,3.31,3.31,3.31,3.3,3.31,3.27,79.0,-1.0,1.0,0.0,1.0,1.0,7949884
1765226454975,0.0,0.0,2.0,20.0,0.0,0.0,0.0,0.0,0.0,0.0,-0.022203999999999998,-0.000732,0.9946659999999999,-0.7000000000000001,0.28,0.07,3.28,3.31,3.28,3.27,3.28,3.28,3.28,3.28,3.31,3.31,3.31,3.3,3.28,3.28,3.28,3.29,3.28,3.29,3.29,3.28,3.31,3.31,3.31,3.3,3.31,3.27,79.0,-1.0,1.0,0.0,1.0,1.0,7949949
1765226454993,0.0,0.0,2.0,20.0,0.0,0.0,0.0,0.0,0.0,0.0,-0.022203999999999998,-0.000732,0.9946659999999999,-0.7000000000000001,0.28,0.07,3.28,3.31,3.28,3.27,3.28,3.28,3.28,3.28,3.31,3.31,3.31,3.3,3.28,3.28,3.28,3.29,3.28,3.29,3.29,3.28,3.31,3.31,3.31,3.3,3.31,3.27,79.0,-1.0,1.0,0.0,1.0,1.0,7949967
1765226455074,0.0,0.0,2.0,20.0,0.0,0.0,0.0,0.0,0.0,0.0,-0.013663999999999999,0.0071979999999999995,0.994422,-0.7000000000000001,0.28,0.07,3.28,3.31,3.28,3.27,3.28,3.28,3.28,3.28,3.31,3.31,3.31,3.3,3.28,3.28,3.28,3.29,3.28,3.29,3.29,3.28,3.31,3.31,3.31,3.3,3.31,3.27,79.0,-1.0,1.0,0.0,1.0,1.0,7950048
1765226455091,0.0,0.0,2.0,20.0,0.0,0.0,0.0,0.0,0.0,0.0,-0.013663999999999999,0.0071979999999999995,0.994422,-0.6300000000000001,0.49000000000000005,0.0,3.28,3.31,3.28,3.27,3.28,3.28,3.28,3.28,3.31,3.31,3.31,3.3,3.28,3.28,3.28,3.29,3.28,3.29,3.29,3.28,3.31,3.31,3.31,3.3,3.31,3.27,79.0,-1.0,1.0,0.0,1.0,1.0,7950065
1765226455617,0.0,0.0,2.0,20.0,0.0,0.0,0.0,0.0,0.0,0.0,-0.016531,0.000305,0.99186,-0.6300000000000001,0.28,0.0,3.28,3.31,3.28,3.28,3.28,3.28,3.28,3.28,3.31,3.31,3.31,3.3,3.28,3.28,3.28,3.29,3.28,3.29,3.29,3.28,3.31,3.31,3.31,3.3,3.31,3.27,79.0,-1.0,1.0,0.0,1.0,1.0,7950591
1765226455624,0.0,0.0,2.0,20.0,0.0,0.0,0.0,0.0,0.0,0.0,-0.016531,0.000305,0.99186,-0.6300000000000001,0.28,0.0,3.28,3.31,3.28,3.28,3.28,3.28,3.28,3.28,3.31,3.31,3.31,3.3,3.28,3.28,3.28,3.29,3.28,3.29,3.29,3.28,3.31,3.31,3.31,3.3,3.31,3.27,79.0,-1.0,1.0,0.0,1.0,1.0,7950598
1765226455657,0.0,0.0,2.0,20.0,0.0,0.0,0.0,0.0,0.0,0.0,-0.016531,0.000305,0.99186,-0.6300000000000001,0.28,0.0,3.28,3.31,3.28,3.28,3.28,3.28,3.28,3.28,3.31,3.31,3.31,3.3,3.28,3.28,3.28,3.29,3.28,3.29,3.29,3.28,3.31,3.31,3.31,3.3,3.31,3.27,79.0,-1.0,1.0,0.0,1.0,1.0,7950631
1765226455673,0.0,0.0,2.0,20.0,0.0,0.0,0.0,0.0,0.0,0.0,-0.018788,0.00061,1.003694,-0.6300000000000001,0.28,0.0,3.28,3.31,3.28,3.28,3.28,3.28,3.28,3.28,3.31,3.31,3.31,3.3,3.28,3.28,3.28,3.29,3.28,3.29,3.29,3.28,3.31,3.31,3.31,3.3,3.31,3.27,79.0,-1.0,1.0,0.0,1.0,1.0,7950647
1765226455726,0.0,0.0,2.0,20.0,0.0,0.0,0.0,0.0,0.0,0.0,-0.018788,0.00061,1.003694,-0.6300000000000001,0.28,0.0,3.28,3.31,3.28,3.28,3.28,3.28,3.28,3.28,3.31,3.31,3.31,3.3,3.28,3.28,3.28,3.29,3.28,3.29,3.29,3.28,3.31,3.31,3.31,3.3,3.31,3.27,79.0,-1.0,1.0,0.0,1.0,1.0,7950700
1765226455743,0.0,0.0,2.0,20.0,0.0,0.0,0.0,0.0,0.0,0.0,-0.018788,0.00061,1.003694,-0.8400000000000001,0.35000000000000003,0.0,3.28,3.31,3.28,3.28,3.28,3.28,3.28,3.28,3.31,3.31,3.31,3.3,3.28,3.28,3.28,3.29,3.28,3.29,3.29,3.28,3.31,3.31,3.31,3.3,3.31,3.27,79.0,-1.0,1.0,0.0,1.0,1.0,7950717
1765226455823,0.0,0.0,2.0,20.0,0.0,0.0,0.0,0.0,0.0,0.0,-0.014395999999999999,0.004392,0.98454,-0.8400000000000001,0.35000000000000003,0.0,3.28,3.31,3.28,3.28,3.28,3.28,3.28,3.28,3.31,3.31,3.31,3.3,3.28,3.28,3.28,3.29,3.28,3.29,3.29,3.28,3.31,3.31,3.31,3.3,3.31,3.27,79.0,-1.0,1.0,0.0,1.0,1.0,7950797
1765226455841,0.0,0.0,2.0,20.0,0.0,0.0,0.0,0.0,0.0,0.0,-0.014395999999999999,0.004392,0.98454,-0.6300000000000001,0.56,0.07,3.28,3.31,3.28,3.28,3.28,3.28,3.28,3.28,3.31,3.31,3.31,3.3,3.28,3.28,3.28,3.29,3.28,3.29,3.29,3.28,3.31,3.31,3.31,3.3,3.31,3.27,79.0,-1.0,1.0,0.0,1.0,1.0,7950815
1765226455874,0.0,0.0,2.0,20.0,0.0,0.0,0.0,0.0,0.0,0.0,-0.014395999999999999,0.004392,0.98454,-0.6300000000000001,0.56,0.07,3.28,3.31,3.28,3.28,3.28,3.28,3.28,3.28,3.31,3.31,3.31,3.3,3.28,3.28,3.28,3.29,3.28,3.29,3.29,3.28,3.31,3.31,3.31,3.3,3.31,3.27,79.0,-1.0,1.0,0.0,1.0,1.0,7950848
1765226455891,0.0,0.0,2.0,20.0,0.0,0.0,0.0,0.0,0.0,0.0,-0.014395999999999999,0.004392,0.98454,-0.6300000000000001,0.56,0.07,3.28,3.31,3.28,3.28,3.28,3.28,3.28,3.28,3.31,3.31,3.31,3.3,3.28,3.28,3.28,3.29,3.28,3.29,3.29,3.28,3.31,3.31,3.31,3.3,3.31,3.27,79.0,-1.0,1.0,0.0,1.0,1.0,7950865
1765226455909,0.0,0.0,2.0,20.0,0.0,0.0,0.0,0.0,0.0,0.0,-0.014395999999999999,0.004392,0.98454,-0.6300000000000001,0.56,0.07,3.28,3.31,3.28,3.28,3.28,3.28,3.28,3.28,3.31,3.31,3.31,3.3,3.28,3.28,3.28,3.29,3.28,3.29,3.29,3.28,3.31,3.31,3.31,3.3,3.31,3.27,79.0,-1.0,1.0,0.0,1.0,1.0,7950883
1765226455924,0.0,0.0,2.0,20.0,0.0,0.0,0.0,0.0,0.0,0.0,-0.014395999999999999,0.004392,0.98454,-0.6300000000000001,0.56,0.07,3.28,3.31,3.28,3.28,3.28,3.28,3.28,3.28,3.31,3.31,3.31,3.3,3.28,3.28,3.28,3.29,3.28,3.29,3.29,3.28,3.31,3.31,3.31,3.3,3.31,3.27,79.0,-1.0,1.0,0.0,1.0,1.0,7950898
1765226455941,0.0,0.0,2.0,20.0,0.0,0.0,0.0,0.0,0.0,0.0,-0.014395999999999999,0.004392,0.98454,-0.6300000000000001,0.56,0.07,3.28,3.31,3.28,3.28,3.28,3.28,3.28,3.28,3.31,3.31,3.31,3.3,3.28,3.28,3.28,3.29,3.28,3.29,3.29,3.28,3.31,3.31,3.31,3.3,3.31,3.27,79.0,-1.0,1.0,0.0,1.0,1.0,7950915
1765226455996,0.0,0.0,2.0,20.0,0.0,0.0,0.0,0.0,0.0,0.0,-0.022692,0.001952,0.999058,-0.6300000000000001,0.56,0.07,3.28,3.31,3.28,3.28,3.28,3.28,3.28,3.28,3.31,3.31,3.31,3.3,3.28,3.28,3.28,3.29,3.28,3.29,3.29,3.28,3.31,3.31,3.31,3.3,3.31,3.27,79.0,-1.0,1.0,0.0,1.0,1.0,7950970
1765226456007,0.0,0.0,2.0,20.0,0.0,0.0,0.0,0.0,0.0,0.0,-0.022692,0.001952,0.999058,-0.6300000000000001,0.56,0.07,3.28,3.31,3.28,3.28,3.28,3.28,3.28,3.28,3.31,3.31,3.31,3.3,3.28,3.28,3.28,3.29,3.28,3.29,3.29,3.28,3.31,3.31,3.31,3.3,3.31,3.27,79.0,-1.0,1.0,0.0,1.0,1.0,7950981
1765226456076,0.0,0.0,2.0,20.0,0.0,0.0,0.0,0.0,0.0,0.0,-0.022692,0.001952,0.999058,-0.6300000000000001,0.35000000000000003,0.0,3.28,3.31,3.28,3.28,3.28,3.28,3.28,3.28,3.31,3.31,3.31,3.3,3.28,3.28,3.28,3.29,3.28,3.29,3.29,3.28,3.31,3.31,3.31,3.3,3.31,3.27,79.0,-1.0,1.0,0.0,1.0,1.0,7951050
1765226456140,0.0,0.0,2.0,20.0,0.0,0.0,0.0,0.0,0.0,0.0,-0.022692,0.001952,0.999058,-0.6300000000000001,0.35000000000000003,0.0,3.28,3.31,3.28,3.28,3.28,3.28,3.28,3.28,3.31,3.31,3.31,3.3,3.28,3.28,3.28,3.29,3.28,3.29,3.29,3.28,3.31,3.31,3.31,3.3,3.31,3.27,79.0,-1.0,1.0,0.0,1.0,1.0,7951114
1765226456175,0.0,0.0,2.0,20.0,0.0,0.0,0.0,0.0,0.0,0.0,-0.018788,0.000976,0.996984,-0.6300000000000001,0.35000000000000003,0.0,3.28,3.31,3.28,3.28,3.28,3.28,3.28,3.28,3.31,3.31,3.31,3.3,3.28,3.28,3.28,3.29,3.28,3.29,3.29,3.28,3.31,3.31,3.31,3.3,3.31,3.27,79.0,-1.0,1.0,0.0,1.0,1.0,7951149
1765226456223,0.0,0.0,2.0,20.0,0.0,0.0,0.0,0.0,0.0,0.0,-0.018788,0.000976,0.996984,-0.6300000000000001,0.35000000000000003,0.0,3.28,3.31,3.28,3.28,3.28,3.28,3.28,3.28,3.31,3.31,3.31,3.3,3.28,3.28,3.28,3.29,3.28,3.29,3.29,3.28,3.31,3.31,3.31,3.3,3.31,3.27,79.0,-1.0,1.0,0.0,1.0,1.0,7951197
1765226456261,0.0,0.0,2.0,20.0,0.0,0.0,0.0,0.0,0.0,0.0,-0.018788,0.000976,0.996984,-0.6300000000000001,0.35000000000000003,0.0,3.28,3.31,3.28,3.28,3.28,3.28,3.28,3.28,3.31,3.31,3.31,3.3,3.28,3.28,3.28,3.29,3.28,3.29,3.29,3.28,3.31,3.31,3.31,3.3,3.31,3.28,79.0,0.0,1.0,0.0,1.0,1.0,7951235
1765226456291,0.0,0.0,2.0,20.0,0.0,0.0,0.0,0.0,0.0,0.0,-0.01952,0.00183,0.9864919999999999,-0.6300000000000001,0.35000000000000003,0.0,3.28,3.31,3.28,3.28,3.28,3.28,3.28,3.28,3.31,3.31,3.31,3.3,3.28,3.28,3.28,3.29,3.28,3.29,3.29,3.28,3.31,3.31,3.31,3.3,3.31,3.28,79.0,0.0,1.0,0.0,1.0,1.0,7951265
1765226456323,0.0,0.0,2.0,20.0,0.0,0.0,0.0,0.0,0.0,0.0,-0.01952,0.00183,0.9864919999999999,-0.6300000000000001,0.35000000000000003,0.0,3.28,3.31,3.28,3.28,3.28,3.28,3.28,3.28,3.31,3.31,3.31,3.3,3.28,3.28,3.28,3.29,3.28,3.29,3.29,3.28,3.31,3.31,3.31,3.3,3.31,3.28,79.0,0.0,1.0,0.0,1.0,1.0,7951297
1765226456340,0.0,0.0,2.0,20.0,0.0,0.0,0.0,0.0,0.0,0.0,-0.01952,0.00183,0.9864919999999999,-0.6300000000000001,0.35000000000000003,0.0,3.28,3.31,3.28,3.28,3.28,3.28,3.28,3.28,3.31,3.31,3.31,3.3,3.28,3.28,3.28,3.29,3.28,3.29,3.29,3.28,3.31,3.31,3.31,3.3,3.31,3.28,79.0,0.0,1.0,0.0,1.0,1.0,7951314
1765226456357,0.0,0.0,2.0,20.0,0.0,0.0,0.0,0.0,0.0,0.0,-0.01952,0.00183,0.9864919999999999,-0.7000000000000001,0.28,0.0,3.28,3.31,3.28,3.28,3.28,3.28,3.28,3.28,3.31,3.31,3.31,3.3,3.28,3.28,3.28,3.29,3.28,3.29,3.29,3.28,3.31,3.31,3.31,3.3,3.31,3.28,79.0,0.0,1.0,0.0,1.0,1.0,7951331
1765226456375,0.0,0.0,2.0,20.0,0.0,0.0,0.0,0.0,0.0,0.0,-0.01952,0.00183,0.9864919999999999,-0.7000000000000001,0.28,0.0,3.28,3.31,3.28,3.28,3.28,3.28,3.28,3.28,3.31,3.31,3.31,3.3,3.28,3.28,3.28,3.29,3.28,3.29,3.29,3.28,3.31,3.31,3.31,3.3,3.31,3.28,79.0,0.0,1.0,0.0,1.0,1.0,7951349
1765226456391,0.0,0.0,2.0,20.0,0.0,0.0,0.0,0.0,0.0,0.0,-0.01952,0.00183,0.9864919999999999,-0.7000000000000001,0.28,0.0,3.28,3.31,3.28,3.28,3.28,3.28,3.28,3.28,3.31,3.31,3.31,3.3,3.28,3.28,3.28,3.29,3.28,3.29,3.29,3.28,3.31,3.31,3.31,3.3,3.31,3.28,79.0,0.0,1.0,0.0,1.0,1.0,7951365
1765226456458,0.0,0.0,2.0,20.0,0.0,0.0,0.0,0.0,0.0,0.0,-0.01952,0.00183,0.9864919999999999,-0.7000000000000001,0.28,0.0,3.28,3.31,3.28,3.28,3.28,3.28,3.28,3.28,3.31,3.31,3.31,3.3,3.28,3.28,3.28,3.29,3.28,3.29,3.29,3.28,3.31,3.31,3.31,3.3,3.31,3.28,79.0,0.0,1.0,0.0,1.0,1.0,7951432
1765226456540,0.0,0.0,2.0,20.0,0.0,0.0,0.0,0.0,0.0,0.0,-0.01891,0.0017079999999999999,0.997228,-0.7000000000000001,0.28,0.0,3.28,3.31,3.28,3.28,3.28,3.28,3.28,3.28,3.31,3.31,3.31,3.3,3.28,3.28,3.28,3.29,3.28,3.29,3.29,3.28,3.31,3.31,3.31,3.3,3.31,3.28,79.0,0.0,1.0,0.0,1.0,1.0,7951514
1765226456557,0.0,0.0,2.0,20.0,0.0,0.0,0.0,0.0,0.0,0.0,-0.01891,0.0017079999999999999,0.997228,-0.6300000000000001,0.42000000000000004,-0.07,3.28,3.31,3.28,3.28,3.28,3.28,3.28,3.28,3.31,3.31,3.31,3.3,3.28,3.28,3.28,3.29,3.28,3.29,3.29,3.28,3.31,3.31,3.31,3.3,3.31,3.28,79.0,0.0,1.0,0.0,1.0,1.0,7951531
1765226456607,0.0,0.0,2.0,20.0,0.0,0.0,0.0,0.0,0.0,0.0,-0.01891,0.0017079999999999999,0.997228,-0.6300000000000001,0.42000000000000004,-0.07,3.28,3.31,3.28,3.28,3.28,3.28,3.28,3.28,3.31,3.31,3.31,3.3,3.28,3.28,3.28,3.29,3.28,3.29,3.29,3.28,3.31,3.31,3.31,3.3,3.31,3.28,79.0,0.0,1.0,0.0,1.0,1.0,7951581
1765226456623,0.0,0.0,2.0,20.0,0.0,0.0,0.0,0.0,0.0,0.0,-0.01952,0.000122,0.992714,-0.6300000000000001,0.42000000000000004,-0.07,3.28,3.31,3.28,3.28,3.28,3.28,3.28,3.28,3.31,3.31,3.31,3.3,3.28,3.28,3.28,3.29,3.28,3.29,3.29,3.28,3.31,3.31,3.31,3.3,3.31,3.28,79.0,0.0,1.0,0.0,1.0,1.0,7951597
1765226456642,0.0,0.0,2.0,20.0,0.0,0.0,0.0,0.0,0.0,0.0,-0.01952,0.000122,0.992714,-0.6300000000000001,0.42000000000000004,-0.07,3.28,3.31,3.28,3.28,3.28,3.28,3.28,3.28,3.31,3.31,3.31,3.3,3.28,3.28,3.28,3.29,3.28,3.29,3.29,3.28,3.31,3.31,3.31,3.3,3.31,3.28,79.0,0.0,1.0,0.0,1.0,1.0,7951616
1765226456657,0.0,0.0,2.0,20.0,0.0,0.0,0.0,0.0,0.0,0.0,-0.01952,0.000122,0.992714,-0.6300000000000001,0.42000000000000004,-0.07,3.28,3.31,3.28,3.28,3.28,3.28,3.28,3.28,3.31,3.31,3.31,3.3,3.28,3.28,3.28,3.29,3.28,3.29,3.29,3.28,3.31,3.31,3.31,3.3,3.31,3.28,79.0,0.0,1.0,0.0,1.0,1.0,7951631
1765226456675,0.0,0.0,2.0,20.0,0.0,0.0,0.0,0.0,0.0,0.0,-0.01952,0.000122,0.992714,-0.6300000000000001,0.42000000000000004,-0.07,3.28,3.31,3.28,3.28,3.28,3.28,3.28,3.28,3.31,3.31,3.31,3.3,3.28,3.28,3.28,3.29,3.28,3.29,3.29,3.28,3.31,3.31,3.31,3.3,3.31,3.28,79.0,0.0,1.0,0.0,1.0,1.0,7951649
1765226456690,0.0,0.0,2.0,20.0,0.0,0.0,0.0,0.0,0.0,0.0,-0.01952,0.000122,0.992714,-0.56,0.35000000000000003,0.0,3.28,3.31,3.28,3.28,3.28,3.28,3.28,3.28,3.31,3.31,3.31,3.3,3.28,3.28,3.28,3.29,3.28,3.29,3.29,3.28,3.31,3.31,3.31,3.3,3.31,3.28,79.0,0.0,1.0,0.0,1.0,1.0,7951664
1765226456740,0.0,0.0,2.0,20.0,0.0,0.0,0.0,0.0,0.0,0.0,-0.01952,0.000122,0.992714,-0.56,0.35000000000000003,0.0,3.28,3.31,3.28,3.28,3.28,3.28,3.28,3.28,3.31,3.31,3.31,3.3,3.28,3.28,3.28,3.29,3.28,3.29,3.29,3.28,3.31,3.31,3.31,3.3,3.31,3.28,79.0,0.0,1.0,0.0,1.0,1.0,7951714
1765226456756,0.0,0.0,2.0,20.0,0.0,0.0,0.0,0.0,0.0,0.0,-0.01952,0.000122,0.992714,-0.56,0.35000000000000003,0.0,3.28,3.31,3.28,3.28,3.28,3.28,3.28,3.28,3.31,3.31,3.31,3.3,3.28,3.28,3.28,3.29,3.28,3.29,3.29,3.28,3.31,3.31,3.31,3.3,3.31,3.28,79.0,0.0,1.0,0.0,1.0,1.0,7951730
1765226456773,0.0,0.0,2.0,20.0,0.0,0.0,0.0,0.0,0.0,0.0,-0.01952,0.000122,0.992714,-0.56,0.35000000000000003,0.0,3.28,3.31,3.28,3.28,3.28,3.28,3.28,3.28,3.31,3.31,3.31,3.3,3.28,3.28,3.28,3.29,3.28,3.29,3.29,3.28,3.31,3.31,3.31,3.3,3.31,3.28,79.0,0.0,1.0,0.0,1.0,1.0,7951747
1765226456807,0.0,0.0,2.0,20.0,0.0,0.0,0.0,0.0,0.0,0.0,-0.019886,0.001464,0.992592,-0.56,0.35000000000000003,0.0,3.28,3.31,3.28,3.28,3.28,3.28,3.28,3.28,3.31,3.31,3.31,3.3,3.28,3.28,3.28,3.29,3.28,3.29,3.29,3.28,3.31,3.31,3.31,3.3,3.31,3.28,79.0,0.0,1.0,0.0,1.0,1.0,7951781
1765226456873,0.0,0.0,2.0,20.0,0.0,0.0,0.0,0.0,0.0,0.0,-0.019886,0.001464,0.992592,-0.7000000000000001,0.35000000000000003,0.0,3.28,3.31,3.28,3.28,3.28,3.28,3.28,3.28,3.31,3.31,3.31,3.3,3.28,3.28,3.28,3.29,3.28,3.29,3.29,3.28,3.31,3.31,3.31,3.3,3.31,3.28,79.0,0.0,1.0,0.0,1.0,1.0,7951847
1765226456974,0.0,0.0,2.0,20.0,0.0,0.0,0.0,0.0,0.0,0.0,-0.018788,0.001098,0.992104,-0.6300000000000001,0.35000000000000003,-0.07,3.28,3.31,3.28,3.28,3.28,3.28,3.28,3.28,3.31,3.31,3.31,3.3,3.28,3.28,3.28,3.29,3.28,3.29,3.29,3.28,3.31,3.31,3.31,3.3,3.31,3.28,79.0,0.0,1.0,0.0,1.0,1.0,7951948
1765226456993,0.0,0.0,2.0,20.0,0.0,0.0,0.0,0.0,0.0,0.0,-0.018788,0.001098,0.992104,-0.6300000000000001,0.35000000000000003,-0.07,3.28,3.31,3.28,3.27,3.28,3.28,3.28,3.28,3.31,3.31,3.31,3.3,3.28,3.28,3.28,3.29,3.28,3.29,3.29,3.28,3.31,3.31,3.31,3.3,3.31,3.28,79.0,0.0,1.0,0.0,1.0,1.0,7951967
1765226457006,0.0,0.0,2.0,20.0,0.0,0.0,0.0,0.0,0.0,0.0,-0.018788,0.001098,0.992104,-0.6300000000000001,0.35000000000000003,-0.07,3.28,3.31,3.28,3.27,3.28,3.28,3.28,3.28,3.31,3.31,3.31,3.3,3.28,3.28,3.28,3.29,3.28,3.29,3.29,3.28,3.31,3.31,3.31,3.3,3.31,3.28,79.0,0.0,1.0,0.0,1.0,1.0,7951980
1765226457025,0.0,0.0,2.0,20.0,0.0,0.0,0.0,0.0,0.0,0.0,-0.018788,0.001098,0.992104,-0.6300000000000001,0.35000000000000003,-0.07,3.28,3.31,3.28,3.27,3.28,3.28,3.28,3.28,3.31,3.31,3.31,3.3,3.28,3.28,3.28,3.29,3.28,3.29,3.29,3.28,3.31,3.31,3.31,3.3,3.31,3.28,79.0,0.0,1.0,0.0,1.0,1.0,7951999
1765226457057,0.0,0.0,2.0,20.0,0.0,0.0,0.0,0.0,0.0,0.0,-0.018788,0.001098,0.992104,-0.6300000000000001,0.35000000000000003,-0.07,3.28,3.31,3.28,3.27,3.28,3.28,3.28,3.28,3.31,3.31,3.31,3.3,3.28,3.28,3.28,3.29,3.28,3.29,3.29,3.28,3.31,3.31,3.31,3.3,3.31,3.28,79.0,0.0,1.0,0.0,1.0,1.0,7952031
1765226457073,0.0,0.0,2.0,20.0,0.0,0.0,0.0,0.0,0.0,0.0,-0.018788,0.001098,0.992104,-0.6300000000000001,0.35000000000000003,-0.07,3.28,3.31,3.28,3.27,3.28,3.28,3.28,3.28,3.31,3.31,3.31,3.3,3.28,3.28,3.28,3.29,3.28,3.29,3.29,3.28,3.31,3.31,3.31,3.3,3.31,3.28,79.0,0.0,1.0,0.0,1.0,1.0,7952047
1765226457090,0.0,0.0,2.0,20.0,0.0,0.0,0.0,0.0,0.0,0.0,-0.018788,0.001098,0.992104,-0.6300000000000001,0.35000000000000003,-0.07,3.28,3.31,3.28,3.27,3.28,3.28,3.28,3.28,3.31,3.31,3.31,3.3,3.28,3.28,3.28,3.29,3.28,3.29,3.29,3.28,3.31,3.31,3.31,3.3,3.31,3.28,79.0,0.0,1.0,0.0,1.0,1.0,7952064
1765226457107,0.0,0.0,2.0,20.0,0.0,0.0,0.0,0.0,0.0,0.0,-0.018788,0.001098,0.992104,-0.6300000000000001,0.35000000000000003,-0.07,3.28,3.31,3.28,3.27,3.28,3.28,3.28,3.28,3.31,3.31,3.31,3.3,3.28,3.28,3.28,3.29,3.28,3.29,3.29,3.28,3.31,3.31,3.31,3.3,3.31,3.28,79.0,0.0,1.0,0.0,1.0,1.0,7952081
1765226457124,0.0,0.0,2.0,20.0,0.0,0.0,0.0,0.0,0.0,0.0,-0.018788,0.001098,0.992104,-0.6300000000000001,0.35000000000000003,-0.07,3.28,3.31,3.28,3.27,3.28,3.28,3.28,3.28,3.31,3.31,3.31,3.3,3.28,3.28,3.28,3.29,3.28,3.29,3.29,3.28,3.31,3.31,3.31,3.3,3.31,3.28,79.0,0.0,1.0,0.0,1.0,1.0,7952098
