timestamp,THROTTLE,BRAKE,ECU_MODE_ID,TORQUE_GAIN,TORQUE_REF_LEFT_MOTOR,TORQUE_REF_RIGHT_MOTOR,LEFT_MOTOR_SPEED,RIGHT_MOTOR_SPEED,REAR_LEFT_WHEEL_SPEED,REAR_RIGHT_WHEEL_SPEED,ACCEL_LONGITUDINAL,ACCEL_LATERAL,ACCEL_NORMAL,VEL_ANGULAR_YAW,VEL_ANGULAR_PITCH,VEL_ANGULAR_ROLL,STACK_1_CELL_1,STACK_1_CELL_2,STACK_1_CELL_3,STACK_1_CELL_4,STACK_2_CELL_1,STACK_2_CELL_2,STACK_2_CELL_3,STACK_2_CELL_4,STACK_3_CELL_1,STACK_3_CELL_2,STACK_3_CELL_3,STACK_3_CELL_4,STACK_4_CELL_1,STACK_4_CELL_2,STACK_4_CELL_3,STACK_4_CELL_4,STACK_5_CELL_1,STACK_5_CELL_2,STACK_5_CELL_3,STACK_5_CELL_4,STACK_6_CELL_1,STACK_6_CELL_2,STACK_6_CELL_3,STACK_6_CELL_4,MAX_VOLTAGE,MIN_VOLTAGE,TOTAL_VOLTAGE,SHUNT_CURRENT,BMS_MODE_ID,BMS_ERROR_ID,AIR_P,AIR_N,t,LEFT_MOTOR_RPM,RIGHT_MOTOR_RPM
1765226025049,132.0,0.0,1.0,10.0,129.0,129.0,0.011040128571428571,0.0,0.011040128571428571,0.011040128571428571,-0.01464,0.0050019999999999995,0.988932,-0.56,0.28,0.0,3.27,3.32,3.24,3.26,3.26,3.27,3.27,3.27,3.29,3.29,3.29,3.29,3.26,3.27,3.26,3.29,3.28,3.27,3.27,3.27,3.3,3.3,3.29,3.28,3.32,3.24,78.6,0.0,1.0,0.0,1.0,1.0,7520023,1.0,0.0
1765226025081,132.0,0.0,1.0,10.0,129.0,129.0,0.011040128571428571,0.0,0.011040128571428571,0.011040128571428571,-0.01464,0.0050019999999999995,0.988932,-0.77,0.42000000000000004,-0.07,3.27,3.32,3.24,3.26,3.26,3.27,3.27,3.27,3.29,3.29,3.29,3.29,3.26,3.27,3.26,3.29,3.28,3.27,3.27,3.27,3.3,3.3,3.29,3.28,3.32,3.24,78.6,0.0,1.0,0.0,1.0,1.0,7520055,1.0,0.0
1765226025097,0.0,0.0,1.0,10.0,129.0,129.0,0.011040128571428571,0.0,0.011040128571428571,0.011040128571428571,-0.01464,0.0050019999999999995,0.988932,-0.77,0.42000000000000004,-0.07,3.27,3.32,3.24,3.26,3.26,3.27,3.27,3.27,3.29,3.29,3.29,3.29,3.26,3.27,3.26,3.29,3.28,3.27,3.27,3.27,3.3,3.3,3.29,3.28,3.32,3.24,78.6,0.0,1.0,0.0,1.0,1.0,7520071,1.0,0.0
1765226025113,0.0,0.0,2.0,25.0,129.0,129.0,0.011040128571428571,0.0,0.011040128571428571,0.011040128571428571,-0.01464,0.0050019999999999995,0.988932,-0.77,0.42000000000000004,-0.07,3.27,3.32,3.24,3.26,3.26,3.27,3.27,3.27,3.29,3.29,3.29,3.29,3.26,3.27,3.26,3.29,3.28,3.27,3.27,3.27,3.3,3.3,3.29,3.28,3.32,3.24,78.6,0.0,1.0,0.0,1.0,1.0,7520087,1.0,0.0
1765226025128,0.0,0.0,2.0,25.0,0.0,0.0,0.011040128571428571,0.0,0.011040128571428571,0.011040128571428571,-0.01464,0.0050019999999999995,0.988932,-0.77,0.42000000000000004,-0.07,3.27,3.32,3.24,3.26,3.26,3.27,3.27,3.27,3.29,3.29,3.29,3.29,3.26,3.27,3.26,3.29,3.28,3.27,3.27,3.27,3.3,3.3,3.29,3.28,3.32,3.24,78.6,0.0,1.0,0.0,1.0,1.0,7520102,1.0,0.0
1765226025145,0.0,0.0,2.0,25.0,0.0,0.0,0.011040128571428571,0.0,0.0,0.0,-0.01464,0.0050019999999999995,0.988932,-0.77,0.42000000000000004,-0.07,3.27,3.32,3.24,3.26,3.26,3.27,3.27,3.27,3.29,3.29,3.29,3.29,3.26,3.27,3.26,3.29,3.28,3.27,3.27,3.27,3.3,3.3,3.29,3.28,3.32,3.24,78.6,0.0,1.0,0.0,1.0,1.0,7520119,1.0,0.0
1765226025179,0.0,0.0,2.0,25.0,0.0,0.0,0.0,0.0,0.0,0.0,-0.01464,0.0050019999999999995,0.988932,-0.77,0.42000000000000004,-0.07,3.29,3.32,3.28,3.28,3.26,3.27,3.27,3.27,3.29,3.29,3.29,3.29,3.26,3.27,3.26,3.29,3.28,3.27,3.27,3.27,3.3,3.3,3.29,3.28,3.32,3.24,78.6,0.0,1.0,0.0,1.0,1.0,7520153,0.0,0.0
1765226025216,0.0,0.0,2.0,25.0,0.0,0.0,0.0,0.0,0.0,0.0,-0.01464,0.0050019999999999995,0.988932,-0.77,0.42000000000000004,-0.07,3.29,3.32,3.28,3.28,3.28,3.28,3.28,3.28,3.29,3.29,3.29,3.29,3.26,3.27,3.26,3.29,3.28,3.27,3.27,3.27,3.3,3.3,3.29,3.28,3.32,3.24,78.6,0.0,1.0,0.0,1.0,1.0,7520190,0.0,0.0
1765226025229,0.0,0.0,2.0,25.0,0.0,0.0,0.0,0.0,0.0,0.0,-0.01464,0.0050019999999999995,0.988932,-0.77,0.42000000000000004,-0.07,3.29,3.32,3.28,3.28,3.28,3.28,3.28,3.28,3.31,3.31,3.31,3.31,3.26,3.27,3.26,3.29,3.28,3.27,3.27,3.27,3.3,3.3,3.29,3.28,3.32,3.24,78.6,0.0,1.0,0.0,1.0,1.0,7520203,0.0,0.0
1765226025262,0.0,0.0,2.0,25.0,0.0,0.0,0.0,0.0,0.0,0.0,-0.01464,0.0050019999999999995,0.988932,-0.77,0.42000000000000004,-0.07,3.29,3.32,3.28,3.28,3.28,3.28,3.28,3.28,3.31,3.31,3.31,3.31,3.26,3.27,3.26,3.29,3.28,3.27,3.27,3.27,3.3,3.3,3.29,3.28,3.32,3.24,78.6,0.0,1.0,0.0,1.0,1.0,7520236,0.0,0.0
1765226025278,0.0,0.0,2.0,25.0,0.0,0.0,0.0,0.0,0.0,0.0,-0.01464,0.0050019999999999995,0.988932,-0.77,0.42000000000000004,-0.07,3.29,3.32,3.28,3.28,3.28,3.28,3.28,3.28,3.31,3.31,3.31,3.31,3.28,3.28,3.28,3.29,3.28,3.27,3.27,3.27,3.3,3.3,3.29,3.28,3.32,3.24,78.6,0.0,1.0,0.0,1.0,1.0,7520252,0.0,0.0
1765226025295,0.0,0.0,2.0,25.0,0.0,0.0,0.0,0.0,0.0,0.0,-0.01464,0.0050019999999999995,0.988932,-0.77,0.42000000000000004,-0.07,3.29,3.32,3.28,3.28,3.28,3.28,3.28,3.28,3.31,3.31,3.31,3.31,3.28,3.28,3.28,3.29,3.29,3.29,3.29,3.28,3.3,3.3,3.29,3.28,3.32,3.24,78.6,0.0,1.0,0.0,1.0,1.0,7520269,0.0,0.0
1765226025312,0.0,0.0,2.0,25.0,0.0,0.0,0.0,0.0,0.0,0.0,-0.01464,0.0050019999999999995,0.988932,-0.77,0.42000000000000004,-0.07,3.29,3.32,3.28,3.28,3.28,3.28,3.28,3.28,3.31,3.31,3.31,3.31,3.28,3.28,3.28,3.29,3.29,3.29,3.29,3.28,3.32,3.32,3.31,3.3,3.32,3.24,78.6,0.0,1.0,0.0,1.0,1.0,7520286,0.0,0.0
1765226025362,0.0,0.0,2.0,25.0,0.0,0.0,0.0,0.0,0.0,0.0,-0.01952,-0.0060999999999999995,0.995398,-0.77,0.42000000000000004,-0.07,3.29,3.32,3.28,3.28,3.28,3.28,3.28,3.28,3.31,3.31,3.31,3.31,3.28,3.28,3.28,3.29,3.29,3.29,3.29,3.28,3.32,3.32,3.31,3.3,3.32,3.24,78.6,0.0,1.0,0.0,1.0,1.0,7520336,0.0,0.0
1765226025379,0.0,0.0,2.0,25.0,0.0,0.0,0.0,0.0,0.0,0.0,-0.01952,-0.0060999999999999995,0.995398,-0.56,0.49000000000000005,0.0,3.29,3.32,3.28,3.28,3.28,3.28,3.28,3.28,3.31,3.31,3.31,3.31,3.28,3.28,3.28,3.29,3.29,3.29,3.29,3.28,3.32,3.32,3.31,3.3,3.32,3.24,78.6,0.0,1.0,0.0,1.0,1.0,7520353,0.0,0.0
1765226025415,0.0,0.0,2.0,25.0,0.0,0.0,0.0,0.0,0.0,0.0,-0.01952,-0.0060999999999999995,0.995398,-0.56,0.49000000000000005,0.0,3.29,3.32,3.28,3.28,3.28,3.28,3.28,3.28,3.31,3.31,3.31,3.31,3.28,3.28,3.28,3.29,3.29,3.29,3.29,3.28,3.32,3.32,3.31,3.3,3.32,3.24,78.6,0.0,1.0,0.0,1.0,1.0,7520389,0.0,0.0
1765226025447,0.0,0.0,2.0,25.0,0.0,0.0,0.0,0.0,0.0,0.0,-0.01952,-0.0060999999999999995,0.995398,-0.56,0.49000000000000005,0.0,3.29,3.32,3.28,3.28,3.28,3.28,3.28,3.28,3.31,3.31,3.31,3.31,3.28,3.28,3.28,3.29,3.29,3.29,3.29,3.28,3.32,3.32,3.31,3.3,3.32,3.24,78.6,0.0,1.0,0.0,1.0,1.0,7520421,0.0,0.0
1765226025465,0.0,0.0,2.0,25.0,0.0,0.0,0.0,0.0,0.0,0.0,-0.01952,-0.0060999999999999995,0.995398,-0.56,0.49000000000000005,0.0,3.29,3.32,3.28,3.28,3.28,3.28,3.28,3.28,3.31,3.31,3.31,3.31,3.28,3.28,3.28,3.29,3.29,3.29,3.29,3.28,3.32,3.32,3.31,3.3,3.32,3.24,78.6,0.0,1.0,0.0,1.0,1.0,7520439,0.0,0.0
1765226025478,0.0,0.0,2.0,25.0,0.0,0.0,0.0,0.0,0.0,0.0,-0.01952,-0.0060999999999999995,0.995398,-0.56,0.49000000000000005,0.0,3.29,3.32,3.28,3.28,3.28,3.28,3.28,3.28,3.31,3.31,3.31,3.31,3.28,3.28,3.28,3.29,3.29,3.29,3.29,3.28,3.32,3.32,3.31,3.3,3.32,3.24,78.6,0.0,1.0,0.0,1.0,1.0,7520452,0.0,0.0
1765226025496,0.0,0.0,2.0,25.0,0.0,0.0,0.0,0.0,0.0,0.0,-0.012322,-0.000244,0.992958,-0.56,0.49000000000000005,0.0,3.29,3.32,3.28,3.28,3.28,3.28,3.28,3.28,3.31,3.31,3.31,3.31,3.28,3.28,3.28,3.29,3.29,3.29,3.29,3.28,3.32,3.32,3.31,3.3,3.32,3.24,78.6,0.0,1.0,0.0,1.0,1.0,7520470,0.0,0.0
1765226025512,0.0,0.0,2.0,25.0,0.0,0.0,0.0,0.0,0.0,0.0,-0.012322,-0.000244,0.992958,-0.6300000000000001,0.35000000000000003,0.0,3.29,3.32,3.28,3.28,3.28,3.28,3.28,3.28,3.31,3.31,3.31,3.31,3.28,3.28,3.28,3.29,3.29,3.29,3.29,3.28,3.32,3.32,3.31,3.3,3.32,3.24,78.6,0.0,1.0,0.0,1.0,1.0,7520486,0.0,0.0
1765226025562,0.0,0.0,2.0,25.0,0.0,0.0,0.0,0.0,0.0,0.0,-0.012322,-0.000244,0.992958,-0.6300000000000001,0.35000000000000003,0.0,3.29,3.32,3.28,3.28,3.28,3.28,3.28,3.28,3.31,3.31,3.31,3.31,3.28,3.28,3.28,3.29,3.29,3.29,3.29,3.28,3.32,3.32,3.31,3.3,3.32,3.24,78.6,0.0,1.0,0.0,1.0,1.0,7520536,0.0,0.0
1765226025579,0.0,0.0,2.0,25.0,0.0,0.0,0.0,0.0,0.0,0.0,-0.012322,-0.000244,0.992958,-0.6300000000000001,0.35000000000000003,0.0,3.29,3.32,3.28,3.28,3.28,3.28,3.28,3.28,3.31,3.31,3.31,3.31,3.28,3.28,3.28,3.29,3.29,3.29,3.29,3.28,3.32,3.32,3.31,3.3,3.32,3.24,78.6,0.0,1.0,0.0,1.0,1.0,7520553,0.0,0.0
1765226025596,0.0,0.0,2.0,25.0,0.0,0.0,0.0,0.0,0.0,0.0,-0.012322,-0.000244,0.992958,-0.6300000000000001,0.35000000000000003,0.0,3.29,3.32,3.28,3.28,3.28,3.28,3.28,3.28,3.31,3.31,3.31,3.31,3.28,3.28,3.28,3.29,3.29,3.29,3.29,3.28,3.32,3.32,3.31,3.3,3.32,3.24,78.6,0.0,1.0,0.0,1.0,1.0,7520570,0.0,0.0
1765226025612,0.0,0.0,2.0,25.0,0.0,0.0,0.0,0.0,0.0,0.0,-0.012322,-0.000244,0.992958,-0.6300000000000001,0.35000000000000003,0.0,3.29,3.32,3.28,3.28,3.28,3.28,3.28,3.28,3.31,3.31,3.31,3.31,3.28,3.28,3.28,3.29,3.29,3.29,3.29,3.28,3.32,3.32,3.31,3.3,3.32,3.24,78.6,0.0,1.0,0.0,1.0,1.0,7520586,0.0,0.0
1765226025681,0.0,0.0,2.0,25.0,0.0,0.0,0.0,0.0,0.0,0.0,-0.013663999999999999,0.006954,0.996008,-0.6300000000000001,0.35000000000000003,0.0,3.29,3.32,3.28,3.28,3.28,3.28,3.28,3.28,3.31,3.31,3.31,3.31,3.28,3.28,3.28,3.29,3.29,3.29,3.29,3.28,3.32,3.32,3.31,3.3,3.32,3.24,78.6,0.0,1.0,0.0,1.0,1.0,7520655,0.0,0.0
1765226025747,0.0,0.0,2.0,25.0,0.0,0.0,0.0,0.0,0.0,0.0,-0.013663999999999999,0.006954,0.996008,-0.56,0.42000000000000004,0.0,3.29,3.32,3.28,3.28,3.28,3.28,3.28,3.28,3.31,3.31,3.31,3.31,3.28,3.28,3.28,3.29,3.29,3.29,3.29,3.28,3.32,3.32,3.31,3.3,3.32,3.24,78.6,0.0,1.0,0.0,1.0,1.0,7520721,0.0,0.0
1765226025795,0.0,0.0,2.0,25.0,0.0,0.0,0.0,0.0,0.0,0.0,-0.017324,0.009028,0.98881,-0.56,0.42000000000000004,0.0,3.29,3.32,3.28,3.28,3.28,3.28,3.28,3.28,3.31,3.31,3.31,3.31,3.28,3.28,3.28,3.29,3.29,3.29,3.29,3.28,3.32,3.32,3.31,3.3,3.32,3.24,78.6,0.0,1.0,0.0,1.0,1.0,7520769,0.0,0.0
1765226025812,0.0,0.0,2.0,25.0,0.0,0.0,0.0,0.0,0.0,0.0,-0.017324,0.009028,0.98881,-0.6300000000000001,0.07,-0.07,3.29,3.32,3.28,3.28,3.28,3.28,3.28,3.28,3.31,3.31,3.31,3.31,3.28,3.28,3.28,3.29,3.29,3.29,3.29,3.28,3.32,3.32,3.31,3.3,3.32,3.24,78.6,0.0,1.0,0.0,1.0,1.0,7520786,0.0,0.0
1765226025845,0.0,0.0,2.0,25.0,0.0,0.0,0.0,0.0,0.0,0.0,-0.017324,0.009028,0.98881,-0.6300000000000001,0.07,-0.07,3.29,3.32,3.28,3.28,3.28,3.28,3.28,3.28,3.31,3.31,3.31,3.31,3.28,3.28,3.28,3.29,3.29,3.29,3.29,3.28,3.32,3.32,3.31,3.3,3.32,3.24,78.6,0.0,1.0,0.0,1.0,1.0,7520819,0.0,0.0
1765226025862,0.0,0.0,2.0,25.0,0.0,0.0,0.0,0.0,0.0,0.0,-0.017324,0.009028,0.98881,-0.6300000000000001,0.07,-0.07,3.29,3.32,3.28,3.28,3.28,3.28,3.28,3.28,3.31,3.31,3.31,3.31,3.28,3.28,3.28,3.29,3.29,3.29,3.29,3.28,3.32,3.32,3.31,3.3,3.32,3.24,78.6,0.0,1.0,0.0,1.0,1.0,7520836,0.0,0.0
1765226025879,0.0,0.0,2.0,25.0,0.0,0.0,0.0,0.0,0.0,0.0,-0.017324,0.009028,0.98881,-0.6300000000000001,0.07,-0.07,3.29,3.32,3.28,3.28,3.28,3.28,3.28,3.28,3.31,3.31,3.31,3.31,3.28,3.28,3.28,3.29,3.29,3.29,3.29,3.28,3.32,3.32,3.31,3.3,3.32,3.24,78.6,0.0,1.0,0.0,1.0,1.0,7520853,0.0,0.0
1765226025915,0.0,0.0,2.0,25.0,0.0,0.0,0.0,0.0,0.0,0.0,-0.017324,0.009028,0.98881,-0.6300000000000001,0.07,-0.07,3.29,3.32,3.28,3.28,3.28,3.28,3.28,3.28,3.31,3.31,3.31,3.31,3.28,3.28,3.28,3.29,3.29,3.29,3.29,3.28,3.32,3.32,3.31,3.3,3.32,3.24,78.6,0.0,1.0,0.0,1.0,1.0,7520889,0.0,0.0
1765226025964,0.0,0.0,2.0,25.0,0.0,0.0,0.0,0.0,0.0,0.0,-0.017324,0.009028,0.98881,-0.6300000000000001,0.07,-0.07,3.29,3.32,3.28,3.28,3.28,3.28,3.28,3.28,3.31,3.31,3.31,3.31,3.28,3.28,3.28,3.29,3.29,3.29,3.29,3.28,3.32,3.32,3.31,3.3,3.32,3.24,78.6,0.0,1.0,0.0,1.0,1.0,7520938,0.0,0.0
1765226026015,0.0,0.0,2.0,25.0,0.0,0.0,0.0,0.0,0.0,0.0,-0.019275999999999998,0.0008539999999999999,0.9940559999999999,-0.6300000000000001,0.07,-0.07,3.29,3.32,3.28,3.28,3.28,3.28,3.28,3.28,3.31,3.31,3.31,3.31,3.28,3.28,3.28,3.29,3.29,3.29,3.29,3.28,3.32,3.32,3.31,3.3,3.32,3.24,78.6,0.0,1.0,0.0,1.0,1.0,7520989,0.0,0.0
1765226026050,0.0,0.0,2.0,25.0,0.0,0.0,0.0,0.0,0.0,0.0,-0.019275999999999998,0.0008539999999999999,0.9940559999999999,-0.56,0.49000000000000005,0.0,3.29,3.32,3.28,3.28,3.28,3.28,3.28,3.28,3.31,3.31,3.31,3.31,3.28,3.28,3.28,3.29,3.29,3.29,3.29,3.28,3.32,3.32,3.31,3.3,3.32,3.24,78.6,0.0,1.0,0.0,1.0,1.0,7521024,0.0,0.0
1765226026112,0.0,0.0,2.0,25.0,0.0,0.0,0.0,0.0,0.0,0.0,-0.019275999999999998,0.0008539999999999999,0.9940559999999999,-0.56,0.49000000000000005,0.0,3.29,3.32,3.28,3.28,3.28,3.28,3.28,3.28,3.31,3.31,3.31,3.31,3.28,3.28,3.28,3.29,3.29,3.29,3.29,3.28,3.32,3.32,3.31,3.3,3.32,3.24,78.6,0.0,1.0,0.0,1.0,1.0,7521086,0.0,0.0
1765226026179,0.0,0.0,2.0,25.0,0.0,0.0,0.0,0.0,0.0,0.0,-0.014518,0.002928,0.991738,-0.56,0.49000000000000005,0.0,3.29,3.32,3.28,3.28,3.28,3.28,3.28,3.28,3.31,3.31,3.31,3.31,3.28,3.28,3.28,3.29,3.29,3.29,3.29,3.28,3.32,3.32,3.31,3.3,3.32,3.24,78.6,0.0,1.0,0.0,1.0,1.0,7521153,0.0,0.0
1765226026197,0.0,0.0,2.0,25.0,0.0,0.0,0.0,0.0,0.0,0.0,-0.014518,0.002928,0.991738,-0.56,0.49000000000000005,0.0,3.29,3.32,3.28,3.28,3.28,3.28,3.28,3.28,3.31,3.31,3.31,3.31,3.28,3.28,3.28,3.29,3.29,3.29,3.29,3.28,3.32,3.32,3.31,3.3,3.32,3.28,79.0,-1.0,1.0,0.0,1.0,1.0,7521171,0.0,0.0
1765226026231,0.0,0.0,2.0,25.0,0.0,0.0,0.0,0.0,0.0,0.0,-0.014518,0.002928,0.991738,-0.56,0.49000000000000005,0.0,3.29,3.32,3.28,3.28,3.28,3.28,3.28,3.28,3.31,3.31,3.31,3.31,3.28,3.28,3.28,3.29,3.29,3.29,3.29,3.28,3.32,3.32,3.31,3.3,3.32,3.28,79.0,-1.0,1.0,0.0,1.0,1.0,7521205,0.0,0.0
1765226026245,0.0,0.0,2.0,25.0,0.0,0.0,0.0,0.0,0.0,0.0,-0.014518,0.002928,0.991738,-0.56,0.42000000000000004,0.0,3.29,3.32,3.28,3.28,3.28,3.28,3.28,3.28,3.31,3.31,3.31,3.31,3.28,3.28,3.28,3.29,3.29,3.29,3.29,3.28,3.32,3.32,3.31,3.3,3.32,3.28,79.0,-1.0,1.0,0.0,1.0,1.0,7521219,0.0,0.0
1765226026280,64.0,0.0,2.0,25.0,0.0,0.0,0.0,0.0,0.0,0.0,-0.014518,0.002928,0.991738,-0.56,0.42000000000000004,0.0,3.29,3.32,3.28,3.28,3.28,3.28,3.28,3.28,3.31,3.31,3.31,3.31,3.28,3.28,3.28,3.29,3.29,3.29,3.29,3.28,3.32,3.32,3.31,3.3,3.32,3.28,79.0,-1.0,1.0,0.0,1.0,1.0,7521254,0.0,0.0
1765226026297,64.0,0.0,2.0,25.0,0.0,0.0,0.0,0.0,0.0,0.0,-0.014518,0.002928,0.991738,-0.56,0.42000000000000004,0.0,3.29,3.32,3.28,3.28,3.28,3.28,3.28,3.28,3.31,3.31,3.31,3.31,3.28,3.28,3.28,3.29,3.29,3.29,3.29,3.28,3.32,3.32,3.31,3.3,3.32,3.28,79.0,-1.0,1.0,0.0,1.0,1.0,7521271,0.0,0.0
1765226026314,64.0,0.0,2.0,25.0,0.0,0.0,0.0,0.0,0.0,0.0,-0.014518,0.002928,0.991738,-0.56,0.42000000000000004,0.0,3.29,3.32,3.28,3.28,3.28,3.28,3.28,3.28,3.31,3.31,3.31,3.31,3.28,3.28,3.28,3.29,3.29,3.29,3.29,3.28,3.32,3.32,3.31,3.3,3.32,3.28,79.0,-1.0,1.0,0.0,1.0,1.0,7521288,0.0,0.0
1765226026331,64.0,0.0,2.0,25.0,0.0,0.0,0.0,0.0,0.0,0.0,-0.014518,0.002928,0.991738,-0.56,0.42000000000000004,0.0,3.29,3.32,3.28,3.28,3.28,3.28,3.28,3.28,3.31,3.31,3.31,3.31,3.28,3.28,3.28,3.29,3.29,3.29,3.29,3.28,3.32,3.32,3.31,3.3,3.32,3.28,79.0,-1.0,1.0,0.0,1.0,1.0,7521305,0.0,0.0
1765226026347,64.0,0.0,2.0,25.0,0.0,0.0,0.0,0.0,0.0,0.0,-0.014518,0.002928,0.991738,-0.56,0.42000000000000004,0.0,3.29,3.32,3.28,3.28,3.28,3.28,3.28,3.28,3.31,3.31,3.31,3.31,3.28,3.28,3.28,3.29,3.29,3.29,3.29,3.28,3.32,3.32,3.31,3.3,3.32,3.28,79.0,-1.0,1.0,0.0,1.0,1.0,7521321,0.0,0.0
1765226026397,64.0,0.0,2.0,25.0,0.0,0.0,0.0,0.0,0.0,0.0,-0.01586,0.0053679999999999995,0.99125,-0.56,0.42000000000000004,0.0,3.29,3.32,3.28,3.28,3.28,3.28,3.28,3.28,3.31,3.31,3.31,3.31,3.28,3.28,3.28,3.29,3.29,3.29,3.29,3.28,3.32,3.32,3.31,3.3,3.32,3.28,79.0,-1.0,1.0,0.0,1.0,1.0,7521371,0.0,0.0
1765226026415,64.0,0.0,2.0,25.0,0.0,0.0,0.0,0.0,0.0,0.0,-0.01586,0.0053679999999999995,0.99125,-0.56,0.42000000000000004,0.0,3.29,3.32,3.28,3.28,3.28,3.28,3.28,3.28,3.31,3.31,3.31,3.31,3.28,3.28,3.28,3.29,3.29,3.29,3.29,3.28,3.32,3.32,3.31,3.3,3.32,3.28,79.0,-1.0,1.0,0.0,1.0,1.0,7521389,0.0,0.0
1765226026432,64.0,0.0,2.0,25.0,0.0,0.0,0.0,0.0,0.0,0.0,-0.01586,0.0053679999999999995,0.99125,-0.6300000000000001,0.35000000000000003,0.07,3.29,3.32,3.28,3.28,3.28,3.28,3.28,3.28,3.31,3.31,3.31,3.31,3.28,3.28,3.28,3.29,3.29,3.29,3.29,3.28,3.32,3.32,3.31,3.3,3.32,3.28,79.0,-1.0,1.0,0.0,1.0,1.0,7521406,0.0,0.0
1765226026529,64.0,0.0,2.0,25.0,0.0,0.0,0.0,0.0,0.0,0.0,-0.013054,0.0068319999999999995,0.989664,-0.6300000000000001,0.35000000000000003,0.07,3.29,3.32,3.28,3.28,3.28,3.28,3.28,3.28,3.31,3.31,3.31,3.31,3.28,3.28,3.28,3.29,3.29,3.29,3.29,3.28,3.32,3.32,3.31,3.3,3.32,3.28,79.0,-1.0,1.0,0.0,1.0,1.0,7521503,0.0,0.0
1765226026546,64.0,0.0,2.0,25.0,0.0,0.0,0.0,0.0,0.0,0.0,-0.013054,0.0068319999999999995,0.989664,-0.6300000000000001,0.35000000000000003,0.07,3.29,3.32,3.28,3.28,3.28,3.28,3.28,3.28,3.31,3.31,3.31,3.31,3.28,3.28,3.28,3.29,3.29,3.29,3.29,3.28,3.32,3.32,3.31,3.3,3.32,3.28,79.0,-1.0,1.0,0.0,1.0,1.0,7521520,0.0,0.0
1765226026563,321.0,0.0,2.0,25.0,0.0,0.0,0.0,0.0,0.0,0.0,-0.013054,0.0068319999999999995,0.989664,-0.6300000000000001,0.35000000000000003,0.07,3.29,3.32,3.28,3.28,3.28,3.28,3.28,3.28,3.31,3.31,3.31,3.31,3.28,3.28,3.28,3.29,3.29,3.29,3.29,3.28,3.32,3.32,3.31,3.3,3.32,3.28,79.0,-1.0,1.0,0.0,1.0,1.0,7521537,0.0,0.0
1765226026597,321.0,0.0,2.0,25.0,0.0,0.0,0.0,0.0,0.0,0.0,-0.013054,0.0068319999999999995,0.989664,-0.6300000000000001,0.35000000000000003,0.07,3.29,3.32,3.28,3.28,3.28,3.28,3.28,3.28,3.31,3.31,3.31,3.31,3.28,3.28,3.28,3.29,3.29,3.29,3.29,3.28,3.32,3.32,3.31,3.3,3.32,3.28,79.0,-1.0,1.0,0.0,1.0,1.0,7521571,0.0,0.0
1765226026598,321.0,0.0,2.0,25.0,0.0,0.0,0.0,0.0,0.0,0.0,-0.013054,0.0068319999999999995,0.989664,-0.6300000000000001,0.35000000000000003,0.07,3.29,3.32,3.28,3.28,3.28,3.28,3.28,3.28,3.31,3.31,3.31,3.31,3.28,3.28,3.28,3.29,3.29,3.29,3.29,3.28,3.32,3.32,3.31,3.3,3.32,3.28,79.0,-1.0,1.0,0.0,1.0,1.0,7521572,0.0,0.0
1765226026613,321.0,0.0,2.0,25.0,0.0,0.0,0.0,0.0,0.0,0.0,-0.013054,0.0068319999999999995,0.989664,-0.6300000000000001,0.35000000000000003,0.07,3.29,3.32,3.28,3.28,3.28,3.28,3.28,3.28,3.31,3.31,3.31,3.31,3.28,3.28,3.28,3.29,3.29,3.29,3.29,3.28,3.32,3.32,3.31,3.3,3.32,3.28,79.0,-1.0,1.0,0.0,1.0,1.0,7521587,0.0,0.0
1765226026648,321.0,0.0,2.0,25.0,0.0,0.0,0.0,0.0,0.0,0.0,-0.013054,0.0068319999999999995,0.989664,-0.6300000000000001,0.35000000000000003,0.07,3.29,3.32,3.28,3.28,3.28,3.28,3.28,3.28,3.31,3.31,3.31,3.31,3.28,3.28,3.28,3.29,3.29,3.29,3.29,3.28,3.32,3.32,3.31,3.3,3.32,3.28,79.0,-1.0,1.0,0.0,1.0,1.0,7521622,0.0,0.0
1765226026696,321.0,0.0,2.0,25.0,0.0,0.0,0.0,0.0,0.0,0.0,-0.013054,0.0068319999999999995,0.989664,-0.6300000000000001,0.35000000000000003,0.07,3.29,3.32,3.28,3.28,3.28,3.28,3.28,3.28,3.31,3.31,3.31,3.31,3.28,3.28,3.28,3.29,3.29,3.29,3.29,3.28,3.32,3.32,3.31,3.3,3.32,3.28,79.0,-1.0,1.0,0.0,1.0,1.0,7521670,0.0,0.0
1765226026712,321.0,0.0,2.0,25.0,300.0,300.0,0.0,0.0,0.0,0.0,-0.013054,0.0068319999999999995,0.989664,-0.6300000000000001,0.35000000000000003,0.07,3.29,3.32,3.28,3.28,3.28,3.28,3.28,3.28,3.31,3.31,3.31,3.31,3.28,3.28,3.28,3.29,3.29,3.29,3.29,3.28,3.32,3.32,3.31,3.3,3.32,3.28,79.0,-1.0,1.0,0.0,1.0,1.0,7521686,0.0,0.0
1765226026731,321.0,0.0,2.0,25.0,300.0,300.0,0.0,0.0,0.011040128571428571,0.0,-0.013054,0.0068319999999999995,0.989664,-0.6300000000000001,0.35000000000000003,0.0,3.29,3.32,3.28,3.28,3.28,3.28,3.28,3.28,3.31,3.31,3.31,3.31,3.28,3.28,3.28,3.29,3.29,3.29,3.29,3.28,3.32,3.32,3.31,3.3,3.32,3.28,79.0,-1.0,1.0,0.0,1.0,1.0,7521705,0.0,0.0
1765226026748,321.0,0.0,2.0,25.0,300.0,300.0,0.0,0.0,0.011040128571428571,0.0,-0.013054,0.0068319999999999995,0.989664,-0.6300000000000001,0.35000000000000003,0.0,3.29,3.32,3.28,3.28,3.28,3.28,3.28,3.28,3.31,3.31,3.31,3.31,3.28,3.28,3.28,3.29,3.29,3.29,3.29,3.28,3.32,3.32,3.31,3.3,3.32,3.28,79.0,-1.0,1.0,0.0,1.0,1.0,7521722,0.0,0.0
1765226026829,321.0,0.0,2.0,25.0,300.0,300.0,0.0,0.0,0.011040128571428571,0.0,-0.013054,0.0068319999999999995,0.989664,-0.6300000000000001,0.35000000000000003,0.0,3.29,3.32,3.28,3.28,3.28,3.28,3.28,3.28,3.31,3.31,3.31,3.31,3.28,3.28,3.28,3.29,3.29,3.29,3.29,3.28,3.32,3.32,3.31,3.3,3.32,3.28,79.0,-1.0,1.0,0.0,1.0,1.0,7521803,0.0,0.0
1765226026880,321.0,0.0,2.0,25.0,300.0,300.0,0.0,0.0,0.011040128571428571,0.0,-0.01342,0.0046359999999999995,0.991372,-0.6300000000000001,0.35000000000000003,0.0,3.29,3.32,3.28,3.28,3.28,3.28,3.28,3.28,3.31,3.31,3.31,3.31,3.28,3.28,3.28,3.29,3.29,3.29,3.29,3.28,3.32,3.32,3.31,3.3,3.32,3.28,79.0,-1.0,1.0,0.0,1.0,1.0,7521854,0.0,0.0
1765226026913,321.0,0.0,2.0,25.0,300.0,300.0,0.0,0.0,0.011040128571428571,0.0,-0.01342,0.0046359999999999995,0.991372,-0.56,0.42000000000000004,-0.07,3.29,3.32,3.28,3.28,3.28,3.28,3.28,3.28,3.31,3.31,3.31,3.31,3.28,3.28,3.28,3.29,3.29,3.29,3.29,3.28,3.32,3.32,3.31,3.3,3.32,3.28,79.0,-1.0,1.0,0.0,1.0,1.0,7521887,0.0,0.0
1765226026947,321.0,0.0,2.0,25.0,300.0,300.0,0.0,0.0,0.011040128571428571,0.0,-0.01342,0.0046359999999999995,0.991372,-0.56,0.42000000000000004,-0.07,3.29,3.32,3.28,3.28,3.28,3.28,3.28,3.28,3.31,3.31,3.31,3.31,3.28,3.28,3.28,3.29,3.29,3.29,3.29,3.28,3.32,3.32,3.31,3.3,3.32,3.28,79.0,-1.0,1.0,0.0,1.0,1.0,7521921,0.0,0.0
1765226026962,321.0,0.0,2.0,25.0,300.0,300.0,0.0,0.0,0.011040128571428571,0.0,-0.01342,0.0046359999999999995,0.991372,-0.56,0.42000000000000004,-0.07,3.29,3.32,3.28,3.28,3.28,3.28,3.28,3.28,3.31,3.31,3.31,3.31,3.28,3.28,3.28,3.29,3.29,3.29,3.29,3.28,3.32,3.32,3.31,3.3,3.32,3.28,79.0,-1.0,1.0,0.0,1.0,1.0,7521936,0.0,0.0
1765226026979,321.0,0.0,2.0,25.0,300.0,300.0,0.0,0.0,0.011040128571428571,0.0,-0.01342,0.0046359999999999995,0.991372,-0.56,0.42000000000000004,-0.07,3.29,3.32,3.28,3.28,3.28,3.28,3.28,3.28,3.31,3.31,3.31,3.31,3.28,3.28,3.28,3.29,3.29,3.29,3.29,3.28,3.32,3.32,3.31,3.3,3.32,3.28,79.0,-1.0,1.0,0.0,1.0,1.0,7521953,0.0,0.0
1765226027015,321.0,0.0,2.0,25.0,300.0,300.0,0.0,0.0,0.011040128571428571,0.0,-0.01342,0.0046359999999999995,0.991372,-0.56,0.42000000000000004,-0.07,3.29,3.32,3.28,3.28,3.28,3.28,3.28,3.28,3.31,3.31,3.31,3.31,3.28,3.28,3.28,3.29,3.29,3.29,3.29,3.28,3.32,3.32,3.31,3.3,3.32,3.28,79.0,-1.0,1.0,0.0,1.0,1.0,7521989,0.0,0.0
1765226027030,1000.0,0.0,2.0,25.0,300.0,300.0,0.0,0.0,0.011040128571428571,0.0,-0.01342,0.0046359999999999995,0.991372,-0.56,0.42000000000000004,-0.07,3.29,3.32,3.28,3.28,3.28,3.28,3.28,3.28,3.31,3.31,3.31,3.31,3.28,3.28,3.28,3.29,3.29,3.29,3.29,3.28,3.32,3.32,3.31,3.3,3.32,3.28,79.0,-1.0,1.0,0.0,1.0,1.0,7522004,0.0,0.0
1765226027048,1000.0,0.0,2.0,25.0,300.0,300.0,0.0,0.0,0.011040128571428571,0.0,-0.01342,0.0046359999999999995,0.991372,-0.56,0.42000000000000004,-0.07,3.29,3.32,3.28,3.28,3.28,3.28,3.28,3.28,3.31,3.31,3.31,3.31,3.28,3.28,3.28,3.29,3.29,3.29,3.29,3.28,3.32,3.32,3.31,3.3,3.32,3.28,79.0,-1.0,1.0,0.0,1.0,1.0,7522022,0.0,0.0
1765226027062,1000.0,0.0,2.0,25.0,300.0,300.0,0.0,0.0,0.0,0.0,-0.01342,0.0046359999999999995,0.991372,-0.56,0.42000000000000004,-0.07,3.29,3.32,3.28,3.28,3.28,3.28,3.28,3.28,3.31,3.31,3.31,3.31,3.28,3.28,3.28,3.29,3.29,3.29,3.29,3.28,3.32,3.32,3.31,3.3,3.32,3.28,79.0,-1.0,1.0,0.0,1.0,1.0,7522036,0.0,0.0
1765226027099,1000.0,0.0,2.0,25.0,300.0,300.0,0.011040128571428571,0.0,0.0,0.0,-0.01342,0.0046359999999999995,0.991372,-0.56,0.42000000000000004,-0.07,3.29,3.32,3.28,3.28,3.28,3.28,3.28,3.28,3.31,3.31,3.31,3.31,3.28,3.28,3.28,3.29,3.29,3.29,3.29,3.28,3.32,3.32,3.31,3.3,3.32,3.28,79.0,-1.0,1.0,0.0,1.0,1.0,7522073,1.0,0.0
1765226027131,1000.0,0.0,2.0,25.0,300.0,300.0,0.011040128571428571,0.0,0.0,0.0,-0.01342,0.0046359999999999995,0.991372,-0.56,0.42000000000000004,-0.07,3.29,3.32,3.28,3.28,3.28,3.28,3.28,3.28,3.31,3.31,3.31,3.31,3.28,3.28,3.28,3.29,3.29,3.29,3.29,3.28,3.32,3.32,3.31,3.3,3.32,3.28,79.0,-1.0,1.0,0.0,1.0,1.0,7522105,1.0,0.0
1765226027181,1000.0,0.0,2.0,25.0,300.0,300.0,0.011040128571428571,0.0,0.0,0.0,-0.015982,0.007442,0.994788,-0.56,0.42000000000000004,-0.07,3.29,3.32,3.28,3.28,3.28,3.28,3.28,3.28,3.31,3.31,3.31,3.31,3.28,3.28,3.28,3.29,3.29,3.29,3.29,3.28,3.32,3.32,3.31,3.3,3.32,3.28,79.0,-1.0,1.0,0.0,1.0,1.0,7522155,1.0,0.0
1765226027215,1000.0,0.0,2.0,25.0,300.0,300.0,0.011040128571428571,0.0,0.0,0.0,-0.015982,0.007442,0.994788,-0.49000000000000005,0.49000000000000005,0.0,3.29,3.32,3.28,3.28,3.28,3.28,3.28,3.28,3.31,3.31,3.31,3.31,3.28,3.28,3.28,3.29,3.29,3.29,3.29,3.28,3.32,3.32,3.31,3.3,3.32,3.28,79.0,-1.0,1.0,0.0,1.0,1.0,7522189,1.0,0.0
1765226027281,1000.0,0.0,2.0,25.0,300.0,300.0,0.011040128571428571,0.0,0.0,0.0,-0.015982,0.007442,0.994788,-0.49000000000000005,0.49000000000000005,0.0,3.29,3.32,3.28,3.28,3.28,3.28,3.28,3.28,3.31,3.31,3.31,3.31,3.28,3.28,3.28,3.29,3.29,3.29,3.29,3.28,3.32,3.32,3.31,3.3,3.32,3.28,79.0,-1.0,1.0,0.0,1.0,1.0,7522255,1.0,0.0
1765226027364,1000.0,0.0,2.0,25.0,300.0,300.0,0.011040128571428571,0.0,0.0,0.0,-0.01647,0.00488,0.992592,-0.56,0.35000000000000003,-0.07,3.29,3.32,3.28,3.28,3.28,3.28,3.28,3.28,3.31,3.31,3.31,3.31,3.28,3.28,3.28,3.29,3.29,3.29,3.29,3.28,3.32,3.32,3.31,3.3,3.32,3.28,79.0,-1.0,1.0,0.0,1.0,1.0,7522338,1.0,0.0
1765226027433,1000.0,0.0,2.0,25.0,300.0,300.0,0.011040128571428571,0.0,0.0,0.0,-0.01647,0.00488,0.992592,-0.56,0.35000000000000003,-0.07,3.29,3.32,3.28,3.28,3.28,3.28,3.28,3.28,3.31,3.31,3.31,3.31,3.28,3.28,3.28,3.29,3.29,3.29,3.29,3.28,3.32,3.32,3.31,3.3,3.32,3.28,79.0,-1.0,1.0,0.0,1.0,1.0,7522407,1.0,0.0
1765226027449,1000.0,0.0,2.0,25.0,600.0,600.0,0.011040128571428571,0.0,0.0,0.0,-0.0057339999999999995,0.004148,0.9928359999999999,-0.56,0.35000000000000003,-0.07,3.29,3.32,3.28,3.28,3.28,3.28,3.28,3.28,3.31,3.31,3.31,3.31,3.28,3.28,3.28,3.29,3.29,3.29,3.29,3.28,3.32,3.32,3.31,3.3,3.32,3.28,79.0,-1.0,1.0,0.0,1.0,1.0,7522423,1.0,0.0
1765226027464,1000.0,0.0,2.0,25.0,600.0,600.0,0.011040128571428571,0.0,3.5880417857142866,3.3561990857142865,-0.0057339999999999995,0.004148,0.9928359999999999,-0.56,0.35000000000000003,-0.07,3.29,3.32,3.28,3.28,3.28,3.28,3.28,3.28,3.31,3.31,3.31,3.31,3.28,3.28,3.28,3.29,3.29,3.29,3.29,3.28,3.32,3.32,3.31,3.3,3.32,3.28,79.0,-1.0,1.0,0.0,1.0,1.0,7522438,1.0,0.0
1765226027496,1000.0,0.0,2.0,25.0,600.0,600.0,1.037772085714286,0.0,3.5880417857142866,3.3561990857142865,-0.0057339999999999995,0.004148,0.9928359999999999,-0.56,0.35000000000000003,-0.07,3.29,3.32,3.28,3.28,3.28,3.28,3.28,3.28,3.31,3.31,3.31,3.31,3.28,3.28,3.28,3.29,3.29,3.29,3.29,3.28,3.32,3.32,3.31,3.3,3.32,3.28,79.0,-1.0,1.0,0.0,1.0,1.0,7522470,94.0,0.0
1765226027529,1000.0,0.0,2.0,25.0,600.0,600.0,1.037772085714286,0.0,3.5880417857142866,3.3561990857142865,-0.0057339999999999995,0.004148,0.9928359999999999,-0.6300000000000001,0.42000000000000004,0.0,3.29,3.32,3.28,3.28,3.28,3.28,3.28,3.28,3.31,3.31,3.31,3.31,3.28,3.28,3.28,3.29,3.29,3.29,3.29,3.28,3.32,3.32,3.31,3.3,3.32,3.28,79.0,-1.0,1.0,0.0,1.0,1.0,7522503,94.0,0.0
1765226027548,1000.0,0.0,2.0,25.0,600.0,600.0,1.037772085714286,1.037772085714286,3.5880417857142866,3.3561990857142865,-0.0057339999999999995,0.004148,0.9928359999999999,-0.6300000000000001,0.42000000000000004,0.0,3.29,3.32,3.28,3.28,3.28,3.28,3.28,3.28,3.31,3.31,3.31,3.31,3.28,3.28,3.28,3.29,3.29,3.29,3.29,3.28,3.32,3.32,3.31,3.3,3.32,3.28,79.0,-1.0,1.0,0.0,1.0,1.0,7522522,94.0,94.0
1765226027648,1000.0,0.0,2.0,25.0,600.0,600.0,1.037772085714286,1.037772085714286,3.5880417857142866,3.3561990857142865,0.035136,0.010735999999999999,0.996008,-0.6300000000000001,0.42000000000000004,0.0,3.29,3.32,3.28,3.28,3.28,3.28,3.28,3.28,3.31,3.31,3.31,3.31,3.28,3.28,3.28,3.29,3.29,3.29,3.29,3.28,3.32,3.32,3.31,3.3,3.32,3.28,79.0,-1.0,1.0,0.0,1.0,1.0,7522622,94.0,94.0
1765226027663,1000.0,0.0,2.0,25.0,600.0,600.0,1.037772085714286,1.037772085714286,3.5880417857142866,3.3561990857142865,0.035136,0.010735999999999999,0.996008,-0.77,0.0,0.0,3.29,3.32,3.28,3.28,3.28,3.28,3.28,3.28,3.31,3.31,3.31,3.31,3.28,3.28,3.28,3.29,3.29,3.29,3.29,3.28,3.32,3.32,3.31,3.3,3.32,3.28,79.0,-1.0,1.0,0.0,1.0,1.0,7522637,94.0,94.0
1765226027715,1000.0,0.0,2.0,25.0,600.0,600.0,1.037772085714286,1.037772085714286,3.5880417857142866,3.3561990857142865,0.035136,0.010735999999999999,0.996008,-0.77,0.0,0.0,3.29,3.32,3.28,3.28,3.28,3.28,3.28,3.28,3.31,3.31,3.31,3.31,3.28,3.28,3.28,3.29,3.29,3.29,3.29,3.28,3.32,3.32,3.31,3.3,3.32,3.28,79.0,-1.0,1.0,0.0,1.0,1.0,7522689,94.0,94.0
1765226027730,1000.0,0.0,2.0,25.0,600.0,600.0,1.037772085714286,1.037772085714286,3.5880417857142866,3.3561990857142865,0.035136,0.010735999999999999,0.996008,-0.77,0.0,0.0,3.29,3.32,3.28,3.28,3.28,3.28,3.28,3.28,3.31,3.31,3.31,3.31,3.28,3.28,3.28,3.29,3.29,3.29,3.29,3.28,3.32,3.32,3.31,3.3,3.32,3.28,79.0,-1.0,1.0,0.0,1.0,1.0,7522704,94.0,94.0
1765226027746,1000.0,0.0,2.0,25.0,600.0,600.0,1.037772085714286,1.037772085714286,3.886125257142858,3.1243563857142864,0.035136,0.010735999999999999,0.996008,-0.77,0.0,0.0,3.29,3.32,3.28,3.28,3.28,3.28,3.28,3.28,3.31,3.31,3.31,3.31,3.28,3.28,3.28,3.29,3.29,3.29,3.29,3.28,3.32,3.32,3.31,3.3,3.32,3.28,79.0,-1.0,1.0,0.0,1.0,1.0,7522720,94.0,94.0
1765226027780,1000.0,0.0,2.0,25.0,600.0,600.0,3.886125257142858,1.037772085714286,3.886125257142858,3.1243563857142864,0.035136,0.010735999999999999,0.996008,-0.77,0.0,0.0,3.29,3.32,3.28,3.28,3.28,3.28,3.28,3.28,3.31,3.31,3.31,3.31,3.28,3.28,3.28,3.29,3.29,3.29,3.29,3.28,3.32,3.32,3.31,3.3,3.32,3.28,79.0,-1.0,1.0,0.0,1.0,1.0,7522754,352.0,94.0
1765226027797,1000.0,0.0,2.0,25.0,600.0,600.0,3.886125257142858,1.037772085714286,3.886125257142858,3.1243563857142864,0.035136,0.010735999999999999,0.996008,-0.77,0.0,0.0,3.29,3.32,3.28,3.28,3.28,3.28,3.28,3.28,3.31,3.31,3.31,3.31,3.28,3.28,3.28,3.29,3.29,3.29,3.29,3.28,3.32,3.32,3.31,3.3,3.32,3.28,79.0,0.0,1.0,0.0,1.0,1.0,7522771,352.0,94.0
1765226027863,1000.0,0.0,2.0,25.0,600.0,600.0,3.886125257142858,3.1243563857142864,3.886125257142858,3.1243563857142864,0.11223999999999999,0.004148,0.9943,-0.77,0.0,0.0,3.29,3.32,3.28,3.28,3.28,3.28,3.28,3.28,3.31,3.31,3.31,3.31,3.28,3.28,3.28,3.29,3.29,3.29,3.29,3.28,3.32,3.32,3.31,3.3,3.32,3.28,79.0,0.0,1.0,0.0,1.0,1.0,7522837,352.0,283.0
1765226027965,1000.0,0.0,2.0,25.0,600.0,600.0,3.886125257142858,2.0645040428571435,3.886125257142858,3.1243563857142864,0.11223999999999999,0.004148,0.9943,-0.77,0.0,0.0,3.29,3.32,3.28,3.28,3.28,3.28,3.28,3.28,3.31,3.31,3.31,3.31,3.28,3.28,3.28,3.29,3.29,3.29,3.29,3.28,3.32,3.32,3.31,3.3,3.32,3.23,78.7,11.0,1.0,0.0,1.0,1.0,7522939,352.0,187.0
1765226028014,1000.0,0.0,2.0,25.0,600.0,600.0,3.886125257142858,2.0645040428571435,3.886125257142858,3.1243563857142864,0.11223999999999999,0.004148,0.9943,-0.77,0.0,0.0,3.29,3.32,3.28,3.28,3.28,3.28,3.28,3.28,3.31,3.31,3.31,3.31,3.28,3.28,3.28,3.29,3.29,3.29,3.29,3.28,3.32,3.32,3.31,3.3,3.32,3.23,78.7,11.0,1.0,0.0,1.0,1.0,7522988,352.0,187.0
1765226028064,1000.0,0.0,2.0,25.0,600.0,600.0,3.886125257142858,2.0645040428571435,3.886125257142858,3.1243563857142864,0.14518,0.002928,1.020164,-0.77,0.0,0.0,3.29,3.32,3.28,3.28,3.28,3.28,3.28,3.28,3.31,3.31,3.31,3.31,3.28,3.28,3.28,3.29,3.29,3.29,3.29,3.28,3.32,3.32,3.31,3.3,3.32,3.23,78.7,11.0,1.0,0.0,1.0,1.0,7523038,352.0,187.0
1765226028079,1000.0,0.0,2.0,25.0,600.0,600.0,3.886125257142858,2.0645040428571435,3.886125257142858,3.1243563857142864,0.14518,0.002928,1.020164,-0.9100000000000001,0.07,0.07,3.29,3.32,3.28,3.28,3.28,3.28,3.28,3.28,3.31,3.31,3.31,3.31,3.28,3.28,3.28,3.29,3.29,3.29,3.29,3.28,3.32,3.32,3.31,3.3,3.32,3.23,78.7,11.0,1.0,0.0,1.0,1.0,7523053,352.0,187.0
1765226028129,1000.0,0.0,2.0,25.0,600.0,600.0,3.886125257142858,2.0645040428571435,3.886125257142858,3.1243563857142864,0.14518,0.002928,1.020164,-0.9100000000000001,0.07,0.07,3.29,3.32,3.28,3.28,3.28,3.28,3.28,3.28,3.31,3.31,3.31,3.31,3.28,3.28,3.28,3.29,3.29,3.29,3.29,3.28,3.32,3.32,3.31,3.3,3.32,3.23,78.7,11.0,1.0,0.0,1.0,1.0,7523103,352.0,187.0
1765226028145,1000.0,0.0,2.0,25.0,600.0,600.0,3.886125257142858,2.0645040428571435,3.886125257142858,3.1243563857142864,0.14518,0.002928,1.020164,-0.9100000000000001,0.07,0.07,3.29,3.32,3.28,3.28,3.28,3.28,3.28,3.28,3.31,3.31,3.31,3.31,3.28,3.28,3.28,3.29,3.29,3.29,3.29,3.28,3.32,3.32,3.31,3.3,3.32,3.23,78.7,11.0,1.0,0.0,1.0,1.0,7523119,352.0,187.0
1765226028162,1000.0,0.0,2.0,25.0,1100.0,1100.0,3.886125257142858,2.0645040428571435,3.886125257142858,3.1243563857142864,0.14518,0.002928,1.020164,-0.9100000000000001,0.07,0.07,3.29,3.32,3.28,3.28,3.28,3.28,3.28,3.28,3.31,3.31,3.31,3.31,3.28,3.28,3.28,3.29,3.29,3.29,3.29,3.28,3.32,3.32,3.31,3.3,3.32,3.23,78.7,11.0,1.0,0.0,1.0,1.0,7523136,352.0,187.0
1765226028181,1000.0,0.0,2.0,25.0,1100.0,1100.0,3.886125257142858,2.0645040428571435,2.252186228571429,1.998263271428572,0.10004,-0.0017079999999999999,0.96868,-0.9100000000000001,0.07,0.07,3.29,3.32,3.28,3.28,3.28,3.28,3.28,3.28,3.31,3.31,3.31,3.31,3.28,3.28,3.28,3.29,3.29,3.29,3.29,3.28,3.32,3.32,3.31,3.3,3.32,3.23,78.7,11.0,1.0,0.0,1.0,1.0,7523155,352.0,187.0
1765226028214,1000.0,0.0,2.0,25.0,1100.0,1100.0,2.252186228571429,2.0645040428571435,2.252186228571429,1.998263271428572,0.10004,-0.0017079999999999999,0.96868,-0.9100000000000001,0.07,0.07,3.29,3.32,3.28,3.28,3.28,3.28,3.28,3.28,3.31,3.31,3.31,3.31,3.28,3.28,3.28,3.29,3.29,3.29,3.29,3.28,3.32,3.32,3.31,3.3,3.32,3.23,78.7,11.0,1.0,0.0,1.0,1.0,7523188,204.0,187.0
1765226028249,1000.0,0.0,2.0,25.0,1100.0,1100.0,2.252186228571429,2.0645040428571435,2.252186228571429,1.998263271428572,0.10004,-0.0017079999999999999,0.96868,-1.4700000000000002,0.9800000000000001,0.21000000000000002,3.29,3.32,3.28,3.28,3.28,3.28,3.28,3.28,3.31,3.31,3.31,3.31,3.28,3.28,3.28,3.29,3.29,3.29,3.29,3.28,3.32,3.32,3.31,3.3,3.32,3.23,78.7,11.0,1.0,0.0,1.0,1.0,7523223,204.0,187.0
1765226028279,1000.0,0.0,2.0,25.0,1100.0,1100.0,2.252186228571429,1.998263271428572,2.252186228571429,1.998263271428572,0.10004,-0.0017079999999999999,0.96868,-1.4700000000000002,0.9800000000000001,0.21000000000000002,3.29,3.32,3.28,3.28,3.28,3.28,3.28,3.28,3.31,3.31,3.31,3.31,3.28,3.28,3.28,3.29,3.29,3.29,3.29,3.28,3.32,3.32,3.31,3.3,3.32,3.23,78.7,11.0,1.0,0.0,1.0,1.0,7523253,204.0,181.0
1765226028364,1000.0,0.0,2.0,25.0,1100.0,1100.0,2.252186228571429,1.998263271428572,2.252186228571429,1.998263271428572,0.167872,0.040748,0.980636,-1.4700000000000002,0.9800000000000001,0.21000000000000002,3.29,3.32,3.28,3.28,3.28,3.28,3.28,3.28,3.31,3.31,3.31,3.31,3.28,3.28,3.28,3.29,3.29,3.29,3.29,3.28,3.32,3.32,3.31,3.3,3.32,3.23,78.7,11.0,1.0,0.0,1.0,1.0,7523338,204.0,181.0
1765226028379,1000.0,0.0,2.0,25.0,1100.0,1100.0,2.252186228571429,1.998263271428572,2.252186228571429,1.998263271428572,0.167872,0.040748,0.980636,-0.77,-0.77,-0.56,3.29,3.32,3.28,3.28,3.28,3.28,3.28,3.28,3.31,3.31,3.31,3.31,3.28,3.28,3.28,3.29,3.29,3.29,3.29,3.28,3.32,3.32,3.31,3.3,3.32,3.23,78.7,11.0,1.0,0.0,1.0,1.0,7523353,204.0,181.0
1765226028432,1000.0,0.0,2.0,25.0,1100.0,1100.0,2.252186228571429,1.998263271428572,2.252186228571429,1.998263271428572,0.167872,0.040748,0.980636,-0.77,-0.77,-0.56,3.29,3.32,3.28,3.28,3.28,3.28,3.28,3.28,3.31,3.31,3.31,3.31,3.28,3.28,3.28,3.29,3.29,3.29,3.29,3.28,3.32,3.32,3.31,3.3,3.32,3.23,78.7,11.0,1.0,0.0,1.0,1.0,7523406,204.0,181.0
1765226028445,1000.0,0.0,2.0,25.0,1300.0,1300.0,2.252186228571429,1.998263271428572,2.252186228571429,1.998263271428572,0.167872,0.040748,0.980636,-0.77,-0.77,-0.56,3.29,3.32,3.28,3.28,3.28,3.28,3.28,3.28,3.31,3.31,3.31,3.31,3.28,3.28,3.28,3.29,3.29,3.29,3.29,3.28,3.32,3.32,3.31,3.3,3.32,3.23,78.7,11.0,1.0,0.0,1.0,1.0,7523419,204.0,181.0
1765226028462,1000.0,0.0,2.0,25.0,1300.0,1300.0,2.252186228571429,1.998263271428572,2.296346742857143,2.0313836571428574,0.167872,0.040748,0.980636,-0.77,-0.77,-0.56,3.29,3.32,3.28,3.28,3.28,3.28,3.28,3.28,3.31,3.31,3.31,3.31,3.28,3.28,3.28,3.29,3.29,3.29,3.29,3.28,3.32,3.32,3.31,3.3,3.32,3.23,78.7,11.0,1.0,0.0,1.0,1.0,7523436,204.0,181.0
1765226028497,1000.0,0.0,2.0,25.0,1300.0,1300.0,2.296346742857143,1.998263271428572,2.296346742857143,2.0313836571428574,0.167872,0.040748,0.980636,-0.77,-0.77,-0.56,3.29,3.32,3.28,3.28,3.28,3.28,3.28,3.28,3.31,3.31,3.31,3.31,3.28,3.28,3.28,3.29,3.29,3.29,3.29,3.28,3.32,3.32,3.31,3.3,3.32,3.23,78.7,11.0,1.0,0.0,1.0,1.0,7523471,208.0,181.0
1765226028515,1000.0,0.0,2.0,25.0,1300.0,1300.0,2.296346742857143,1.998263271428572,2.296346742857143,2.0313836571428574,0.167872,0.040748,0.980636,-0.77,-0.77,-0.56,3.28,3.32,3.22,3.25,3.28,3.28,3.28,3.28,3.31,3.31,3.31,3.31,3.28,3.28,3.28,3.29,3.29,3.29,3.29,3.28,3.32,3.32,3.31,3.3,3.32,3.23,78.7,11.0,1.0,0.0,1.0,1.0,7523489,208.0,181.0
1765226028531,1000.0,0.0,2.0,25.0,1300.0,1300.0,2.296346742857143,1.998263271428572,2.296346742857143,2.0313836571428574,0.167872,0.040748,0.980636,-0.77,-0.77,-0.56,3.28,3.32,3.22,3.25,3.26,3.26,3.19,3.25,3.31,3.31,3.31,3.31,3.28,3.28,3.28,3.29,3.29,3.29,3.29,3.28,3.32,3.32,3.31,3.3,3.32,3.23,78.7,11.0,1.0,0.0,1.0,1.0,7523505,208.0,181.0
1765226028565,1000.0,0.0,2.0,25.0,1700.0,1700.0,2.296346742857143,1.998263271428572,2.296346742857143,2.0313836571428574,0.167872,0.040748,0.980636,-0.77,-0.77,-0.56,3.28,3.32,3.22,3.25,3.26,3.26,3.19,3.25,3.31,3.31,3.31,3.31,3.28,3.28,3.28,3.29,3.29,3.29,3.29,3.28,3.32,3.32,3.31,3.3,3.32,3.23,78.7,11.0,1.0,0.0,1.0,1.0,7523539,208.0,181.0
1765226028579,1000.0,0.0,2.0,25.0,1700.0,1700.0,2.296346742857143,1.998263271428572,3.6211621714285718,3.6101220428571437,0.167872,0.040748,0.980636,-0.77,-0.77,-0.56,3.28,3.32,3.22,3.25,3.26,3.26,3.19,3.25,3.31,3.31,3.31,3.31,3.28,3.28,3.28,3.29,3.29,3.29,3.29,3.28,3.32,3.32,3.31,3.3,3.32,3.23,78.7,11.0,1.0,0.0,1.0,1.0,7523553,208.0,181.0
1765226028597,1000.0,0.0,2.0,25.0,1700.0,1700.0,2.296346742857143,1.998263271428572,3.6211621714285718,3.6101220428571437,0.167872,0.040748,0.980636,-1.9600000000000002,-1.12,1.1900000000000002,3.28,3.32,3.22,3.25,3.26,3.26,3.19,3.25,3.31,3.31,3.31,3.31,3.28,3.28,3.28,3.29,3.29,3.29,3.29,3.28,3.32,3.32,3.31,3.3,3.32,3.23,78.7,11.0,1.0,0.0,1.0,1.0,7523571,208.0,181.0
1765226028614,1000.0,0.0,2.0,25.0,1700.0,1700.0,3.6211621714285718,1.998263271428572,3.6211621714285718,3.6101220428571437,0.167872,0.040748,0.980636,-1.9600000000000002,-1.12,1.1900000000000002,3.28,3.32,3.22,3.25,3.26,3.26,3.19,3.25,3.31,3.31,3.31,3.31,3.28,3.28,3.28,3.29,3.29,3.29,3.29,3.28,3.32,3.32,3.31,3.3,3.32,3.23,78.7,11.0,1.0,0.0,1.0,1.0,7523588,328.0,181.0
1765226028681,1000.0,0.0,2.0,25.0,1700.0,1700.0,3.6211621714285718,3.6101220428571437,3.6211621714285718,3.6101220428571437,0.167872,0.040748,0.980636,-1.9600000000000002,-1.12,1.1900000000000002,3.28,3.32,3.22,3.25,3.26,3.26,3.19,3.25,3.31,3.31,3.31,3.31,3.28,3.28,3.28,3.29,3.29,3.29,3.29,3.28,3.32,3.32,3.31,3.3,3.32,3.23,78.7,11.0,1.0,0.0,1.0,1.0,7523655,328.0,327.0
1765226028713,1000.0,0.0,2.0,25.0,1700.0,1700.0,3.6211621714285718,3.6101220428571437,3.6211621714285718,3.6101220428571437,0.167872,0.040748,0.980636,-1.9600000000000002,-1.12,1.1900000000000002,3.27,3.31,3.1,3.21,3.26,3.26,3.19,3.25,3.31,3.31,3.31,3.31,3.28,3.28,3.28,3.29,3.29,3.29,3.29,3.28,3.32,3.32,3.31,3.3,3.32,3.23,78.7,11.0,1.0,0.0,1.0,1.0,7523687,328.0,327.0
1765226028729,1000.0,0.0,2.0,25.0,1700.0,1700.0,3.6211621714285718,3.6101220428571437,3.6211621714285718,3.6101220428571437,0.167872,0.040748,0.980636,-1.9600000000000002,-1.12,1.1900000000000002,3.27,3.31,3.1,3.21,3.24,3.22,2.97,3.19,3.31,3.31,3.31,3.31,3.28,3.28,3.28,3.29,3.29,3.29,3.29,3.28,3.32,3.32,3.31,3.3,3.32,3.23,78.7,11.0,1.0,0.0,1.0,1.0,7523703,328.0,327.0
1765226028766,1000.0,0.0,2.0,25.0,1700.0,1700.0,3.6211621714285718,3.6101220428571437,3.6211621714285718,3.6101220428571437,0.167872,0.040748,0.980636,-1.9600000000000002,-1.12,1.1900000000000002,3.27,3.31,3.1,3.21,3.24,3.22,2.97,3.19,3.28,3.27,3.24,3.27,3.28,3.28,3.28,3.29,3.29,3.29,3.29,3.28,3.32,3.32,3.31,3.3,3.32,3.23,78.7,11.0,1.0,0.0,1.0,1.0,7523740,328.0,327.0
1765226028781,1000.0,0.0,2.0,25.0,1700.0,1700.0,3.6211621714285718,3.6101220428571437,3.6211621714285718,3.6101220428571437,0.167872,0.040748,0.980636,-1.9600000000000002,-1.12,1.1900000000000002,3.27,3.31,3.1,3.21,3.24,3.22,2.97,3.19,3.28,3.27,3.24,3.27,3.26,3.21,2.89,3.27,3.28,3.14,3.15,3.24,3.32,3.32,3.31,3.3,3.32,3.23,78.7,11.0,1.0,0.0,1.0,1.0,7523755,328.0,327.0
1765226028812,1000.0,0.0,2.0,25.0,1700.0,1700.0,3.6211621714285718,3.6101220428571437,3.6211621714285718,3.6101220428571437,0.167872,0.040748,0.980636,-1.9600000000000002,-1.12,1.1900000000000002,3.27,3.31,3.1,3.21,3.24,3.22,2.97,3.19,3.28,3.27,3.24,3.27,3.26,3.21,2.89,3.27,3.28,3.14,3.15,3.24,3.3,3.28,3.22,3.23,3.32,3.23,78.7,11.0,1.0,0.0,1.0,1.0,7523786,328.0,327.0
1765226028829,1000.0,0.0,2.0,25.0,1700.0,1700.0,3.6211621714285718,3.6101220428571437,3.6211621714285718,3.6101220428571437,0.28548,0.033672,0.9624579999999999,-1.9600000000000002,-1.12,1.1900000000000002,3.27,3.31,3.1,3.21,3.24,3.22,2.97,3.19,3.28,3.27,3.24,3.27,3.26,3.21,2.89,3.27,3.28,3.14,3.15,3.24,3.3,3.28,3.22,3.23,3.32,3.23,78.7,11.0,1.0,0.0,1.0,1.0,7523803,328.0,327.0
1765226028846,1000.0,0.0,2.0,25.0,1700.0,1700.0,3.6211621714285718,3.6101220428571437,3.6211621714285718,3.6101220428571437,0.28548,0.033672,0.9624579999999999,-2.24,0.07,-0.49000000000000005,3.27,3.31,3.1,3.21,3.24,3.22,2.97,3.19,3.28,3.27,3.24,3.27,3.26,3.21,2.89,3.27,3.28,3.14,3.15,3.24,3.3,3.28,3.22,3.23,3.32,3.23,78.7,11.0,1.0,0.0,1.0,1.0,7523820,328.0,327.0
1765226028879,847.0,0.0,2.0,25.0,1700.0,1700.0,3.6211621714285718,3.6101220428571437,3.6211621714285718,3.6101220428571437,0.28548,0.033672,0.9624579999999999,-2.24,0.07,-0.49000000000000005,3.27,3.31,3.1,3.21,3.24,3.22,2.97,3.19,3.28,3.27,3.24,3.27,3.26,3.21,2.89,3.27,3.28,3.14,3.15,3.24,3.3,3.28,3.22,3.23,3.32,3.23,78.7,11.0,1.0,0.0,1.0,1.0,7523853,328.0,327.0
1765226028914,847.0,0.0,2.0,25.0,1900.0,1900.0,3.6211621714285718,3.6101220428571437,3.6211621714285718,3.6101220428571437,0.28548,0.033672,0.9624579999999999,-2.24,0.07,-0.49000000000000005,3.27,3.31,3.1,3.21,3.24,3.22,2.97,3.19,3.28,3.27,3.24,3.27,3.26,3.21,2.89,3.27,3.28,3.14,3.15,3.24,3.3,3.28,3.22,3.23,3.32,3.23,78.7,11.0,1.0,0.0,1.0,1.0,7523888,328.0,327.0
1765226028930,847.0,0.0,2.0,25.0,1900.0,1900.0,3.6211621714285718,3.6101220428571437,4.206288985714286,4.184208728571429,0.28548,0.033672,0.9624579999999999,-2.24,0.07,-0.49000000000000005,3.27,3.31,3.1,3.21,3.24,3.22,2.97,3.19,3.28,3.27,3.24,3.27,3.26,3.21,2.89,3.27,3.28,3.14,3.15,3.24,3.3,3.28,3.22,3.23,3.32,3.23,78.7,11.0,1.0,0.0,1.0,1.0,7523904,328.0,327.0
1765226028947,847.0,0.0,2.0,25.0,1900.0,1900.0,4.206288985714286,3.6101220428571437,4.206288985714286,4.184208728571429,0.28548,0.033672,0.9624579999999999,-2.24,0.07,-0.49000000000000005,3.27,3.31,3.1,3.21,3.24,3.22,2.97,3.19,3.28,3.27,3.24,3.27,3.26,3.21,2.89,3.27,3.28,3.14,3.15,3.24,3.3,3.28,3.22,3.23,3.32,3.23,78.7,11.0,1.0,0.0,1.0,1.0,7523921,381.0,327.0
1765226029014,847.0,0.0,2.0,25.0,1900.0,1900.0,4.206288985714286,4.184208728571429,4.206288985714286,4.184208728571429,0.28548,0.033672,0.9624579999999999,-2.24,0.07,-0.49000000000000005,3.27,3.31,3.1,3.21,3.24,3.22,2.97,3.19,3.28,3.27,3.24,3.27,3.26,3.21,2.89,3.27,3.28,3.14,3.15,3.24,3.3,3.28,3.22,3.23,3.32,3.23,78.7,11.0,1.0,0.0,1.0,1.0,7523988,381.0,379.0
1765226029080,847.0,0.0,2.0,25.0,1900.0,1900.0,4.206288985714286,4.184208728571429,4.206288985714286,4.184208728571429,0.328912,-0.049532,0.919636,-1.9600000000000002,-3.7100000000000004,-2.0300000000000002,3.27,3.31,3.1,3.21,3.24,3.22,2.97,3.19,3.28,3.27,3.24,3.27,3.26,3.21,2.89,3.27,3.28,3.14,3.15,3.24,3.3,3.28,3.22,3.23,3.32,3.23,78.7,11.0,1.0,0.0,1.0,1.0,7524054,381.0,379.0
1765226029146,847.0,0.0,2.0,25.0,1900.0,1900.0,4.206288985714286,4.184208728571429,4.206288985714286,4.184208728571429,0.394914,-0.01952,1.166808,-1.9600000000000002,-3.7100000000000004,-2.0300000000000002,3.27,3.31,3.1,3.21,3.24,3.22,2.97,3.19,3.28,3.27,3.24,3.27,3.26,3.21,2.89,3.27,3.28,3.14,3.15,3.24,3.3,3.28,3.22,3.23,3.32,3.23,78.7,11.0,1.0,0.0,1.0,1.0,7524120,381.0,379.0
1765226029214,847.0,0.0,2.0,25.0,1900.0,1900.0,4.206288985714286,4.184208728571429,4.206288985714286,4.184208728571429,0.356728,-0.031964,1.00284,-1.9600000000000002,-3.7100000000000004,-2.0300000000000002,3.27,3.31,3.1,3.21,3.24,3.22,2.97,3.19,3.28,3.27,3.24,3.27,3.26,3.21,2.89,3.27,3.28,3.14,3.15,3.24,3.3,3.28,3.22,3.23,3.32,3.23,78.7,11.0,1.0,0.0,1.0,1.0,7524188,381.0,379.0
1765226029232,847.0,0.0,2.0,25.0,1900.0,1900.0,4.206288985714286,4.184208728571429,4.206288985714286,4.184208728571429,0.356728,-0.031964,1.00284,-0.6300000000000001,-3.3600000000000003,-0.77,3.27,3.31,3.1,3.21,3.24,3.22,2.97,3.19,3.28,3.27,3.24,3.27,3.26,3.21,2.89,3.27,3.28,3.14,3.15,3.24,3.3,3.28,3.22,3.23,3.32,3.23,78.7,11.0,1.0,0.0,1.0,1.0,7524206,381.0,379.0
1765226029263,847.0,0.0,2.0,25.0,1900.0,1900.0,4.206288985714286,4.184208728571429,4.206288985714286,4.184208728571429,0.356728,-0.031964,1.00284,-0.6300000000000001,-3.3600000000000003,-0.77,3.27,3.31,3.1,3.21,3.24,3.22,2.97,3.19,3.28,3.27,3.24,3.27,3.26,3.21,2.89,3.27,3.28,3.14,3.15,3.24,3.3,3.28,3.22,3.23,3.32,3.23,78.7,11.0,1.0,0.0,1.0,1.0,7524237,381.0,379.0
1765226029280,847.0,0.0,2.0,25.0,1900.0,1900.0,4.206288985714286,4.184208728571429,4.206288985714286,4.184208728571429,0.356728,-0.031964,1.00284,-0.6300000000000001,-3.3600000000000003,-0.77,3.27,3.31,3.1,3.21,3.24,3.22,2.97,3.19,3.28,3.27,3.24,3.27,3.26,3.21,2.89,3.27,3.28,3.14,3.15,3.24,3.3,3.28,3.22,3.23,3.32,3.23,78.7,11.0,1.0,0.0,1.0,1.0,7524254,381.0,379.0
1765226029297,847.0,0.0,2.0,25.0,2300.0,2300.0,4.206288985714286,4.184208728571429,4.206288985714286,4.184208728571429,0.356728,-0.031964,1.00284,-0.6300000000000001,-3.3600000000000003,-0.77,3.27,3.31,3.1,3.21,3.24,3.22,2.97,3.19,3.28,3.27,3.24,3.27,3.26,3.21,2.89,3.27,3.28,3.14,3.15,3.24,3.3,3.28,3.22,3.23,3.32,3.23,78.7,11.0,1.0,0.0,1.0,1.0,7524271,381.0,379.0
1765226029313,847.0,0.0,2.0,25.0,2300.0,2300.0,4.206288985714286,4.184208728571429,8.865223242857146,8.887303500000002,0.356728,-0.031964,1.00284,-0.6300000000000001,-3.3600000000000003,-0.77,3.27,3.31,3.1,3.21,3.24,3.22,2.97,3.19,3.28,3.27,3.24,3.27,3.26,3.21,2.89,3.27,3.28,3.14,3.15,3.24,3.3,3.28,3.22,3.23,3.32,3.23,78.7,11.0,1.0,0.0,1.0,1.0,7524287,381.0,379.0
1765226029330,847.0,0.0,2.0,25.0,2300.0,2300.0,8.865223242857146,4.184208728571429,8.865223242857146,8.887303500000002,0.356728,-0.031964,1.00284,-0.6300000000000001,-3.3600000000000003,-0.77,3.27,3.31,3.1,3.21,3.24,3.22,2.97,3.19,3.28,3.27,3.24,3.27,3.26,3.21,2.89,3.27,3.28,3.14,3.15,3.24,3.3,3.28,3.22,3.23,3.32,3.23,78.7,11.0,1.0,0.0,1.0,1.0,7524304,803.0,379.0
1765226029398,847.0,0.0,2.0,25.0,2300.0,2300.0,8.865223242857146,8.887303500000002,8.865223242857146,8.887303500000002,0.331352,-0.049776,0.965996,-0.6300000000000001,-3.3600000000000003,-0.77,3.27,3.31,3.1,3.21,3.24,3.22,2.97,3.19,3.28,3.27,3.24,3.27,3.26,3.21,2.89,3.27,3.28,3.14,3.15,3.24,3.3,3.28,3.22,3.23,3.32,3.23,78.7,11.0,1.0,0.0,1.0,1.0,7524372,803.0,805.0
1765226029848,847.0,0.0,2.0,25.0,2112.0,2112.0,9.880915071428571,12.083420721428572,10.289399828571431,9.814674300000002,0.3204126666666667,0.07681933333333332,1.0536326666666667,-1.8550000000000002,-2.7300000000000004,-0.8400000000000001,3.27,3.31,3.1,3.21,3.24,3.22,2.97,3.19,3.28,3.27,3.24,3.27,3.26,3.21,2.89,3.27,3.28,3.14,3.15,3.24,3.3,3.28,3.22,3.23,3.29,2.47,74.3,156.0,1.0,0.0,1.0,1.0,7524822,895.0,1094.5
1765226029879,847.0,0.0,2.0,25.0,2112.0,2112.0,9.880915071428571,12.083420721428572,10.289399828571431,9.814674300000002,0.3204126666666667,0.07681933333333332,1.0536326666666667,-1.4000000000000001,0.9800000000000001,0.9100000000000001,3.27,3.31,3.1,3.21,3.24,3.22,2.97,3.19,3.28,3.27,3.24,3.27,3.26,3.21,2.89,3.27,3.28,3.14,3.15,3.24,3.3,3.28,3.22,3.23,3.29,2.47,74.3,156.0,1.0,0.0,1.0,1.0,7524853,895.0,1094.5
1765226029934,847.0,0.0,2.0,25.0,2112.0,2112.0,9.880915071428571,12.083420721428572,10.289399828571431,9.814674300000002,0.39772,0.09333,0.9694119999999999,-1.4000000000000001,0.9800000000000001,0.9100000000000001,3.27,3.31,3.1,3.21,3.24,3.22,2.97,3.19,3.28,3.27,3.24,3.27,3.26,3.21,2.89,3.27,3.28,3.14,3.15,3.24,3.3,3.28,3.22,3.23,3.29,2.47,74.3,156.0,1.0,0.0,1.0,1.0,7524908,895.0,1094.5
1765226029964,847.0,0.0,2.0,25.0,2112.0,2112.0,9.880915071428571,12.083420721428572,10.289399828571431,9.814674300000002,0.39772,0.09333,0.9694119999999999,-1.6800000000000002,-3.9200000000000004,-0.21000000000000002,3.27,3.31,3.1,3.21,3.24,3.22,2.97,3.19,3.28,3.27,3.24,3.27,3.26,3.21,2.89,3.27,3.28,3.14,3.15,3.24,3.3,3.28,3.22,3.23,3.29,2.47,74.3,156.0,1.0,0.0,1.0,1.0,7524938,895.0,1094.5
1765226029980,847.0,0.0,2.0,25.0,2112.0,2112.0,9.880915071428571,12.083420721428572,10.289399828571431,9.814674300000002,0.39772,0.09333,0.9694119999999999,-1.6800000000000002,-3.9200000000000004,-0.21000000000000002,3.27,3.31,3.1,3.21,3.24,3.22,2.97,3.19,3.28,3.27,3.24,3.27,3.26,3.21,2.89,3.27,3.28,3.14,3.15,3.24,3.3,3.28,3.22,3.23,3.29,2.47,74.3,156.0,1.0,0.0,1.0,1.0,7524954,895.0,1094.5
1765226029996,847.0,0.0,2.0,25.0,2117.0,2117.0,9.880915071428571,12.083420721428572,10.289399828571431,9.814674300000002,0.39772,0.09333,0.9694119999999999,-1.6800000000000002,-3.9200000000000004,-0.21000000000000002,3.27,3.31,3.1,3.21,3.24,3.22,2.97,3.19,3.28,3.27,3.24,3.27,3.26,3.21,2.89,3.27,3.28,3.14,3.15,3.24,3.3,3.28,3.22,3.23,3.29,2.47,74.3,156.0,1.0,0.0,1.0,1.0,7524970,895.0,1094.5
1765226030034,847.0,0.0,2.0,25.0,2117.0,2117.0,9.880915071428571,12.083420721428572,15.46722012857143,15.41201948571429,0.39772,0.09333,0.9694119999999999,-1.6800000000000002,-3.9200000000000004,-0.21000000000000002,3.27,3.31,3.1,3.21,3.24,3.22,2.97,3.19,3.28,3.27,3.24,3.27,3.26,3.21,2.89,3.27,3.28,3.14,3.15,3.24,3.3,3.28,3.22,3.23,3.29,2.47,74.3,156.0,1.0,0.0,1.0,1.0,7525008,895.0,1094.5
1765226030049,847.0,0.0,2.0,25.0,2117.0,2117.0,15.46722012857143,12.083420721428572,15.46722012857143,15.41201948571429,0.39772,0.09333,0.9694119999999999,-1.6800000000000002,-3.9200000000000004,-0.21000000000000002,3.27,3.31,3.1,3.21,3.24,3.22,2.97,3.19,3.28,3.27,3.24,3.27,3.26,3.21,2.89,3.27,3.28,3.14,3.15,3.24,3.3,3.28,3.22,3.23,3.29,2.47,74.3,156.0,1.0,0.0,1.0,1.0,7525023,1401.0,1094.5
1765226030097,847.0,0.0,2.0,25.0,2117.0,2117.0,15.46722012857143,15.41201948571429,15.46722012857143,15.41201948571429,0.39772,0.09333,0.9694119999999999,-1.6800000000000002,-3.9200000000000004,-0.21000000000000002,3.27,3.31,3.1,3.21,3.24,3.22,2.97,3.19,3.28,3.27,3.24,3.27,3.26,3.21,2.89,3.27,3.28,3.14,3.15,3.24,3.3,3.28,3.22,3.23,3.29,2.47,74.3,156.0,1.0,0.0,1.0,1.0,7525071,1401.0,1396.0
1765226030165,847.0,0.0,2.0,25.0,2117.0,2117.0,15.46722012857143,15.41201948571429,15.46722012857143,15.41201948571429,0.315126,-0.028182,0.96746,-1.6800000000000002,-3.9200000000000004,-0.21000000000000002,3.27,3.31,3.1,3.21,3.24,3.22,2.97,3.19,3.28,3.27,3.24,3.27,3.26,3.21,2.89,3.27,3.28,3.14,3.15,3.24,3.3,3.28,3.22,3.23,3.29,2.47,74.3,156.0,1.0,0.0,1.0,1.0,7525139,1401.0,1396.0
1765226030180,847.0,0.0,2.0,25.0,2117.0,2117.0,15.46722012857143,15.41201948571429,15.46722012857143,15.41201948571429,0.315126,-0.028182,0.96746,-3.6400000000000006,-1.1900000000000002,-0.07,3.27,3.31,3.1,3.21,3.24,3.22,2.97,3.19,3.28,3.27,3.24,3.27,3.26,3.21,2.89,3.27,3.28,3.14,3.15,3.24,3.3,3.28,3.22,3.23,3.29,2.47,74.3,156.0,1.0,0.0,1.0,1.0,7525154,1401.0,1396.0
1765226030229,847.0,0.0,2.0,25.0,2117.0,2117.0,15.46722012857143,15.41201948571429,15.46722012857143,15.41201948571429,0.315126,-0.028182,0.96746,-3.6400000000000006,-1.1900000000000002,-0.07,3.21,3.27,2.65,2.99,3.13,3.18,2.26,3.1,3.28,3.27,3.24,3.27,3.26,3.21,2.89,3.27,3.28,3.14,3.15,3.24,3.3,3.28,3.22,3.23,3.29,2.47,74.3,156.0,1.0,0.0,1.0,1.0,7525203,1401.0,1396.0
1765226030247,847.0,0.0,2.0,25.0,2117.0,2117.0,15.46722012857143,15.41201948571429,15.46722012857143,15.41201948571429,0.315126,-0.028182,0.96746,-3.6400000000000006,-1.1900000000000002,-0.07,3.21,3.27,2.65,2.99,3.13,3.18,2.26,3.1,3.21,3.16,3.03,3.15,3.21,3.05,2.49,3.24,3.28,3.14,3.15,3.24,3.3,3.28,3.22,3.23,3.29,2.47,74.3,156.0,1.0,0.0,1.0,1.0,7525221,1401.0,1396.0
1765226030278,845.0,0.0,2.0,25.0,2117.0,2117.0,15.46722012857143,15.41201948571429,15.46722012857143,15.41201948571429,0.315126,-0.028182,0.96746,-3.6400000000000006,-1.1900000000000002,-0.07,3.21,3.27,2.65,2.99,3.13,3.18,2.26,3.1,3.21,3.16,3.03,3.15,3.21,3.05,2.49,3.24,3.23,2.91,2.89,3.16,3.3,3.28,3.22,3.23,3.29,2.47,74.3,156.0,1.0,0.0,1.0,1.0,7525252,1401.0,1396.0
1765226030312,845.0,0.0,2.0,25.0,2117.0,2117.0,15.46722012857143,15.41201948571429,15.46722012857143,15.41201948571429,0.315126,-0.028182,0.96746,-3.6400000000000006,-1.1900000000000002,-0.07,3.21,3.27,2.65,2.99,3.13,3.18,2.26,3.1,3.21,3.16,3.03,3.15,3.21,3.05,2.49,3.24,3.23,2.91,2.89,3.16,3.26,3.18,2.93,3.03,3.29,2.47,74.3,156.0,1.0,0.0,1.0,1.0,7525286,1401.0,1396.0
1765226030329,845.0,0.0,2.0,25.0,2117.0,2117.0,15.46722012857143,15.41201948571429,15.46722012857143,15.41201948571429,0.315126,-0.028182,0.96746,-3.6400000000000006,-1.1900000000000002,-0.07,3.21,3.27,2.65,2.99,3.13,3.18,2.26,3.1,3.21,3.16,3.03,3.15,3.21,3.05,2.49,3.24,3.23,2.91,2.89,3.16,3.26,3.18,2.93,3.03,3.29,2.47,74.3,156.0,1.0,0.0,1.0,1.0,7525303,1401.0,1396.0
1765226030346,845.0,0.0,2.0,25.0,2117.0,2117.0,15.46722012857143,15.41201948571429,17.288841342857147,16.869316457142858,0.315126,-0.028182,0.96746,-3.6400000000000006,-1.1900000000000002,-0.07,3.21,3.27,2.65,2.99,3.13,3.18,2.26,3.1,3.21,3.16,3.03,3.15,3.21,3.05,2.49,3.24,3.23,2.91,2.89,3.16,3.26,3.18,2.93,3.03,3.29,2.47,74.3,156.0,1.0,0.0,1.0,1.0,7525320,1401.0,1396.0
1765226030362,845.0,0.0,2.0,25.0,2117.0,2117.0,16.626433628571426,15.41201948571429,17.288841342857147,16.869316457142858,0.315126,-0.028182,0.96746,-3.6400000000000006,-1.1900000000000002,-0.07,3.21,3.27,2.65,2.99,3.13,3.18,2.26,3.1,3.21,3.16,3.03,3.15,3.21,3.05,2.49,3.24,3.23,2.91,2.89,3.16,3.26,3.18,2.93,3.03,3.29,2.47,74.3,156.0,1.0,0.0,1.0,1.0,7525336,1506.0,1396.0
1765226030396,845.0,0.0,2.0,25.0,2117.0,2117.0,16.626433628571426,15.41201948571429,17.288841342857147,16.869316457142858,0.386618,-0.039528,1.00894,-3.6400000000000006,-1.1900000000000002,-0.07,3.21,3.27,2.65,2.99,3.13,3.18,2.26,3.1,3.21,3.16,3.03,3.15,3.21,3.05,2.49,3.24,3.23,2.91,2.89,3.16,3.26,3.18,2.93,3.03,3.29,2.47,74.3,156.0,1.0,0.0,1.0,1.0,7525370,1506.0,1396.0
1765226030429,845.0,0.0,2.0,25.0,2117.0,2117.0,16.626433628571426,16.47187182857143,17.288841342857147,16.869316457142858,0.386618,-0.039528,1.00894,-3.6400000000000006,-1.1900000000000002,-0.07,3.21,3.27,2.65,2.99,3.13,3.18,2.26,3.1,3.21,3.16,3.03,3.15,3.21,3.05,2.49,3.24,3.23,2.91,2.89,3.16,3.26,3.18,2.93,3.03,3.29,2.47,74.3,156.0,1.0,0.0,1.0,1.0,7525403,1506.0,1492.0
1765226030444,845.0,0.0,2.0,25.0,2117.0,2117.0,16.626433628571426,16.47187182857143,21.925695342857146,20.51255888571429,0.386618,-0.039528,1.00894,-3.6400000000000006,-1.1900000000000002,-0.07,3.21,3.27,2.65,2.99,3.13,3.18,2.26,3.1,3.21,3.16,3.03,3.15,3.22,3.13,2.8,3.26,3.23,2.91,2.89,3.16,3.26,3.18,2.93,3.03,3.29,2.47,74.3,156.0,1.0,0.0,1.0,1.0,7525418,1506.0,1492.0
1765226030464,845.0,0.0,2.0,25.0,2117.0,2117.0,16.626433628571426,16.47187182857143,21.925695342857146,20.51255888571429,0.386618,-0.039528,1.00894,-3.6400000000000006,-1.1900000000000002,-0.07,3.21,3.27,2.65,2.99,3.13,3.18,2.26,3.1,3.21,3.16,3.03,3.15,3.22,3.13,2.8,3.26,3.25,3.01,3.0,3.2,3.26,3.18,2.93,3.03,3.29,2.47,74.3,156.0,1.0,0.0,1.0,1.0,7525438,1506.0,1492.0
1765226030481,845.0,0.0,2.0,25.0,2117.0,2117.0,16.626433628571426,16.47187182857143,21.925695342857146,20.51255888571429,0.386618,-0.039528,1.00894,-3.6400000000000006,-1.1900000000000002,-0.07,3.21,3.27,2.65,2.99,3.13,3.18,2.26,3.1,3.21,3.16,3.03,3.15,3.22,3.13,2.8,3.26,3.25,3.01,3.0,3.2,3.27,3.22,3.04,3.11,3.29,2.47,74.3,156.0,1.0,0.0,1.0,1.0,7525455,1506.0,1492.0
1765226030496,845.0,0.0,2.0,25.0,2117.0,2117.0,21.395769171428572,16.47187182857143,21.925695342857146,20.51255888571429,0.386618,-0.039528,1.00894,-3.6400000000000006,-1.1900000000000002,-0.07,3.21,3.27,2.65,2.99,3.13,3.18,2.26,3.1,3.21,3.16,3.03,3.15,3.22,3.13,2.8,3.26,3.25,3.01,3.0,3.2,3.27,3.22,3.04,3.11,3.29,2.47,74.3,156.0,1.0,0.0,1.0,1.0,7525470,1938.0,1492.0
1765226030546,845.0,0.0,2.0,25.0,2117.0,2117.0,21.395769171428572,20.51255888571429,21.925695342857146,20.51255888571429,0.386618,-0.039528,1.00894,-3.6400000000000006,-1.1900000000000002,-0.07,3.21,3.27,2.65,2.99,3.13,3.18,2.26,3.1,3.21,3.16,3.03,3.15,3.22,3.13,2.8,3.26,3.25,3.01,3.0,3.2,3.27,3.22,3.04,3.11,3.29,2.47,74.3,156.0,1.0,0.0,1.0,1.0,7525520,1938.0,1858.0
1765226030613,845.0,0.0,2.0,25.0,2117.0,2117.0,21.395769171428572,20.51255888571429,21.925695342857146,20.51255888571429,0.3599,-0.09516,0.98637,-3.6400000000000006,-1.1900000000000002,-0.07,3.21,3.27,2.65,2.99,3.13,3.18,2.26,3.1,3.21,3.16,3.03,3.15,3.22,3.13,2.8,3.26,3.25,3.01,3.0,3.2,3.27,3.22,3.04,3.11,3.29,2.47,74.3,156.0,1.0,0.0,1.0,1.0,7525587,1938.0,1858.0
1765226030630,845.0,0.0,2.0,25.0,2117.0,2117.0,21.395769171428572,20.51255888571429,21.925695342857146,20.51255888571429,0.3599,-0.09516,0.98637,2.3800000000000003,3.43,-1.2600000000000002,3.21,3.27,2.65,2.99,3.13,3.18,2.26,3.1,3.21,3.16,3.03,3.15,3.22,3.13,2.8,3.26,3.25,3.01,3.0,3.2,3.27,3.22,3.04,3.11,3.29,2.47,74.3,156.0,1.0,0.0,1.0,1.0,7525604,1938.0,1858.0
1765226030696,1000.0,0.0,2.0,25.0,2117.0,2117.0,21.395769171428572,20.51255888571429,21.925695342857146,20.51255888571429,0.3599,-0.09516,0.98637,2.3800000000000003,3.43,-1.2600000000000002,3.21,3.27,2.65,2.99,3.13,3.18,2.26,3.1,3.21,3.16,3.03,3.15,3.22,3.13,2.8,3.26,3.25,3.01,3.0,3.2,3.27,3.22,3.04,3.11,3.29,2.47,74.3,156.0,1.0,0.0,1.0,1.0,7525670,1938.0,1858.0
1765226030712,1000.0,0.0,2.0,25.0,2117.0,2117.0,21.395769171428572,20.51255888571429,21.925695342857146,20.51255888571429,0.178364,0.110288,1.042856,2.3800000000000003,3.43,-1.2600000000000002,3.21,3.27,2.65,2.99,3.13,3.18,2.26,3.1,3.21,3.16,3.03,3.15,3.22,3.13,2.8,3.26,3.25,3.01,3.0,3.2,3.27,3.22,3.04,3.11,3.29,2.47,74.3,156.0,1.0,0.0,1.0,1.0,7525686,1938.0,1858.0
1765226030730,1000.0,0.0,2.0,25.0,2500.0,2500.0,21.395769171428572,20.51255888571429,22.853066142857145,21.296408014285717,0.178364,0.110288,1.042856,2.3800000000000003,3.43,-1.2600000000000002,3.21,3.27,2.65,2.99,3.13,3.18,2.26,3.1,3.21,3.16,3.03,3.15,3.22,3.13,2.8,3.26,3.25,3.01,3.0,3.2,3.27,3.22,3.04,3.11,3.29,2.47,74.3,156.0,1.0,0.0,1.0,1.0,7525704,1938.0,1858.0
1765226030764,1000.0,0.0,2.0,25.0,2500.0,2500.0,22.510822157142858,20.51255888571429,22.853066142857145,21.296408014285717,0.178364,0.110288,1.042856,2.3800000000000003,3.43,-1.2600000000000002,3.21,3.27,2.65,2.99,3.13,3.18,2.26,3.1,3.21,3.16,3.03,3.15,3.22,3.13,2.8,3.26,3.25,3.01,3.0,3.2,3.27,3.22,3.04,3.11,3.29,2.47,74.3,156.0,1.0,0.0,1.0,1.0,7525738,2039.0,1858.0
1765226030780,1000.0,0.0,2.0,25.0,2500.0,2500.0,22.510822157142858,20.51255888571429,22.853066142857145,21.296408014285717,0.178364,0.110288,1.042856,-0.35000000000000003,0.77,4.48,3.21,3.27,2.65,2.99,3.13,3.18,2.26,3.1,3.21,3.16,3.03,3.15,3.22,3.13,2.8,3.26,3.25,3.01,3.0,3.2,3.27,3.22,3.04,3.11,3.29,2.47,74.3,156.0,1.0,0.0,1.0,1.0,7525754,2039.0,1858.0
1765226030829,1000.0,0.0,2.0,25.0,2500.0,2500.0,22.510822157142858,21.296408014285717,22.853066142857145,21.296408014285717,0.178364,0.110288,1.042856,-0.35000000000000003,0.77,4.48,3.21,3.27,2.65,2.99,3.13,3.18,2.26,3.1,3.21,3.16,3.03,3.15,3.22,3.13,2.8,3.26,3.25,3.01,3.0,3.2,3.27,3.22,3.04,3.11,3.29,2.47,74.3,156.0,1.0,0.0,1.0,1.0,7525803,2039.0,1929.0
1765226030929,1000.0,0.0,2.0,25.0,2500.0,2500.0,22.510822157142858,21.296408014285717,22.853066142857145,21.296408014285717,0.303536,0.122122,0.976244,-0.56,-3.5000000000000004,1.6800000000000002,3.21,3.27,2.65,2.99,3.13,3.18,2.26,3.1,3.21,3.16,3.03,3.15,3.22,3.13,2.8,3.26,3.25,3.01,3.0,3.2,3.27,3.22,3.04,3.11,3.29,2.47,74.3,156.0,1.0,0.0,1.0,1.0,7525903,2039.0,1929.0
1765226030978,1000.0,0.0,2.0,25.0,2500.0,2500.0,22.510822157142858,21.296408014285717,22.853066142857145,21.296408014285717,0.303536,0.122122,0.976244,-0.56,-3.5000000000000004,1.6800000000000002,3.21,3.27,2.65,2.99,3.13,3.18,2.26,3.1,3.21,3.16,3.03,3.15,3.22,3.13,2.8,3.26,3.25,3.01,3.0,3.2,3.27,3.22,3.04,3.11,3.29,2.47,74.3,156.0,1.0,0.0,1.0,1.0,7525952,2039.0,1929.0
1765226031010,1000.0,0.0,2.0,25.0,2500.0,2500.0,22.510822157142858,21.296408014285717,22.853066142857145,21.296408014285717,0.303536,0.122122,0.976244,-0.56,-3.5000000000000004,1.6800000000000002,3.21,3.27,2.65,2.99,3.13,3.18,2.26,3.1,3.21,3.16,3.03,3.15,3.22,3.13,2.8,3.26,3.25,3.01,3.0,3.2,3.27,3.22,3.04,3.11,3.29,2.47,74.3,156.0,1.0,0.0,1.0,1.0,7525984,2039.0,1929.0
1765226031028,1000.0,0.0,2.0,25.0,2500.0,2500.0,22.510822157142858,21.296408014285717,23.934998742857143,22.124417657142857,0.303536,0.122122,0.976244,-0.56,-3.5000000000000004,1.6800000000000002,3.21,3.27,2.65,2.99,3.13,3.18,2.26,3.1,3.21,3.16,3.03,3.15,3.22,3.13,2.8,3.26,3.25,3.01,3.0,3.2,3.27,3.22,3.04,3.11,3.29,2.47,74.3,156.0,1.0,0.0,1.0,1.0,7526002,2039.0,1929.0
1765226031043,1000.0,0.0,2.0,25.0,2500.0,2500.0,23.43819295714286,21.296408014285717,23.934998742857143,22.124417657142857,0.303536,0.122122,0.976244,-0.56,-3.5000000000000004,1.6800000000000002,3.21,3.27,2.65,2.99,3.13,3.18,2.26,3.1,3.21,3.16,3.03,3.15,3.22,3.13,2.8,3.26,3.25,3.01,3.0,3.2,3.27,3.22,3.04,3.11,3.29,2.52,74.7,179.0,1.0,0.0,1.0,1.0,7526017,2123.0,1929.0
