timestamp,THROTTLE,BRAKE,ECU_MODE_ID,TORQUE_GAIN,TORQUE_REF_LEFT_MOTOR,TORQUE_REF_RIGHT_MOTOR,LEFT_MOTOR_SPEED,RIGHT_MOTOR_SPEED,REAR_LEFT_WHEEL_SPEED,REAR_RIGHT_WHEEL_SPEED,ACCEL_LONGITUDINAL,ACCEL_LATERAL,ACCEL_NORMAL,VEL_ANGULAR_YAW,VEL_ANGULAR_PITCH,VEL_ANGULAR_ROLL,STACK_1_CELL_1,STACK_1_CELL_2,STACK_1_CELL_3,STACK_1_CELL_4,STACK_2_CELL_1,STACK_2_CELL_2,STACK_2_CELL_3,STACK_2_CELL_4,STACK_3_CELL_1,STACK_3_CELL_2,STACK_3_CELL_3,STACK_3_CELL_4,STACK_4_CELL_1,STACK_4_CELL_2,STACK_4_CELL_3,STACK_4_CELL_4,STACK_5_CELL_1,STACK_5_CELL_2,STACK_5_CELL_3,STACK_5_CELL_4,STACK_6_CELL_1,STACK_6_CELL_2,STACK_6_CELL_3,STACK_6_CELL_4,MAX_VOLTAGE,MIN_VOLTAGE,TOTAL_VOLTAGE,SHUNT_CURRENT,BMS_MODE_ID,BMS_ERROR_ID,AIR_P,AIR_N,t
1765224640014,0.0,0.0,0.0,0.0,0.0,0.0,37.56955752857143,36.55386570000001,37.56955752857143,36.55386570000001,-0.026108,0.004392,0.99308,-0.77,-0.6300000000000001,-0.9100000000000001,3.29,3.31,3.28,3.28,3.27,3.27,3.27,3.27,3.3,3.3,3.3,3.29,3.27,3.27,3.27,3.29,3.29,3.29,3.28,3.28,3.3,3.31,3.3,3.29,3.31,3.26,78.8,-45.0,1.0,2.0,0.0,0.0,6134988
1765224640032,0.0,0.0,0.0,0.0,0.0,0.0,37.56955752857143,0.0,37.56955752857143,36.55386570000001,-0.026108,0.004392,0.99308,-0.77,-0.6300000000000001,-0.9100000000000001,3.29,3.31,3.28,3.28,3.27,3.27,3.27,3.27,3.3,3.3,3.3,3.29,3.27,3.27,3.27,3.29,3.29,3.29,3.28,3.28,3.3,3.31,3.3,3.29,3.31,3.26,78.8,-45.0,1.0,2.0,0.0,0.0,6135006
1765224640065,0.0,0.0,0.0,0.0,0.0,0.0,37.56955752857143,0.0,37.56955752857143,36.55386570000001,-0.026108,0.004392,0.99308,-0.7000000000000001,0.42000000000000004,0.0,3.29,3.31,3.28,3.28,3.27,3.27,3.27,3.27,3.3,3.3,3.3,3.29,3.27,3.27,3.27,3.29,3.29,3.29,3.28,3.28,3.3,3.31,3.3,3.29,3.31,3.26,78.8,-45.0,1.0,2.0,0.0,0.0,6135039
1765224640145,0.0,0.0,0.0,0.0,0.0,0.0,37.56955752857143,0.0,37.56955752857143,36.55386570000001,-0.026108,0.004392,0.99308,-0.7000000000000001,0.42000000000000004,0.0,3.29,3.31,3.28,3.28,3.27,3.27,3.27,3.27,3.3,3.3,3.3,3.29,3.27,3.27,3.27,3.29,3.29,3.29,3.28,3.28,3.3,3.31,3.3,3.29,3.32,3.28,79.3,0.0,1.0,2.0,0.0,0.0,6135119
1765224640181,0.0,0.0,0.0,0.0,0.0,0.0,37.56955752857143,0.0,37.56955752857143,36.55386570000001,-0.026108,0.004392,0.99308,-0.7000000000000001,0.42000000000000004,0.0,3.29,3.31,3.28,3.28,3.27,3.27,3.27,3.27,3.3,3.3,3.3,3.29,3.27,3.27,3.27,3.29,3.29,3.29,3.28,3.28,3.3,3.31,3.3,3.29,3.32,3.28,79.3,0.0,1.0,0.0,1.0,1.0,6135155
1765224640198,0.0,0.0,0.0,0.0,0.0,0.0,37.56955752857143,0.0,37.56955752857143,36.55386570000001,-0.024888,0.005978,0.992958,-0.7000000000000001,0.28,0.0,3.29,3.31,3.28,3.28,3.27,3.27,3.27,3.27,3.3,3.3,3.3,3.29,3.27,3.27,3.27,3.29,3.29,3.29,3.28,3.28,3.3,3.31,3.3,3.29,3.32,3.28,79.3,0.0,1.0,0.0,1.0,1.0,6135172
1765224640230,0.0,0.0,0.0,0.0,0.0,0.0,37.56955752857143,0.0,37.56955752857143,36.55386570000001,-0.024888,0.005978,0.992958,-0.7000000000000001,0.28,0.0,3.29,3.31,3.28,3.28,3.27,3.27,3.27,3.27,3.3,3.3,3.3,3.29,3.27,3.27,3.27,3.29,3.29,3.29,3.28,3.28,3.3,3.31,3.3,3.29,3.32,3.28,79.3,0.0,1.0,0.0,1.0,1.0,6135204
1765224640247,0.0,0.0,2.0,25.0,0.0,0.0,37.56955752857143,0.0,37.56955752857143,36.55386570000001,-0.024888,0.005978,0.992958,-0.7000000000000001,0.28,0.0,3.29,3.31,3.28,3.28,3.27,3.27,3.27,3.27,3.3,3.3,3.3,3.29,3.27,3.27,3.27,3.29,3.29,3.29,3.28,3.28,3.3,3.31,3.3,3.29,3.32,3.28,79.3,0.0,1.0,0.0,1.0,1.0,6135221
1765224640264,0.0,0.0,2.0,25.0,0.0,0.0,37.56955752857143,0.0,37.56955752857143,36.55386570000001,-0.024888,0.005978,0.992958,-0.7000000000000001,0.28,0.0,3.29,3.31,3.28,3.28,3.27,3.27,3.27,3.27,3.3,3.3,3.3,3.29,3.27,3.27,3.27,3.29,3.29,3.29,3.28,3.28,3.3,3.31,3.3,3.29,3.32,3.28,79.3,0.0,1.0,0.0,1.0,1.0,6135238
1765224640280,0.0,0.0,2.0,25.0,0.0,0.0,37.56955752857143,0.0,0.0,0.0,-0.024888,0.005978,0.992958,-0.7000000000000001,0.28,0.0,3.29,3.31,3.28,3.28,3.27,3.27,3.27,3.27,3.3,3.3,3.3,3.29,3.27,3.27,3.27,3.29,3.29,3.29,3.28,3.28,3.3,3.31,3.3,3.29,3.32,3.28,79.3,0.0,1.0,0.0,1.0,1.0,6135254
1765224640317,0.0,0.0,2.0,25.0,0.0,0.0,0.0,0.0,0.0,0.0,-0.024888,0.005978,0.992958,-0.7000000000000001,0.28,0.0,3.29,3.31,3.28,3.28,3.27,3.27,3.27,3.27,3.3,3.3,3.3,3.29,3.27,3.27,3.27,3.29,3.29,3.29,3.28,3.28,3.3,3.31,3.3,3.29,3.32,3.28,79.3,0.0,1.0,0.0,1.0,1.0,6135291
1765224640364,0.0,0.0,2.0,25.0,0.0,0.0,0.0,0.0,0.0,0.0,-0.024888,0.005978,0.992958,-0.7000000000000001,0.28,0.0,3.29,3.31,3.28,3.28,3.27,3.27,3.27,3.27,3.3,3.3,3.3,3.29,3.27,3.27,3.27,3.29,3.29,3.29,3.28,3.28,3.3,3.31,3.3,3.29,3.32,3.28,79.3,0.0,1.0,0.0,1.0,1.0,6135338
1765224640381,0.0,0.0,2.0,25.0,0.0,0.0,0.0,0.0,0.0,0.0,-0.025498,0.005612,0.992348,-0.7000000000000001,0.28,0.0,3.29,3.31,3.28,3.28,3.27,3.27,3.27,3.27,3.3,3.3,3.3,3.29,3.27,3.27,3.27,3.29,3.29,3.29,3.28,3.28,3.3,3.31,3.3,3.29,3.32,3.28,79.3,0.0,1.0,0.0,1.0,1.0,6135355
1765224640414,0.0,0.0,2.0,25.0,0.0,0.0,0.0,0.0,0.0,0.0,-0.025498,0.005612,0.992348,-0.6300000000000001,0.28,0.0,3.29,3.31,3.28,3.28,3.27,3.27,3.27,3.27,3.3,3.3,3.3,3.29,3.27,3.27,3.27,3.29,3.29,3.29,3.28,3.28,3.3,3.31,3.3,3.29,3.32,3.28,79.3,0.0,1.0,0.0,1.0,1.0,6135388
1765224640430,0.0,0.0,2.0,25.0,0.0,0.0,0.0,0.0,0.0,0.0,-0.026718,0.004514,0.993812,-0.6300000000000001,0.28,0.0,3.29,3.31,3.28,3.28,3.27,3.27,3.27,3.27,3.3,3.3,3.3,3.29,3.27,3.27,3.27,3.29,3.29,3.29,3.28,3.28,3.3,3.31,3.3,3.29,3.32,3.28,79.3,0.0,1.0,0.0,1.0,1.0,6135404
1765224640464,0.0,0.0,2.0,25.0,0.0,0.0,0.0,0.0,0.0,0.0,-0.026718,0.004514,0.993812,-0.6300000000000001,0.28,0.0,3.29,3.31,3.28,3.28,3.27,3.27,3.27,3.27,3.3,3.3,3.3,3.29,3.27,3.27,3.27,3.29,3.29,3.29,3.28,3.28,3.3,3.31,3.3,3.29,3.32,3.28,79.3,0.0,1.0,0.0,1.0,1.0,6135438
1765224640481,0.0,0.0,2.0,25.0,0.0,0.0,0.0,0.0,0.0,0.0,-0.026718,0.004514,0.993812,-0.6300000000000001,0.42000000000000004,-0.07,3.29,3.31,3.28,3.28,3.27,3.27,3.27,3.27,3.3,3.3,3.3,3.29,3.27,3.27,3.27,3.29,3.29,3.29,3.28,3.28,3.3,3.31,3.3,3.29,3.32,3.28,79.3,0.0,1.0,0.0,1.0,1.0,6135455
1765224640514,0.0,0.0,2.0,25.0,0.0,0.0,0.0,0.0,0.0,0.0,-0.026718,0.004514,0.993812,-0.6300000000000001,0.42000000000000004,-0.07,3.29,3.31,3.28,3.28,3.27,3.27,3.27,3.27,3.3,3.3,3.3,3.29,3.27,3.27,3.27,3.29,3.29,3.29,3.28,3.28,3.3,3.31,3.3,3.29,3.32,3.28,79.3,0.0,1.0,0.0,1.0,1.0,6135488
1765224640616,0.0,0.0,2.0,25.0,0.0,0.0,0.0,0.0,0.0,0.0,-0.024644,0.00549,0.992958,-0.6300000000000001,0.42000000000000004,-0.07,3.29,3.31,3.28,3.28,3.27,3.27,3.27,3.27,3.3,3.3,3.3,3.29,3.27,3.27,3.27,3.29,3.29,3.29,3.28,3.28,3.3,3.31,3.3,3.29,3.32,3.28,79.3,0.0,1.0,0.0,1.0,1.0,6135590
1765224640633,0.0,0.0,2.0,25.0,0.0,0.0,0.0,0.0,0.0,0.0,-0.024644,0.00549,0.992958,-0.7000000000000001,0.35000000000000003,0.0,3.29,3.31,3.28,3.28,3.27,3.27,3.27,3.27,3.3,3.3,3.3,3.29,3.27,3.27,3.27,3.29,3.29,3.29,3.28,3.28,3.3,3.31,3.3,3.29,3.32,3.28,79.3,0.0,1.0,0.0,1.0,1.0,6135607
1765224640686,0.0,0.0,2.0,25.0,0.0,0.0,0.0,0.0,0.0,0.0,-0.024644,0.00549,0.992958,-0.7000000000000001,0.35000000000000003,0.0,3.29,3.31,3.28,3.28,3.27,3.27,3.27,3.27,3.3,3.3,3.3,3.29,3.27,3.27,3.27,3.29,3.29,3.29,3.28,3.28,3.3,3.31,3.3,3.29,3.32,3.28,79.3,0.0,1.0,0.0,1.0,1.0,6135660
1765224640698,0.0,0.0,2.0,25.0,0.0,0.0,0.0,0.0,0.0,0.0,-0.024644,0.00549,0.992958,-0.7000000000000001,0.35000000000000003,0.0,3.29,3.31,3.28,3.28,3.27,3.27,3.27,3.27,3.3,3.3,3.3,3.29,3.27,3.27,3.27,3.29,3.29,3.29,3.28,3.28,3.3,3.31,3.3,3.29,3.32,3.28,79.3,0.0,1.0,0.0,1.0,1.0,6135672
1765224640714,0.0,0.0,2.0,25.0,0.0,0.0,0.0,0.0,0.0,0.0,-0.024644,0.00549,0.992958,-0.7000000000000001,0.35000000000000003,0.0,3.29,3.31,3.28,3.28,3.27,3.27,3.27,3.27,3.3,3.3,3.3,3.29,3.27,3.27,3.27,3.29,3.29,3.29,3.28,3.28,3.3,3.31,3.3,3.29,3.32,3.28,79.3,0.0,1.0,0.0,1.0,1.0,6135688
1765224640730,0.0,0.0,2.0,25.0,0.0,0.0,0.0,0.0,0.0,0.0,-0.02623,0.00488,0.99186,-0.7000000000000001,0.35000000000000003,0.0,3.29,3.31,3.28,3.28,3.27,3.27,3.27,3.27,3.3,3.3,3.3,3.29,3.27,3.27,3.27,3.29,3.29,3.29,3.28,3.28,3.3,3.31,3.3,3.29,3.32,3.28,79.3,0.0,1.0,0.0,1.0,1.0,6135704
1765224640747,0.0,0.0,2.0,25.0,0.0,0.0,0.0,0.0,0.0,0.0,-0.02623,0.00488,0.99186,-0.7000000000000001,0.35000000000000003,0.0,3.29,3.31,3.28,3.28,3.27,3.27,3.27,3.27,3.3,3.3,3.3,3.29,3.27,3.27,3.27,3.29,3.29,3.29,3.28,3.28,3.3,3.31,3.3,3.29,3.32,3.28,79.3,0.0,1.0,0.0,1.0,1.0,6135721
1765224640764,0.0,0.0,2.0,25.0,0.0,0.0,0.0,0.0,0.0,0.0,-0.02623,0.00488,0.99186,-0.6300000000000001,0.35000000000000003,0.07,3.29,3.31,3.28,3.28,3.27,3.27,3.27,3.27,3.3,3.3,3.3,3.29,3.27,3.27,3.27,3.29,3.29,3.29,3.28,3.28,3.3,3.31,3.3,3.29,3.32,3.28,79.3,0.0,1.0,0.0,1.0,1.0,6135738
1765224640814,0.0,0.0,2.0,25.0,0.0,0.0,0.0,0.0,0.0,0.0,-0.02623,0.00488,0.99186,-0.6300000000000001,0.35000000000000003,0.07,3.29,3.31,3.28,3.28,3.27,3.27,3.27,3.27,3.3,3.3,3.3,3.29,3.27,3.27,3.27,3.29,3.29,3.29,3.28,3.28,3.3,3.31,3.3,3.29,3.32,3.28,79.3,0.0,1.0,0.0,1.0,1.0,6135788
1765224640896,0.0,0.0,2.0,25.0,0.0,0.0,0.0,0.0,0.0,0.0,-0.026352,0.005246,0.992348,-0.6300000000000001,0.35000000000000003,0.07,3.29,3.31,3.28,3.28,3.27,3.27,3.27,3.27,3.3,3.3,3.3,3.29,3.27,3.27,3.27,3.29,3.29,3.29,3.28,3.28,3.3,3.31,3.3,3.29,3.32,3.28,79.3,0.0,1.0,0.0,1.0,1.0,6135870
1765224640913,0.0,0.0,2.0,25.0,0.0,0.0,0.0,0.0,0.0,0.0,-0.026352,0.005246,0.992348,-0.6300000000000001,0.49000000000000005,0.0,3.29,3.31,3.28,3.28,3.27,3.27,3.27,3.27,3.3,3.3,3.3,3.29,3.27,3.27,3.27,3.29,3.29,3.29,3.28,3.28,3.3,3.31,3.3,3.29,3.32,3.28,79.3,0.0,1.0,0.0,1.0,1.0,6135887
1765224640929,0.0,0.0,2.0,25.0,0.0,0.0,0.0,0.0,0.0,0.0,-0.026352,0.005246,0.992348,-0.6300000000000001,0.49000000000000005,0.0,3.31,3.32,3.32,3.3,3.27,3.27,3.27,3.27,3.3,3.3,3.3,3.29,3.27,3.27,3.27,3.29,3.29,3.29,3.28,3.28,3.3,3.31,3.3,3.29,3.32,3.28,79.3,0.0,1.0,0.0,1.0,1.0,6135903
1765224640963,0.0,0.0,2.0,25.0,0.0,0.0,0.0,0.0,0.0,0.0,-0.026352,0.005246,0.992348,-0.6300000000000001,0.49000000000000005,0.0,3.31,3.32,3.32,3.3,3.28,3.29,3.28,3.29,3.32,3.32,3.32,3.32,3.27,3.27,3.27,3.29,3.29,3.29,3.28,3.28,3.3,3.31,3.3,3.29,3.32,3.28,79.3,0.0,1.0,0.0,1.0,1.0,6135937
1765224640979,0.0,0.0,2.0,25.0,0.0,0.0,0.0,0.0,0.0,0.0,-0.026352,0.005246,0.992348,-0.6300000000000001,0.49000000000000005,0.0,3.31,3.32,3.32,3.3,3.28,3.29,3.28,3.29,3.32,3.32,3.32,3.32,3.28,3.29,3.28,3.29,3.29,3.29,3.28,3.28,3.3,3.31,3.3,3.29,3.32,3.28,79.3,0.0,1.0,0.0,1.0,1.0,6135953
1765224640996,0.0,0.0,2.0,25.0,0.0,0.0,0.0,0.0,0.0,0.0,-0.026352,0.005246,0.992348,-0.6300000000000001,0.49000000000000005,0.0,3.31,3.32,3.32,3.3,3.28,3.29,3.28,3.29,3.32,3.32,3.32,3.32,3.28,3.29,3.28,3.29,3.31,3.31,3.31,3.3,3.3,3.31,3.3,3.29,3.32,3.28,79.3,0.0,1.0,0.0,1.0,1.0,6135970
1765224641029,0.0,0.0,2.0,25.0,0.0,0.0,0.0,0.0,0.0,0.0,-0.026352,0.005246,0.992348,-0.6300000000000001,0.49000000000000005,0.0,3.31,3.32,3.32,3.3,3.28,3.29,3.28,3.29,3.32,3.32,3.32,3.32,3.28,3.29,3.28,3.29,3.31,3.31,3.31,3.3,3.3,3.31,3.3,3.29,3.32,3.28,79.3,0.0,1.0,0.0,1.0,1.0,6136003
1765224641064,0.0,0.0,2.0,25.0,0.0,0.0,0.0,0.0,0.0,0.0,-0.027084,0.005856,0.991738,-0.6300000000000001,0.49000000000000005,0.0,3.31,3.32,3.32,3.3,3.28,3.29,3.28,3.29,3.32,3.32,3.32,3.32,3.28,3.29,3.28,3.29,3.31,3.31,3.31,3.3,3.3,3.31,3.3,3.29,3.32,3.28,79.3,0.0,1.0,0.0,1.0,1.0,6136038
1765224641081,0.0,0.0,2.0,25.0,0.0,0.0,0.0,0.0,0.0,0.0,-0.027084,0.005856,0.991738,-0.6300000000000001,0.49000000000000005,0.0,3.31,3.32,3.32,3.31,3.28,3.29,3.28,3.29,3.32,3.32,3.32,3.32,3.28,3.29,3.28,3.29,3.31,3.31,3.31,3.3,3.3,3.31,3.3,3.29,3.32,3.28,79.3,0.0,1.0,0.0,1.0,1.0,6136055
1765224641098,0.0,0.0,2.0,25.0,0.0,0.0,0.0,0.0,0.0,0.0,-0.027084,0.005856,0.991738,-0.6300000000000001,0.49000000000000005,0.0,3.31,3.32,3.32,3.31,3.28,3.29,3.28,3.29,3.32,3.32,3.32,3.32,3.28,3.29,3.28,3.29,3.31,3.31,3.31,3.3,3.3,3.31,3.3,3.29,3.32,3.28,79.3,0.0,1.0,0.0,1.0,1.0,6136072
1765224641115,0.0,0.0,2.0,25.0,0.0,0.0,0.0,0.0,0.0,0.0,-0.027084,0.005856,0.991738,-0.6300000000000001,0.49000000000000005,0.0,3.31,3.32,3.32,3.31,3.28,3.29,3.28,3.29,3.32,3.32,3.32,3.32,3.28,3.29,3.28,3.29,3.31,3.31,3.31,3.3,3.3,3.31,3.3,3.29,3.32,3.28,79.3,0.0,1.0,0.0,1.0,1.0,6136089
1765224641132,0.0,0.0,2.0,25.0,0.0,0.0,0.0,0.0,0.0,0.0,-0.027084,0.005856,0.991738,-0.6300000000000001,0.49000000000000005,0.0,3.31,3.32,3.32,3.31,3.28,3.29,3.28,3.29,3.32,3.32,3.32,3.32,3.28,3.29,3.28,3.29,3.31,3.31,3.31,3.3,3.3,3.31,3.3,3.29,3.32,3.28,79.3,0.0,1.0,0.0,1.0,1.0,6136106
1765224641146,0.0,0.0,2.0,25.0,0.0,0.0,0.0,0.0,0.0,0.0,-0.027084,0.005856,0.991738,-0.6300000000000001,0.49000000000000005,0.0,3.31,3.32,3.32,3.31,3.28,3.29,3.28,3.29,3.32,3.32,3.32,3.32,3.28,3.29,3.28,3.29,3.31,3.31,3.31,3.3,3.3,3.31,3.3,3.29,3.32,3.28,79.3,0.0,1.0,0.0,1.0,1.0,6136120
1765224641162,0.0,0.0,2.0,25.0,0.0,0.0,0.0,0.0,0.0,0.0,-0.027084,0.005856,0.991738,-0.6300000000000001,0.49000000000000005,0.0,3.31,3.32,3.32,3.31,3.28,3.29,3.28,3.29,3.32,3.32,3.32,3.32,3.28,3.29,3.28,3.29,3.31,3.31,3.31,3.3,3.3,3.31,3.3,3.29,3.32,3.28,79.3,0.0,1.0,0.0,1.0,1.0,6136136
1765224641181,0.0,0.0,2.0,25.0,0.0,0.0,0.0,0.0,0.0,0.0,-0.027084,0.005856,0.991738,-0.6300000000000001,0.49000000000000005,0.0,3.31,3.32,3.32,3.31,3.28,3.29,3.28,3.29,3.32,3.32,3.32,3.32,3.28,3.29,3.28,3.29,3.31,3.31,3.31,3.3,3.3,3.31,3.3,3.29,3.32,3.28,79.3,0.0,1.0,0.0,1.0,1.0,6136155
1765224641197,0.0,0.0,2.0,25.0,0.0,0.0,0.0,0.0,0.0,0.0,-0.027084,0.005856,0.991738,-0.6300000000000001,0.35000000000000003,-0.07,3.31,3.32,3.32,3.31,3.28,3.29,3.28,3.29,3.32,3.32,3.32,3.32,3.28,3.29,3.28,3.29,3.31,3.31,3.31,3.3,3.3,3.31,3.3,3.29,3.32,3.28,79.3,0.0,1.0,0.0,1.0,1.0,6136171
1765224641214,0.0,0.0,2.0,25.0,0.0,0.0,0.0,0.0,0.0,0.0,-0.027084,0.005856,0.991738,-0.6300000000000001,0.35000000000000003,-0.07,3.31,3.32,3.32,3.31,3.28,3.29,3.28,3.29,3.32,3.32,3.32,3.32,3.28,3.29,3.28,3.29,3.31,3.31,3.31,3.3,3.32,3.32,3.32,3.32,3.32,3.28,79.3,0.0,1.0,0.0,1.0,1.0,6136188
1765224641231,0.0,0.0,2.0,25.0,0.0,0.0,0.0,0.0,0.0,0.0,-0.027084,0.005856,0.991738,-0.6300000000000001,0.35000000000000003,-0.07,3.31,3.32,3.32,3.31,3.28,3.29,3.28,3.29,3.32,3.32,3.32,3.32,3.28,3.29,3.28,3.29,3.31,3.31,3.31,3.3,3.32,3.32,3.32,3.32,3.32,3.28,79.3,0.0,1.0,0.0,1.0,1.0,6136205
1765224641281,0.0,0.0,2.0,25.0,0.0,0.0,0.0,0.0,0.0,0.0,-0.027084,0.005856,0.991738,-0.6300000000000001,0.35000000000000003,-0.07,3.31,3.32,3.32,3.31,3.28,3.29,3.28,3.29,3.32,3.32,3.32,3.32,3.28,3.29,3.28,3.29,3.31,3.31,3.31,3.3,3.32,3.32,3.32,3.32,3.32,3.28,79.3,0.0,1.0,0.0,1.0,1.0,6136255
1765224641380,0.0,0.0,2.0,25.0,0.0,0.0,0.0,0.0,0.0,0.0,-0.025376,0.004514,0.993812,-0.6300000000000001,0.28,-0.07,3.31,3.32,3.32,3.31,3.28,3.29,3.28,3.29,3.32,3.32,3.32,3.32,3.28,3.29,3.28,3.29,3.31,3.31,3.31,3.3,3.32,3.32,3.32,3.32,3.32,3.28,79.3,0.0,1.0,0.0,1.0,1.0,6136354
1765224641447,0.0,0.0,2.0,25.0,0.0,0.0,0.0,0.0,0.0,0.0,-0.025376,0.004514,0.993812,-0.6300000000000001,0.28,-0.07,3.31,3.32,3.32,3.31,3.28,3.29,3.28,3.29,3.32,3.32,3.32,3.32,3.28,3.29,3.28,3.29,3.31,3.31,3.31,3.3,3.32,3.32,3.32,3.32,3.32,3.28,79.3,0.0,1.0,0.0,1.0,1.0,6136421
1765224641463,0.0,0.0,2.0,25.0,0.0,0.0,0.0,0.0,0.0,0.0,-0.025376,0.004514,0.993812,-0.6300000000000001,0.28,-0.07,3.31,3.32,3.32,3.31,3.28,3.29,3.28,3.29,3.32,3.32,3.32,3.32,3.28,3.29,3.28,3.29,3.31,3.31,3.31,3.3,3.32,3.32,3.32,3.32,3.32,3.28,79.3,0.0,1.0,0.0,1.0,1.0,6136437
1765224641496,0.0,0.0,2.0,25.0,0.0,0.0,0.0,0.0,0.0,0.0,-0.02562,0.004392,0.992348,-0.6300000000000001,0.28,-0.07,3.31,3.32,3.32,3.31,3.28,3.29,3.28,3.29,3.32,3.32,3.32,3.32,3.28,3.29,3.28,3.29,3.31,3.31,3.31,3.3,3.32,3.32,3.32,3.32,3.32,3.28,79.3,0.0,1.0,0.0,1.0,1.0,6136470
1765224641513,0.0,0.0,2.0,25.0,0.0,0.0,0.0,0.0,0.0,0.0,-0.02562,0.004392,0.992348,-0.6300000000000001,0.28,-0.07,3.31,3.32,3.32,3.31,3.28,3.29,3.28,3.29,3.32,3.32,3.32,3.32,3.28,3.29,3.28,3.29,3.31,3.31,3.31,3.3,3.32,3.32,3.32,3.32,3.32,3.28,79.3,0.0,1.0,0.0,1.0,1.0,6136487
1765224641529,0.0,0.0,2.0,25.0,0.0,0.0,0.0,0.0,0.0,0.0,-0.02562,0.004392,0.992348,-0.56,0.35000000000000003,-0.07,3.31,3.32,3.32,3.31,3.28,3.29,3.28,3.29,3.32,3.32,3.32,3.32,3.28,3.29,3.28,3.29,3.31,3.31,3.31,3.3,3.32,3.32,3.32,3.32,3.32,3.28,79.3,0.0,1.0,0.0,1.0,1.0,6136503
1765224641580,0.0,0.0,2.0,25.0,0.0,0.0,0.0,0.0,0.0,0.0,-0.02562,0.004392,0.992348,-0.56,0.35000000000000003,-0.07,3.31,3.32,3.32,3.31,3.28,3.29,3.28,3.29,3.32,3.32,3.32,3.32,3.28,3.29,3.28,3.29,3.31,3.31,3.31,3.3,3.32,3.32,3.32,3.32,3.32,3.28,79.3,0.0,1.0,0.0,1.0,1.0,6136554
1765224641664,0.0,0.0,2.0,25.0,0.0,0.0,0.0,0.0,0.0,0.0,-0.02562,0.004392,0.992348,-0.56,0.35000000000000003,-0.07,3.31,3.32,3.32,3.31,3.28,3.29,3.28,3.29,3.32,3.32,3.32,3.32,3.28,3.29,3.28,3.29,3.31,3.31,3.31,3.3,3.32,3.32,3.32,3.32,3.32,3.28,79.3,0.0,1.0,0.0,1.0,1.0,6136638
1765224641714,0.0,0.0,2.0,25.0,0.0,0.0,0.0,0.0,0.0,0.0,-0.02562,0.004392,0.992348,-0.56,0.35000000000000003,-0.07,3.31,3.32,3.32,3.31,3.28,3.29,3.28,3.29,3.32,3.32,3.32,3.32,3.28,3.29,3.28,3.29,3.31,3.31,3.31,3.3,3.32,3.32,3.32,3.32,3.32,3.28,79.3,0.0,1.0,0.0,1.0,1.0,6136688
1765224641781,0.0,0.0,2.0,25.0,0.0,0.0,0.0,0.0,0.0,0.0,-0.026718,0.0064659999999999995,0.9928359999999999,-0.56,0.35000000000000003,-0.07,3.31,3.32,3.32,3.31,3.28,3.29,3.28,3.29,3.32,3.32,3.32,3.32,3.28,3.29,3.28,3.29,3.31,3.31,3.31,3.3,3.32,3.32,3.32,3.32,3.32,3.28,79.3,0.0,1.0,0.0,1.0,1.0,6136755
1765224641798,0.0,0.0,2.0,25.0,0.0,0.0,0.0,0.0,0.0,0.0,-0.026718,0.0064659999999999995,0.9928359999999999,-0.6300000000000001,0.42000000000000004,0.0,3.31,3.32,3.32,3.31,3.28,3.29,3.28,3.29,3.32,3.32,3.32,3.32,3.28,3.29,3.28,3.29,3.31,3.31,3.31,3.3,3.32,3.32,3.32,3.32,3.32,3.28,79.3,0.0,1.0,0.0,1.0,1.0,6136772
1765224641847,0.0,0.0,2.0,25.0,0.0,0.0,0.0,0.0,0.0,0.0,-0.026962,0.005978,0.99186,-0.6300000000000001,0.42000000000000004,0.0,3.31,3.32,3.32,3.31,3.28,3.29,3.28,3.29,3.32,3.32,3.32,3.32,3.28,3.29,3.28,3.29,3.31,3.31,3.31,3.3,3.32,3.32,3.32,3.32,3.32,3.28,79.3,0.0,1.0,0.0,1.0,1.0,6136821
1765224641864,0.0,0.0,2.0,25.0,0.0,0.0,0.0,0.0,0.0,0.0,-0.026962,0.005978,0.99186,-0.6300000000000001,0.42000000000000004,0.0,3.31,3.32,3.32,3.31,3.28,3.29,3.28,3.29,3.32,3.32,3.32,3.32,3.28,3.29,3.28,3.29,3.31,3.31,3.31,3.3,3.32,3.32,3.32,3.32,3.32,3.28,79.3,0.0,1.0,0.0,1.0,1.0,6136838
1765224641880,0.0,0.0,2.0,25.0,0.0,0.0,0.0,0.0,0.0,0.0,-0.026962,0.005978,0.99186,-0.6300000000000001,0.42000000000000004,-0.07,3.31,3.32,3.32,3.31,3.28,3.29,3.28,3.29,3.32,3.32,3.32,3.32,3.28,3.29,3.28,3.29,3.31,3.31,3.31,3.3,3.32,3.32,3.32,3.32,3.32,3.28,79.3,0.0,1.0,0.0,1.0,1.0,6136854
1765224641899,0.0,0.0,2.0,25.0,0.0,0.0,0.0,0.0,0.0,0.0,-0.026962,0.005978,0.99186,-0.6300000000000001,0.42000000000000004,-0.07,3.31,3.32,3.32,3.31,3.28,3.29,3.28,3.29,3.32,3.32,3.32,3.32,3.28,3.29,3.28,3.29,3.31,3.31,3.31,3.3,3.32,3.32,3.32,3.32,3.32,3.28,79.3,0.0,1.0,0.0,1.0,1.0,6136873
1765224641915,0.0,0.0,2.0,25.0,0.0,0.0,0.0,0.0,0.0,0.0,-0.026962,0.005978,0.99186,-0.6300000000000001,0.42000000000000004,-0.07,3.31,3.32,3.32,3.31,3.28,3.29,3.28,3.29,3.32,3.32,3.32,3.32,3.28,3.29,3.28,3.29,3.31,3.31,3.31,3.3,3.32,3.32,3.32,3.32,3.32,3.28,79.3,0.0,1.0,0.0,1.0,1.0,6136889
1765224641932,0.0,0.0,2.0,25.0,0.0,0.0,0.0,0.0,0.0,0.0,-0.026962,0.005978,0.99186,-0.6300000000000001,0.42000000000000004,-0.07,3.31,3.32,3.32,3.31,3.28,3.29,3.28,3.29,3.32,3.32,3.32,3.32,3.28,3.29,3.28,3.29,3.31,3.31,3.31,3.3,3.32,3.32,3.32,3.32,3.32,3.28,79.3,0.0,1.0,0.0,1.0,1.0,6136906
1765224642015,0.0,0.0,2.0,25.0,0.0,0.0,0.0,0.0,0.0,0.0,-0.026962,0.005978,0.99186,-0.6300000000000001,0.42000000000000004,-0.07,3.31,3.32,3.32,3.31,3.28,3.29,3.28,3.29,3.32,3.32,3.32,3.32,3.28,3.29,3.28,3.29,3.31,3.31,3.31,3.3,3.32,3.32,3.32,3.32,3.32,3.28,79.3,-1.0,1.0,0.0,1.0,1.0,6136989
1765224642030,0.0,0.0,2.0,25.0,0.0,0.0,0.0,0.0,0.0,0.0,-0.026962,0.005978,0.99186,-0.6300000000000001,0.42000000000000004,-0.07,3.31,3.32,3.32,3.31,3.28,3.29,3.28,3.29,3.32,3.32,3.32,3.32,3.28,3.29,3.28,3.29,3.31,3.31,3.31,3.3,3.32,3.32,3.32,3.32,3.32,3.28,79.3,-1.0,1.0,0.0,1.0,1.0,6137004
1765224642098,0.0,0.0,2.0,25.0,0.0,0.0,0.0,0.0,0.0,0.0,-0.025376,0.004026,0.992958,-0.6300000000000001,0.42000000000000004,-0.07,3.31,3.32,3.32,3.31,3.28,3.29,3.28,3.29,3.32,3.32,3.32,3.32,3.28,3.29,3.28,3.29,3.31,3.31,3.31,3.3,3.32,3.32,3.32,3.32,3.32,3.28,79.3,-1.0,1.0,0.0,1.0,1.0,6137072
1765224642131,0.0,0.0,2.0,25.0,0.0,0.0,0.0,0.0,0.0,0.0,-0.025376,0.004026,0.992958,-0.6300000000000001,0.35000000000000003,0.0,3.31,3.32,3.32,3.31,3.28,3.29,3.28,3.29,3.32,3.32,3.32,3.32,3.28,3.29,3.28,3.29,3.31,3.31,3.31,3.3,3.32,3.32,3.32,3.32,3.32,3.28,79.3,-1.0,1.0,0.0,1.0,1.0,6137105
1765224642180,0.0,0.0,2.0,25.0,0.0,0.0,0.0,0.0,0.0,0.0,-0.025376,0.004026,0.992958,-0.6300000000000001,0.35000000000000003,0.0,3.31,3.32,3.32,3.31,3.28,3.29,3.28,3.29,3.32,3.32,3.32,3.32,3.28,3.29,3.28,3.29,3.31,3.31,3.31,3.3,3.32,3.32,3.32,3.32,3.32,3.28,79.3,-1.0,1.0,0.0,1.0,1.0,6137154
1765224642200,0.0,0.0,2.0,25.0,0.0,0.0,0.0,0.0,0.0,0.0,-0.024644,0.0053679999999999995,0.9922259999999999,-0.6300000000000001,0.35000000000000003,0.0,3.31,3.32,3.32,3.31,3.28,3.29,3.28,3.29,3.32,3.32,3.32,3.32,3.28,3.29,3.28,3.29,3.31,3.31,3.31,3.3,3.32,3.32,3.32,3.32,3.32,3.28,79.3,-1.0,1.0,0.0,1.0,1.0,6137174
1765224642215,0.0,0.0,2.0,25.0,0.0,0.0,0.0,0.0,0.0,0.0,-0.024644,0.0053679999999999995,0.9922259999999999,-0.6300000000000001,0.35000000000000003,0.0,3.31,3.32,3.32,3.31,3.28,3.29,3.28,3.29,3.32,3.32,3.32,3.32,3.28,3.29,3.28,3.29,3.31,3.31,3.31,3.3,3.32,3.32,3.32,3.32,3.32,3.28,79.3,-1.0,1.0,0.0,1.0,1.0,6137189
1765224642230,0.0,0.0,2.0,25.0,0.0,0.0,0.0,0.0,0.0,0.0,-0.024644,0.0053679999999999995,0.9922259999999999,-0.6300000000000001,0.35000000000000003,0.0,3.31,3.32,3.32,3.31,3.28,3.29,3.28,3.29,3.32,3.32,3.32,3.32,3.28,3.29,3.28,3.29,3.31,3.31,3.31,3.3,3.32,3.32,3.32,3.32,3.32,3.28,79.3,-1.0,1.0,0.0,1.0,1.0,6137204
1765224642249,0.0,0.0,2.0,25.0,0.0,0.0,0.0,0.0,0.0,0.0,-0.024644,0.0053679999999999995,0.9922259999999999,-0.6300000000000001,0.35000000000000003,0.0,3.31,3.32,3.32,3.31,3.28,3.29,3.28,3.29,3.32,3.32,3.32,3.32,3.28,3.29,3.28,3.29,3.31,3.31,3.31,3.3,3.32,3.32,3.32,3.32,3.32,3.28,79.3,-1.0,1.0,0.0,1.0,1.0,6137223
1765224642282,0.0,0.0,2.0,25.0,0.0,0.0,0.0,0.0,0.0,0.0,-0.027206,0.003904,0.993202,-0.6300000000000001,0.35000000000000003,0.0,3.31,3.32,3.32,3.31,3.28,3.29,3.28,3.29,3.32,3.32,3.32,3.32,3.28,3.29,3.28,3.29,3.31,3.31,3.31,3.3,3.32,3.32,3.32,3.32,3.32,3.28,79.3,-1.0,1.0,0.0,1.0,1.0,6137256
1765224642299,0.0,0.0,2.0,25.0,0.0,0.0,0.0,0.0,0.0,0.0,-0.027206,0.003904,0.993202,-0.6300000000000001,0.42000000000000004,-0.07,3.31,3.32,3.32,3.31,3.28,3.29,3.28,3.29,3.32,3.32,3.32,3.32,3.28,3.29,3.28,3.29,3.31,3.31,3.31,3.3,3.32,3.32,3.32,3.32,3.32,3.28,79.3,-1.0,1.0,0.0,1.0,1.0,6137273
1765224642332,0.0,0.0,2.0,25.0,0.0,0.0,0.0,0.0,0.0,0.0,-0.027206,0.003904,0.993202,-0.6300000000000001,0.42000000000000004,-0.07,3.31,3.32,3.32,3.31,3.28,3.29,3.28,3.29,3.32,3.32,3.32,3.32,3.28,3.29,3.28,3.29,3.31,3.31,3.31,3.3,3.32,3.32,3.32,3.32,3.32,3.28,79.3,-1.0,1.0,0.0,1.0,1.0,6137306
1765224642348,0.0,0.0,2.0,25.0,0.0,0.0,0.0,0.0,0.0,0.0,-0.027206,0.003904,0.993202,-0.6300000000000001,0.42000000000000004,-0.07,3.31,3.32,3.32,3.31,3.28,3.29,3.28,3.29,3.32,3.32,3.32,3.32,3.28,3.29,3.28,3.29,3.31,3.31,3.31,3.3,3.32,3.32,3.32,3.32,3.32,3.28,79.3,-1.0,1.0,0.0,1.0,1.0,6137322
1765224642365,0.0,0.0,2.0,25.0,0.0,0.0,0.0,0.0,0.0,0.0,-0.027206,0.003904,0.993202,-0.6300000000000001,0.42000000000000004,-0.07,3.31,3.32,3.32,3.31,3.28,3.29,3.28,3.29,3.32,3.32,3.32,3.32,3.28,3.29,3.28,3.29,3.31,3.31,3.31,3.3,3.32,3.32,3.32,3.32,3.32,3.28,79.3,-1.0,1.0,0.0,1.0,1.0,6137339
1765224642381,0.0,0.0,2.0,25.0,0.0,0.0,0.0,0.0,0.0,0.0,-0.027206,0.003904,0.993202,-0.6300000000000001,0.42000000000000004,-0.07,3.31,3.32,3.32,3.31,3.28,3.29,3.28,3.29,3.32,3.32,3.32,3.32,3.28,3.29,3.28,3.29,3.31,3.31,3.31,3.3,3.32,3.32,3.32,3.32,3.32,3.28,79.3,-1.0,1.0,0.0,1.0,1.0,6137355
1765224642396,0.0,0.0,2.0,25.0,0.0,0.0,0.0,0.0,0.0,0.0,-0.027206,0.003904,0.993202,-0.6300000000000001,0.42000000000000004,-0.07,3.31,3.32,3.32,3.31,3.28,3.29,3.28,3.29,3.32,3.32,3.32,3.32,3.28,3.29,3.28,3.29,3.31,3.31,3.31,3.3,3.32,3.32,3.32,3.32,3.32,3.28,79.3,-1.0,1.0,0.0,1.0,1.0,6137370
1765224642430,0.0,0.0,2.0,25.0,0.0,0.0,0.0,0.0,0.0,0.0,-0.027084,0.005124,0.992592,-0.6300000000000001,0.42000000000000004,-0.07,3.31,3.32,3.32,3.31,3.28,3.29,3.28,3.29,3.32,3.32,3.32,3.32,3.28,3.29,3.28,3.29,3.31,3.31,3.31,3.3,3.32,3.32,3.32,3.32,3.32,3.28,79.3,-1.0,1.0,0.0,1.0,1.0,6137404
1765224642464,0.0,0.0,2.0,25.0,0.0,0.0,0.0,0.0,0.0,0.0,-0.027084,0.005124,0.992592,-0.7000000000000001,0.35000000000000003,0.0,3.31,3.32,3.32,3.31,3.28,3.29,3.28,3.29,3.32,3.32,3.32,3.32,3.28,3.29,3.28,3.29,3.31,3.31,3.31,3.3,3.32,3.32,3.32,3.32,3.32,3.28,79.3,-1.0,1.0,0.0,1.0,1.0,6137438
1765224642480,0.0,0.0,2.0,25.0,0.0,0.0,0.0,0.0,0.0,0.0,-0.027084,0.005124,0.992592,-0.7000000000000001,0.35000000000000003,0.0,3.31,3.32,3.32,3.31,3.28,3.29,3.28,3.29,3.32,3.32,3.32,3.32,3.28,3.29,3.28,3.29,3.31,3.31,3.31,3.3,3.32,3.32,3.32,3.32,3.32,3.28,79.3,-1.0,1.0,0.0,1.0,1.0,6137454
1765224642563,0.0,0.0,2.0,25.0,0.0,0.0,0.0,0.0,0.0,0.0,-0.02562,0.005124,0.99369,-0.7000000000000001,0.35000000000000003,0.0,3.31,3.32,3.32,3.31,3.28,3.29,3.28,3.29,3.32,3.32,3.32,3.32,3.28,3.29,3.28,3.29,3.31,3.31,3.31,3.3,3.32,3.32,3.32,3.32,3.32,3.28,79.3,-1.0,1.0,0.0,1.0,1.0,6137537
1765224642580,0.0,0.0,2.0,25.0,0.0,0.0,0.0,0.0,0.0,0.0,-0.02562,0.005124,0.99369,-0.6300000000000001,0.35000000000000003,0.0,3.31,3.32,3.32,3.31,3.28,3.29,3.28,3.29,3.32,3.32,3.32,3.32,3.28,3.29,3.28,3.29,3.31,3.31,3.31,3.3,3.32,3.32,3.32,3.32,3.32,3.28,79.3,-1.0,1.0,0.0,1.0,1.0,6137554
1765224642629,0.0,0.0,2.0,25.0,0.0,0.0,0.0,0.0,0.0,0.0,-0.02562,0.005124,0.99369,-0.6300000000000001,0.35000000000000003,0.0,3.31,3.32,3.32,3.31,3.28,3.29,3.28,3.29,3.32,3.32,3.32,3.32,3.28,3.29,3.28,3.29,3.31,3.31,3.31,3.3,3.32,3.32,3.32,3.32,3.32,3.28,79.3,-1.0,1.0,0.0,1.0,1.0,6137603
1765224642646,0.0,0.0,2.0,25.0,0.0,0.0,0.0,0.0,0.0,0.0,-0.02562,0.005124,0.99369,-0.6300000000000001,0.35000000000000003,0.0,3.31,3.32,3.32,3.31,3.28,3.29,3.28,3.29,3.32,3.32,3.32,3.32,3.28,3.29,3.28,3.29,3.31,3.31,3.31,3.3,3.32,3.32,3.32,3.32,3.32,3.28,79.3,-1.0,1.0,0.0,1.0,1.0,6137620
1765224642663,0.0,0.0,2.0,25.0,0.0,0.0,0.0,0.0,0.0,0.0,-0.02562,0.005124,0.99369,-0.6300000000000001,0.35000000000000003,0.0,3.31,3.32,3.32,3.31,3.28,3.29,3.28,3.29,3.32,3.32,3.32,3.32,3.28,3.29,3.28,3.29,3.31,3.31,3.31,3.3,3.32,3.32,3.32,3.32,3.32,3.28,79.3,-1.0,1.0,0.0,1.0,1.0,6137637
1765224642695,0.0,0.0,2.0,25.0,0.0,0.0,0.0,0.0,0.0,0.0,-0.02562,0.005124,0.99369,-0.6300000000000001,0.35000000000000003,0.0,3.31,3.32,3.32,3.31,3.28,3.29,3.28,3.29,3.32,3.32,3.32,3.32,3.28,3.29,3.28,3.29,3.31,3.31,3.31,3.3,3.32,3.32,3.32,3.32,3.32,3.28,79.3,-1.0,1.0,0.0,1.0,1.0,6137669
1765224642712,0.0,0.0,2.0,25.0,0.0,0.0,0.0,0.0,0.0,0.0,-0.026108,0.0046359999999999995,0.993324,-0.6300000000000001,0.35000000000000003,0.0,3.31,3.32,3.32,3.31,3.28,3.29,3.28,3.29,3.32,3.32,3.32,3.32,3.28,3.29,3.28,3.29,3.31,3.31,3.31,3.3,3.32,3.32,3.32,3.32,3.32,3.28,79.3,-1.0,1.0,0.0,1.0,1.0,6137686
1765224642763,0.0,0.0,2.0,25.0,0.0,0.0,0.0,0.0,0.0,0.0,-0.026108,0.0046359999999999995,0.993324,-0.6300000000000001,0.35000000000000003,0.0,3.31,3.32,3.32,3.31,3.28,3.29,3.28,3.29,3.32,3.32,3.32,3.32,3.28,3.29,3.28,3.29,3.31,3.31,3.31,3.3,3.32,3.32,3.32,3.32,3.32,3.28,79.3,-1.0,1.0,0.0,1.0,1.0,6137737
1765224642779,0.0,0.0,2.0,25.0,0.0,0.0,0.0,0.0,0.0,0.0,-0.026108,0.0046359999999999995,0.993324,-0.56,0.35000000000000003,-0.07,3.31,3.32,3.32,3.31,3.28,3.29,3.28,3.29,3.32,3.32,3.32,3.32,3.28,3.29,3.28,3.29,3.31,3.31,3.31,3.3,3.32,3.32,3.32,3.32,3.32,3.28,79.3,-1.0,1.0,0.0,1.0,1.0,6137753
1765224642796,0.0,0.0,2.0,25.0,0.0,0.0,0.0,0.0,0.0,0.0,-0.026108,0.0046359999999999995,0.993324,-0.56,0.35000000000000003,-0.07,3.31,3.32,3.32,3.3,3.28,3.29,3.28,3.29,3.32,3.32,3.32,3.32,3.28,3.29,3.28,3.29,3.31,3.31,3.31,3.3,3.32,3.32,3.32,3.32,3.32,3.28,79.3,-1.0,1.0,0.0,1.0,1.0,6137770
1765224642813,0.0,0.0,2.0,25.0,0.0,0.0,0.0,0.0,0.0,0.0,-0.026108,0.0046359999999999995,0.993324,-0.56,0.35000000000000003,-0.07,3.31,3.32,3.32,3.3,3.28,3.29,3.28,3.29,3.32,3.32,3.32,3.32,3.28,3.29,3.28,3.29,3.31,3.31,3.31,3.3,3.32,3.32,3.32,3.32,3.32,3.28,79.3,-1.0,1.0,0.0,1.0,1.0,6137787
1765224642863,0.0,0.0,2.0,25.0,0.0,0.0,0.0,0.0,0.0,0.0,-0.026108,0.0046359999999999995,0.993324,-0.56,0.35000000000000003,-0.07,3.31,3.32,3.32,3.3,3.28,3.29,3.28,3.29,3.32,3.32,3.32,3.32,3.28,3.29,3.28,3.29,3.31,3.31,3.31,3.3,3.32,3.32,3.32,3.32,3.32,3.28,79.3,-1.0,1.0,0.0,1.0,1.0,6137837
1765224642914,0.0,0.0,2.0,25.0,0.0,0.0,0.0,0.0,0.0,0.0,-0.026108,0.0046359999999999995,0.993324,-0.56,0.35000000000000003,-0.07,3.31,3.32,3.32,3.3,3.28,3.29,3.28,3.29,3.32,3.32,3.32,3.32,3.28,3.29,3.28,3.29,3.31,3.31,3.31,3.3,3.32,3.32,3.32,3.32,3.32,3.28,79.3,-1.0,1.0,0.0,1.0,1.0,6137888
1765224642946,0.0,0.0,2.0,25.0,0.0,0.0,0.0,0.0,0.0,0.0,-0.024034,0.005246,0.99186,-0.56,0.35000000000000003,-0.07,3.31,3.32,3.32,3.3,3.28,3.29,3.28,3.29,3.32,3.32,3.32,3.32,3.28,3.29,3.28,3.29,3.31,3.31,3.31,3.3,3.32,3.32,3.32,3.32,3.32,3.28,79.3,-1.0,1.0,0.0,1.0,1.0,6137920
1765224642997,0.0,0.0,2.0,25.0,0.0,0.0,0.0,0.0,0.0,0.0,-0.024034,0.005246,0.99186,-0.7000000000000001,0.35000000000000003,17.78,3.31,3.32,3.32,3.31,3.28,3.29,3.28,3.29,3.32,3.32,3.32,3.32,3.28,3.29,3.28,3.29,3.31,3.31,3.31,3.3,3.32,3.32,3.32,3.32,3.32,3.28,79.3,-1.0,1.0,0.0,1.0,1.0,6137971
1765224643014,0.0,0.0,2.0,25.0,0.0,0.0,0.0,0.0,0.0,0.0,-0.024034,0.005246,0.99186,-0.7000000000000001,0.35000000000000003,17.78,3.31,3.32,3.32,3.31,3.28,3.29,3.28,3.29,3.32,3.32,3.32,3.32,3.28,3.29,3.28,3.29,3.31,3.31,3.31,3.3,3.32,3.32,3.32,3.32,3.32,3.28,79.3,-1.0,1.0,0.0,1.0,1.0,6137988
1765224643031,0.0,0.0,2.0,25.0,0.0,0.0,0.0,0.0,0.0,0.0,-0.024034,0.005246,0.99186,-0.7000000000000001,0.35000000000000003,17.78,3.31,3.32,3.32,3.31,3.28,3.29,3.28,3.29,3.32,3.32,3.32,3.32,3.28,3.29,3.28,3.29,3.31,3.31,3.31,3.3,3.32,3.32,3.32,3.32,3.32,3.28,79.3,-1.0,1.0,0.0,1.0,1.0,6138005
1765224643049,0.0,0.0,2.0,25.0,0.0,0.0,0.0,0.0,0.0,0.0,-0.024034,0.005246,0.99186,-0.7000000000000001,0.35000000000000003,17.78,3.31,3.32,3.32,3.31,3.28,3.29,3.28,3.29,3.32,3.32,3.32,3.32,3.28,3.29,3.28,3.29,3.31,3.31,3.31,3.3,3.32,3.32,3.32,3.32,3.32,3.28,79.3,-1.0,1.0,0.0,1.0,1.0,6138023
1765224643064,0.0,0.0,2.0,25.0,0.0,0.0,0.0,0.0,0.0,0.0,-0.024034,0.005246,0.99186,-0.7000000000000001,0.35000000000000003,17.78,3.31,3.32,3.32,3.31,3.28,3.29,3.28,3.29,3.32,3.32,3.32,3.32,3.28,3.29,3.28,3.29,3.31,3.31,3.31,3.3,3.32,3.32,3.32,3.32,3.32,3.28,79.3,-1.0,1.0,0.0,1.0,1.0,6138038
1765224643081,0.0,0.0,2.0,25.0,0.0,0.0,0.0,0.0,0.0,0.0,-0.024034,0.005246,0.99186,-0.7000000000000001,0.35000000000000003,17.78,3.31,3.32,3.32,3.31,3.28,3.29,3.28,3.29,3.32,3.32,3.32,3.32,3.28,3.29,3.28,3.29,3.31,3.31,3.31,3.3,3.32,3.32,3.32,3.32,3.32,3.28,79.3,-1.0,1.0,0.0,1.0,1.0,6138055
1765224643114,0.0,0.0,2.0,25.0,0.0,0.0,0.0,0.0,0.0,0.0,-0.024034,0.005246,0.99186,-0.7000000000000001,0.35000000000000003,17.78,3.31,3.32,3.32,3.31,3.28,3.29,3.28,3.29,3.32,3.32,3.32,3.32,3.28,3.29,3.28,3.29,3.31,3.31,3.31,3.3,3.32,3.32,3.32,3.32,3.32,3.28,79.3,-1.0,1.0,0.0,1.0,1.0,6138088
1765224643146,0.0,0.0,2.0,25.0,0.0,0.0,0.0,0.0,0.0,0.0,-0.024034,0.005246,0.99186,-0.7000000000000001,0.35000000000000003,17.78,3.31,3.32,3.32,3.31,3.28,3.29,3.28,3.29,3.32,3.32,3.32,3.32,3.28,3.29,3.28,3.29,3.31,3.31,3.31,3.3,3.32,3.32,3.32,3.32,3.32,3.28,79.3,-1.0,1.0,0.0,1.0,1.0,6138120
1765224643163,0.0,0.0,2.0,25.0,0.0,0.0,0.0,0.0,0.0,0.0,-0.026718,0.004148,0.993934,-0.7000000000000001,0.35000000000000003,17.78,3.31,3.32,3.32,3.31,3.28,3.29,3.28,3.29,3.32,3.32,3.32,3.32,3.28,3.29,3.28,3.29,3.31,3.31,3.31,3.3,3.32,3.32,3.32,3.32,3.32,3.28,79.3,-1.0,1.0,0.0,1.0,1.0,6138137
1765224643196,0.0,0.0,2.0,25.0,0.0,0.0,0.0,0.0,0.0,0.0,-0.026718,0.004148,0.993934,-0.7000000000000001,0.35000000000000003,0.0,3.31,3.32,3.32,3.31,3.28,3.29,3.28,3.29,3.32,3.32,3.32,3.32,3.28,3.29,3.28,3.29,3.31,3.31,3.31,3.3,3.32,3.32,3.32,3.32,3.32,3.28,79.3,-1.0,1.0,0.0,1.0,1.0,6138170
1765224643264,0.0,0.0,2.0,25.0,0.0,0.0,0.0,0.0,0.0,0.0,-0.026718,0.004148,0.993934,-0.7000000000000001,0.35000000000000003,0.0,3.31,3.32,3.32,3.31,3.28,3.29,3.28,3.29,3.32,3.32,3.32,3.32,3.28,3.29,3.28,3.29,3.31,3.31,3.31,3.3,3.32,3.32,3.32,3.32,3.32,3.28,79.3,-1.0,1.0,0.0,1.0,1.0,6138238
1765224643331,0.0,0.0,2.0,25.0,0.0,0.0,0.0,0.0,0.0,0.0,-0.026718,0.0068319999999999995,0.993812,-0.7000000000000001,0.35000000000000003,0.0,3.31,3.32,3.32,3.31,3.28,3.29,3.28,3.29,3.32,3.32,3.32,3.32,3.28,3.29,3.28,3.29,3.31,3.31,3.31,3.3,3.32,3.32,3.32,3.32,3.32,3.28,79.3,-1.0,1.0,0.0,1.0,1.0,6138305
1765224643348,0.0,0.0,2.0,25.0,0.0,0.0,0.0,0.0,0.0,0.0,-0.026718,0.0068319999999999995,0.993812,-0.6300000000000001,0.42000000000000004,0.0,3.31,3.32,3.32,3.31,3.28,3.29,3.28,3.29,3.32,3.32,3.32,3.32,3.28,3.29,3.28,3.29,3.31,3.31,3.31,3.3,3.32,3.32,3.32,3.32,3.32,3.28,79.3,-1.0,1.0,0.0,1.0,1.0,6138322
1765224643415,0.0,0.0,2.0,25.0,0.0,0.0,0.0,0.0,0.0,0.0,-0.026718,0.0068319999999999995,0.993812,-0.6300000000000001,0.42000000000000004,0.0,3.31,3.32,3.32,3.31,3.28,3.29,3.28,3.29,3.32,3.32,3.32,3.32,3.28,3.29,3.28,3.29,3.31,3.31,3.31,3.3,3.32,3.32,3.32,3.32,3.32,3.28,79.3,-1.0,1.0,0.0,1.0,1.0,6138389
1765224643448,0.0,0.0,2.0,25.0,0.0,0.0,0.0,0.0,0.0,0.0,-0.026718,0.0068319999999999995,0.993812,-0.6300000000000001,0.49000000000000005,0.0,3.31,3.32,3.32,3.31,3.28,3.29,3.28,3.29,3.32,3.32,3.32,3.32,3.28,3.29,3.28,3.29,3.31,3.31,3.31,3.3,3.32,3.32,3.32,3.32,3.32,3.28,79.3,-1.0,1.0,0.0,1.0,1.0,6138422
1765224643514,0.0,0.0,2.0,25.0,0.0,0.0,0.0,0.0,0.0,0.0,-0.026595999999999998,0.0060999999999999995,0.991494,-0.6300000000000001,0.49000000000000005,0.0,3.31,3.32,3.32,3.31,3.28,3.29,3.28,3.29,3.32,3.32,3.32,3.32,3.28,3.29,3.28,3.29,3.31,3.31,3.31,3.3,3.32,3.32,3.32,3.32,3.32,3.28,79.3,-1.0,1.0,0.0,1.0,1.0,6138488
1765224643530,0.0,0.0,2.0,25.0,0.0,0.0,0.0,0.0,0.0,0.0,-0.026595999999999998,0.0060999999999999995,0.991494,-0.7000000000000001,0.49000000000000005,0.0,3.31,3.32,3.32,3.31,3.28,3.29,3.28,3.29,3.32,3.32,3.32,3.32,3.28,3.29,3.28,3.29,3.31,3.31,3.31,3.3,3.32,3.32,3.32,3.32,3.32,3.28,79.3,-1.0,1.0,0.0,1.0,1.0,6138504
1765224643547,0.0,0.0,2.0,25.0,0.0,0.0,0.0,0.0,0.0,0.0,-0.026595999999999998,0.0060999999999999995,0.991494,-0.7000000000000001,0.49000000000000005,0.0,3.31,3.32,3.32,3.31,3.28,3.29,3.28,3.29,3.32,3.32,3.32,3.32,3.28,3.29,3.28,3.29,3.31,3.31,3.31,3.3,3.32,3.32,3.32,3.32,3.32,3.28,79.3,-1.0,1.0,0.0,1.0,1.0,6138521
1765224643563,0.0,0.0,2.0,25.0,0.0,0.0,0.0,0.0,0.0,0.0,-0.026595999999999998,0.0060999999999999995,0.991494,-0.7000000000000001,0.49000000000000005,0.0,3.31,3.32,3.32,3.31,3.28,3.29,3.28,3.29,3.32,3.32,3.32,3.32,3.28,3.29,3.28,3.29,3.31,3.31,3.31,3.3,3.32,3.32,3.32,3.32,3.32,3.28,79.3,-1.0,1.0,0.0,1.0,1.0,6138537
1765224643599,0.0,0.0,2.0,25.0,0.0,0.0,0.0,0.0,0.0,0.0,-0.026595999999999998,0.0060999999999999995,0.991494,-0.7000000000000001,0.49000000000000005,0.0,3.31,3.32,3.32,3.31,3.28,3.29,3.28,3.29,3.32,3.32,3.32,3.32,3.28,3.29,3.28,3.29,3.31,3.31,3.31,3.3,3.32,3.32,3.32,3.32,3.32,3.28,79.3,-1.0,1.0,0.0,1.0,1.0,6138573
1765224643630,0.0,0.0,2.0,25.0,0.0,0.0,0.0,0.0,0.0,0.0,-0.026595999999999998,0.0060999999999999995,0.991494,-0.7000000000000001,0.49000000000000005,0.0,3.31,3.32,3.32,3.31,3.28,3.29,3.28,3.29,3.32,3.32,3.32,3.32,3.28,3.29,3.28,3.29,3.31,3.31,3.31,3.3,3.32,3.32,3.32,3.32,3.32,3.28,79.3,-1.0,1.0,0.0,1.0,1.0,6138604
1765224643681,0.0,0.0,2.0,25.0,0.0,0.0,0.0,0.0,0.0,0.0,-0.026595999999999998,0.0060999999999999995,0.991494,-0.7000000000000001,0.49000000000000005,0.0,3.31,3.32,3.32,3.31,3.28,3.29,3.28,3.29,3.32,3.32,3.32,3.32,3.28,3.29,3.28,3.29,3.31,3.31,3.31,3.3,3.32,3.32,3.32,3.32,3.32,3.28,79.3,-1.0,1.0,0.0,1.0,1.0,6138655
1765224643697,0.0,0.0,2.0,25.0,0.0,0.0,0.0,0.0,0.0,0.0,-0.029402,0.0050019999999999995,0.993568,-0.7000000000000001,0.49000000000000005,0.0,3.31,3.32,3.32,3.31,3.28,3.29,3.28,3.29,3.32,3.32,3.32,3.32,3.28,3.29,3.28,3.29,3.31,3.31,3.31,3.3,3.32,3.32,3.32,3.32,3.32,3.28,79.3,-1.0,1.0,0.0,1.0,1.0,6138671
1765224643747,0.0,0.0,2.0,25.0,0.0,0.0,0.0,0.0,0.0,0.0,-0.029402,0.0050019999999999995,0.993568,-0.6300000000000001,0.42000000000000004,-0.07,3.31,3.32,3.32,3.31,3.28,3.29,3.28,3.29,3.32,3.32,3.32,3.32,3.28,3.29,3.28,3.29,3.31,3.31,3.31,3.3,3.32,3.32,3.32,3.32,3.32,3.28,79.3,-1.0,1.0,0.0,1.0,1.0,6138721
1765224643797,0.0,0.0,2.0,25.0,0.0,0.0,0.0,0.0,0.0,0.0,-0.026718,0.0050019999999999995,0.991372,-0.6300000000000001,0.42000000000000004,-0.07,3.31,3.32,3.32,3.31,3.28,3.29,3.28,3.29,3.32,3.32,3.32,3.32,3.28,3.29,3.28,3.29,3.31,3.31,3.31,3.3,3.32,3.32,3.32,3.32,3.32,3.28,79.3,-1.0,1.0,0.0,1.0,1.0,6138771
1765224643814,0.0,0.0,2.0,25.0,0.0,0.0,0.0,0.0,0.0,0.0,-0.026718,0.0050019999999999995,0.991372,-0.7000000000000001,0.42000000000000004,-17.92,3.31,3.32,3.32,3.31,3.28,3.29,3.28,3.29,3.32,3.32,3.32,3.32,3.28,3.29,3.28,3.29,3.31,3.31,3.31,3.3,3.32,3.32,3.32,3.32,3.32,3.28,79.3,-1.0,1.0,0.0,1.0,1.0,6138788
1765224643831,0.0,0.0,2.0,25.0,0.0,0.0,0.0,0.0,0.0,0.0,-0.026718,0.0050019999999999995,0.991372,-0.7000000000000001,0.42000000000000004,-17.92,3.31,3.32,3.32,3.31,3.28,3.29,3.28,3.29,3.32,3.32,3.32,3.32,3.28,3.29,3.28,3.29,3.31,3.31,3.31,3.3,3.32,3.32,3.32,3.32,3.32,3.28,79.3,0.0,1.0,0.0,1.0,1.0,6138805
1765224643864,0.0,0.0,2.0,25.0,0.0,0.0,0.0,0.0,0.0,0.0,-0.026718,0.0050019999999999995,0.991372,-0.7000000000000001,0.42000000000000004,-17.92,3.31,3.32,3.32,3.31,3.28,3.29,3.28,3.29,3.32,3.32,3.32,3.32,3.28,3.29,3.28,3.29,3.31,3.31,3.31,3.3,3.32,3.32,3.32,3.32,3.32,3.28,79.3,0.0,1.0,0.0,1.0,1.0,6138838
1765224643880,0.0,0.0,2.0,25.0,0.0,0.0,0.0,0.0,0.0,0.0,-0.026718,0.0050019999999999995,0.991372,-0.7000000000000001,0.42000000000000004,-17.92,3.31,3.32,3.32,3.31,3.28,3.29,3.28,3.29,3.32,3.32,3.32,3.32,3.28,3.29,3.28,3.29,3.31,3.31,3.31,3.3,3.32,3.32,3.32,3.32,3.32,3.28,79.3,0.0,1.0,0.0,1.0,1.0,6138854
1765224643896,0.0,0.0,2.0,25.0,0.0,0.0,0.0,0.0,0.0,0.0,-0.026718,0.0050019999999999995,0.991372,-0.7000000000000001,0.42000000000000004,-17.92,3.31,3.32,3.32,3.31,3.28,3.29,3.28,3.29,3.32,3.32,3.32,3.32,3.28,3.29,3.28,3.29,3.31,3.31,3.31,3.3,3.32,3.32,3.32,3.32,3.32,3.28,79.3,0.0,1.0,0.0,1.0,1.0,6138870
1765224643913,0.0,0.0,2.0,25.0,0.0,0.0,0.0,0.0,0.0,0.0,-0.026718,0.0050019999999999995,0.991372,-0.7000000000000001,0.42000000000000004,-17.92,3.31,3.32,3.32,3.31,3.28,3.29,3.28,3.29,3.32,3.32,3.32,3.32,3.28,3.29,3.28,3.29,3.31,3.31,3.31,3.3,3.32,3.32,3.32,3.32,3.32,3.28,79.3,0.0,1.0,0.0,1.0,1.0,6138887
1765224643948,0.0,0.0,2.0,25.0,0.0,0.0,0.0,0.0,0.0,0.0,-0.026718,0.0050019999999999995,0.991372,-0.7000000000000001,0.42000000000000004,-17.92,3.31,3.32,3.32,3.31,3.28,3.29,3.28,3.29,3.32,3.32,3.32,3.32,3.28,3.29,3.28,3.29,3.31,3.31,3.31,3.3,3.32,3.32,3.32,3.32,3.32,3.28,79.3,0.0,1.0,0.0,1.0,1.0,6138922
1765224643995,0.0,0.0,2.0,25.0,0.0,0.0,0.0,0.0,0.0,0.0,-0.026718,0.0050019999999999995,0.991372,-0.7000000000000001,0.42000000000000004,-17.92,3.31,3.32,3.32,3.31,3.28,3.29,3.28,3.29,3.32,3.32,3.32,3.32,3.28,3.29,3.28,3.29,3.31,3.31,3.31,3.3,3.32,3.32,3.32,3.32,3.32,3.28,79.3,0.0,1.0,0.0,1.0,1.0,6138969
1765224644014,0.0,0.0,2.0,25.0,0.0,0.0,0.0,0.0,0.0,0.0,-0.024156,0.0064659999999999995,0.994422,-0.7000000000000001,0.42000000000000004,-17.92,3.31,3.32,3.32,3.31,3.28,3.29,3.28,3.29,3.32,3.32,3.32,3.32,3.28,3.29,3.28,3.29,3.31,3.31,3.31,3.3,3.32,3.32,3.32,3.32,3.32,3.28,79.3,0.0,1.0,0.0,1.0,1.0,6138988
1765224644081,0.0,0.0,2.0,25.0,0.0,0.0,0.0,0.0,0.0,0.0,-0.024156,0.0064659999999999995,0.994422,-0.7000000000000001,0.42000000000000004,-17.92,3.31,3.32,3.32,3.31,3.28,3.29,3.28,3.29,3.32,3.32,3.32,3.32,3.28,3.29,3.28,3.29,3.31,3.31,3.31,3.3,3.32,3.32,3.32,3.32,3.32,3.28,79.3,0.0,1.0,0.0,1.0,1.0,6139055
1765224644114,0.0,0.0,2.0,25.0,0.0,0.0,0.0,0.0,0.0,0.0,-0.024156,0.0064659999999999995,0.994422,-0.6300000000000001,0.49000000000000005,0.0,3.31,3.32,3.32,3.31,3.28,3.29,3.28,3.29,3.32,3.32,3.32,3.32,3.28,3.29,3.28,3.29,3.31,3.31,3.31,3.3,3.32,3.32,3.32,3.32,3.32,3.28,79.3,0.0,1.0,0.0,1.0,1.0,6139088
1765224644147,0.0,0.0,2.0,25.0,0.0,0.0,0.0,0.0,0.0,0.0,-0.024156,0.0064659999999999995,0.994422,-0.6300000000000001,0.49000000000000005,0.0,3.31,3.32,3.32,3.31,3.28,3.29,3.28,3.29,3.32,3.32,3.32,3.32,3.28,3.29,3.28,3.29,3.31,3.31,3.31,3.3,3.32,3.32,3.32,3.32,3.32,3.28,79.3,0.0,1.0,0.0,1.0,1.0,6139121
1765224644229,0.0,0.0,2.0,25.0,0.0,0.0,0.0,0.0,0.0,0.0,-0.025863999999999998,0.005978,0.993324,-0.6300000000000001,0.49000000000000005,0.0,3.31,3.32,3.32,3.31,3.28,3.29,3.28,3.29,3.32,3.32,3.32,3.32,3.28,3.29,3.28,3.29,3.31,3.31,3.31,3.3,3.32,3.32,3.32,3.32,3.32,3.28,79.3,0.0,1.0,0.0,1.0,1.0,6139203
1765224644246,0.0,0.0,2.0,25.0,0.0,0.0,0.0,0.0,0.0,0.0,-0.025863999999999998,0.005978,0.993324,-0.56,0.49000000000000005,0.0,3.31,3.32,3.32,3.31,3.28,3.29,3.28,3.29,3.32,3.32,3.32,3.32,3.28,3.29,3.28,3.29,3.31,3.31,3.31,3.3,3.32,3.32,3.32,3.32,3.32,3.28,79.3,0.0,1.0,0.0,1.0,1.0,6139220
1765224644296,0.0,0.0,2.0,25.0,0.0,0.0,0.0,0.0,0.0,0.0,-0.025863999999999998,0.005978,0.993324,-0.56,0.49000000000000005,0.0,3.31,3.32,3.32,3.31,3.28,3.29,3.28,3.29,3.32,3.32,3.32,3.32,3.28,3.29,3.28,3.29,3.31,3.31,3.31,3.3,3.32,3.32,3.32,3.32,3.32,3.28,79.3,0.0,1.0,0.0,1.0,1.0,6139270
1765224644330,0.0,0.0,2.0,25.0,0.0,0.0,0.0,0.0,0.0,0.0,-0.025863999999999998,0.005978,0.993324,-0.56,0.49000000000000005,0.0,3.31,3.32,3.32,3.31,3.28,3.29,3.28,3.29,3.32,3.32,3.32,3.32,3.28,3.29,3.28,3.29,3.31,3.31,3.31,3.3,3.32,3.32,3.32,3.32,3.32,3.28,79.3,0.0,1.0,0.0,1.0,1.0,6139304
1765224644347,0.0,0.0,2.0,25.0,0.0,0.0,0.0,0.0,0.0,0.0,-0.026108,0.005612,0.992958,-0.56,0.49000000000000005,0.0,3.31,3.32,3.32,3.31,3.28,3.29,3.28,3.29,3.32,3.32,3.32,3.32,3.28,3.29,3.28,3.29,3.31,3.31,3.31,3.3,3.32,3.32,3.32,3.32,3.32,3.28,79.3,0.0,1.0,0.0,1.0,1.0,6139321
1765224644364,0.0,0.0,2.0,25.0,0.0,0.0,0.0,0.0,0.0,0.0,-0.026108,0.005612,0.992958,-0.56,0.49000000000000005,0.0,3.31,3.32,3.32,3.31,3.28,3.29,3.28,3.29,3.32,3.32,3.32,3.32,3.28,3.29,3.28,3.29,3.31,3.31,3.31,3.3,3.32,3.32,3.32,3.32,3.32,3.28,79.3,0.0,1.0,0.0,1.0,1.0,6139338
1765224644395,0.0,0.0,2.0,25.0,0.0,0.0,0.0,0.0,0.0,0.0,-0.026108,0.005612,0.992958,-0.6300000000000001,0.42000000000000004,0.0,3.31,3.32,3.32,3.31,3.28,3.29,3.28,3.29,3.32,3.32,3.32,3.32,3.28,3.29,3.28,3.29,3.31,3.31,3.31,3.3,3.32,3.32,3.32,3.32,3.32,3.28,79.3,0.0,1.0,0.0,1.0,1.0,6139369
1765224644430,0.0,0.0,2.0,25.0,0.0,0.0,0.0,0.0,0.0,0.0,-0.026108,0.005612,0.992958,-0.6300000000000001,0.42000000000000004,0.0,3.31,3.32,3.32,3.31,3.28,3.29,3.28,3.29,3.32,3.32,3.32,3.32,3.28,3.29,3.28,3.29,3.31,3.31,3.31,3.3,3.32,3.32,3.32,3.32,3.32,3.28,79.3,0.0,1.0,0.0,1.0,1.0,6139404
1765224644514,0.0,0.0,2.0,25.0,0.0,0.0,0.0,0.0,0.0,0.0,-0.025376,0.005124,0.9922259999999999,-0.6300000000000001,0.42000000000000004,0.0,3.31,3.32,3.32,3.31,3.28,3.29,3.28,3.29,3.32,3.32,3.32,3.32,3.28,3.29,3.28,3.29,3.31,3.31,3.31,3.3,3.32,3.32,3.32,3.32,3.32,3.28,79.3,0.0,1.0,0.0,1.0,1.0,6139488
1765224644529,0.0,0.0,2.0,25.0,0.0,0.0,0.0,0.0,0.0,0.0,-0.025376,0.005124,0.9922259999999999,-0.7000000000000001,0.42000000000000004,-0.07,3.31,3.32,3.32,3.31,3.28,3.29,3.28,3.29,3.32,3.32,3.32,3.32,3.28,3.29,3.28,3.29,3.31,3.31,3.31,3.3,3.32,3.32,3.32,3.32,3.32,3.28,79.3,0.0,1.0,0.0,1.0,1.0,6139503
1765224644580,0.0,0.0,2.0,25.0,0.0,0.0,0.0,0.0,0.0,0.0,-0.025376,0.005124,0.9922259999999999,-0.7000000000000001,0.42000000000000004,-0.07,3.31,3.32,3.32,3.31,3.28,3.29,3.28,3.29,3.32,3.32,3.32,3.32,3.28,3.29,3.28,3.29,3.31,3.31,3.31,3.3,3.32,3.32,3.32,3.32,3.32,3.28,79.3,0.0,1.0,0.0,1.0,1.0,6139554
1765224644597,0.0,0.0,2.0,25.0,0.0,0.0,0.0,0.0,0.0,0.0,-0.025376,0.005124,0.9922259999999999,-0.7000000000000001,0.42000000000000004,-0.07,3.31,3.32,3.32,3.31,3.28,3.29,3.28,3.29,3.32,3.32,3.32,3.32,3.28,3.29,3.28,3.29,3.31,3.31,3.31,3.3,3.32,3.32,3.32,3.32,3.32,3.28,79.3,0.0,1.0,0.0,1.0,1.0,6139571
1765224644614,0.0,0.0,2.0,25.0,0.0,0.0,0.0,0.0,0.0,0.0,-0.025376,0.005124,0.9922259999999999,-0.7000000000000001,0.42000000000000004,-0.07,3.31,3.32,3.32,3.31,3.28,3.29,3.28,3.29,3.32,3.32,3.32,3.32,3.28,3.29,3.28,3.29,3.31,3.31,3.31,3.3,3.32,3.32,3.32,3.32,3.32,3.28,79.3,0.0,1.0,0.0,1.0,1.0,6139588
1765224644630,0.0,0.0,2.0,25.0,0.0,0.0,0.0,0.0,0.0,0.0,-0.025376,0.005124,0.9922259999999999,-0.7000000000000001,0.42000000000000004,-0.07,3.31,3.32,3.32,3.31,3.28,3.29,3.28,3.29,3.32,3.32,3.32,3.32,3.28,3.29,3.28,3.29,3.31,3.31,3.31,3.3,3.32,3.32,3.32,3.32,3.32,3.28,79.3,0.0,1.0,0.0,1.0,1.0,6139604
1765224644647,0.0,0.0,2.0,25.0,0.0,0.0,0.0,0.0,0.0,0.0,-0.025376,0.005124,0.9922259999999999,-0.7000000000000001,0.42000000000000004,-0.07,3.31,3.32,3.32,3.31,3.28,3.29,3.28,3.29,3.32,3.32,3.32,3.32,3.28,3.29,3.28,3.29,3.31,3.31,3.31,3.3,3.32,3.32,3.32,3.32,3.32,3.28,79.3,0.0,1.0,0.0,1.0,1.0,6139621
1765224644698,0.0,0.0,2.0,25.0,0.0,0.0,0.0,0.0,0.0,0.0,-0.026595999999999998,0.005246,0.9940559999999999,-0.7000000000000001,0.42000000000000004,-0.07,3.31,3.32,3.32,3.31,3.28,3.29,3.28,3.29,3.32,3.32,3.32,3.32,3.28,3.29,3.28,3.29,3.31,3.31,3.31,3.3,3.32,3.32,3.32,3.32,3.32,3.28,79.3,0.0,1.0,0.0,1.0,1.0,6139672
1765224644715,0.0,0.0,2.0,25.0,0.0,0.0,0.0,0.0,0.0,0.0,-0.026595999999999998,0.005246,0.9940559999999999,-0.56,0.21000000000000002,0.07,3.31,3.32,3.32,3.31,3.28,3.29,3.28,3.29,3.32,3.32,3.32,3.32,3.28,3.29,3.28,3.29,3.31,3.31,3.31,3.3,3.32,3.32,3.32,3.32,3.32,3.28,79.3,0.0,1.0,0.0,1.0,1.0,6139689
1765224644730,0.0,0.0,2.0,25.0,0.0,0.0,0.0,0.0,0.0,0.0,-0.026595999999999998,0.005246,0.9940559999999999,-0.56,0.21000000000000002,0.07,3.31,3.32,3.32,3.31,3.28,3.29,3.28,3.29,3.32,3.32,3.32,3.32,3.28,3.29,3.28,3.29,3.31,3.31,3.31,3.3,3.32,3.32,3.32,3.32,3.32,3.28,79.3,0.0,1.0,0.0,1.0,1.0,6139704
1765224644747,0.0,0.0,2.0,25.0,0.0,0.0,0.0,0.0,0.0,0.0,-0.026595999999999998,0.005246,0.9940559999999999,-0.56,0.21000000000000002,0.07,3.31,3.32,3.32,3.31,3.28,3.29,3.28,3.29,3.32,3.32,3.32,3.32,3.28,3.29,3.28,3.29,3.31,3.31,3.31,3.3,3.32,3.32,3.32,3.32,3.32,3.28,79.3,0.0,1.0,0.0,1.0,1.0,6139721
1765224644764,0.0,0.0,2.0,25.0,0.0,0.0,0.0,0.0,0.0,0.0,-0.026595999999999998,0.005246,0.9940559999999999,-0.56,0.21000000000000002,0.07,3.31,3.32,3.32,3.31,3.28,3.29,3.28,3.29,3.32,3.32,3.32,3.32,3.28,3.29,3.28,3.29,3.31,3.31,3.31,3.3,3.32,3.32,3.32,3.32,3.32,3.28,79.3,0.0,1.0,0.0,1.0,1.0,6139738
1765224644781,0.0,0.0,2.0,25.0,0.0,0.0,0.0,0.0,0.0,0.0,-0.026595999999999998,0.005246,0.9940559999999999,-0.56,0.21000000000000002,0.07,3.31,3.32,3.32,3.31,3.28,3.29,3.28,3.29,3.32,3.32,3.32,3.32,3.28,3.29,3.28,3.29,3.31,3.31,3.31,3.3,3.32,3.32,3.32,3.32,3.32,3.28,79.3,0.0,1.0,0.0,1.0,1.0,6139755
1765224644796,0.0,0.0,2.0,25.0,0.0,0.0,0.0,0.0,0.0,0.0,-0.026595999999999998,0.005246,0.9940559999999999,-0.56,0.21000000000000002,0.07,3.31,3.32,3.32,3.31,3.28,3.29,3.28,3.29,3.32,3.32,3.32,3.32,3.28,3.29,3.28,3.29,3.31,3.31,3.31,3.3,3.32,3.32,3.32,3.32,3.32,3.28,79.3,0.0,1.0,0.0,1.0,1.0,6139770
1765224644813,0.0,0.0,2.0,25.0,0.0,0.0,0.0,0.0,0.0,0.0,-0.026595999999999998,0.005246,0.9940559999999999,-0.56,0.21000000000000002,0.07,3.31,3.32,3.32,3.31,3.28,3.29,3.29,3.29,3.32,3.32,3.32,3.32,3.28,3.29,3.28,3.29,3.31,3.31,3.31,3.3,3.32,3.32,3.32,3.32,3.32,3.28,79.3,0.0,1.0,0.0,1.0,1.0,6139787
1765224644831,0.0,0.0,2.0,25.0,0.0,0.0,0.0,0.0,0.0,0.0,-0.026595999999999998,0.005246,0.9940559999999999,-0.56,0.21000000000000002,0.07,3.31,3.32,3.32,3.31,3.28,3.29,3.29,3.29,3.32,3.32,3.32,3.32,3.28,3.29,3.28,3.29,3.31,3.31,3.31,3.3,3.32,3.32,3.32,3.32,3.32,3.28,79.3,0.0,1.0,0.0,1.0,1.0,6139805
1765224644847,0.0,0.0,2.0,25.0,0.0,0.0,0.0,0.0,0.0,0.0,-0.026595999999999998,0.005246,0.9940559999999999,-0.56,0.21000000000000002,0.07,3.31,3.32,3.32,3.31,3.28,3.29,3.29,3.29,3.32,3.32,3.32,3.32,3.28,3.29,3.28,3.29,3.31,3.31,3.31,3.3,3.32,3.32,3.32,3.32,3.32,3.28,79.3,0.0,1.0,0.0,1.0,1.0,6139821
1765224644864,0.0,0.0,2.0,25.0,0.0,0.0,0.0,0.0,0.0,0.0,-0.026595999999999998,0.005246,0.9940559999999999,-0.56,0.21000000000000002,0.07,3.31,3.32,3.32,3.31,3.28,3.29,3.29,3.29,3.32,3.32,3.32,3.32,3.28,3.29,3.28,3.29,3.31,3.31,3.31,3.3,3.32,3.32,3.32,3.32,3.32,3.28,79.3,0.0,1.0,0.0,1.0,1.0,6139838
1765224644895,0.0,0.0,2.0,25.0,0.0,0.0,0.0,0.0,0.0,0.0,-0.026595999999999998,0.005246,0.9940559999999999,-0.56,0.21000000000000002,0.07,3.31,3.32,3.32,3.31,3.28,3.29,3.29,3.29,3.32,3.32,3.32,3.32,3.28,3.29,3.28,3.29,3.31,3.31,3.31,3.3,3.32,3.32,3.32,3.32,3.32,3.28,79.3,0.0,1.0,0.0,1.0,1.0,6139869
1765224644913,0.0,0.0,2.0,25.0,0.0,0.0,0.0,0.0,0.0,0.0,-0.026595999999999998,0.005246,0.9940559999999999,-0.56,0.21000000000000002,0.07,3.31,3.32,3.32,3.31,3.28,3.29,3.29,3.29,3.32,3.32,3.32,3.32,3.28,3.29,3.28,3.29,3.31,3.31,3.31,3.3,3.32,3.32,3.32,3.32,3.32,3.28,79.3,0.0,1.0,0.0,1.0,1.0,6139887
1765224644929,0.0,0.0,2.0,25.0,0.0,0.0,0.0,0.0,0.0,0.0,-0.026595999999999998,0.005246,0.9940559999999999,-0.56,0.21000000000000002,0.07,3.31,3.32,3.32,3.31,3.28,3.29,3.29,3.29,3.32,3.32,3.32,3.32,3.28,3.29,3.28,3.29,3.31,3.31,3.31,3.3,3.32,3.32,3.32,3.32,3.32,3.28,79.3,0.0,1.0,0.0,1.0,1.0,6139903
1765224644995,0.0,0.0,2.0,25.0,0.0,0.0,0.0,0.0,0.0,0.0,-0.027938,0.0050019999999999995,0.99247,-0.56,0.21000000000000002,0.07,3.31,3.32,3.32,3.31,3.28,3.29,3.29,3.29,3.32,3.32,3.32,3.32,3.28,3.29,3.28,3.29,3.31,3.31,3.31,3.3,3.32,3.32,3.32,3.32,3.32,3.28,79.3,0.0,1.0,0.0,1.0,1.0,6139969
1765224645013,0.0,0.0,2.0,25.0,0.0,0.0,0.0,0.0,0.0,0.0,-0.027938,0.0050019999999999995,0.99247,-0.7000000000000001,0.49000000000000005,0.0,3.31,3.32,3.32,3.31,3.28,3.29,3.29,3.29,3.32,3.32,3.32,3.32,3.28,3.29,3.28,3.29,3.31,3.31,3.31,3.3,3.32,3.32,3.32,3.32,3.32,3.28,79.3,0.0,1.0,0.0,1.0,1.0,6139987
1765224645064,0.0,0.0,2.0,25.0,0.0,0.0,0.0,0.0,0.0,0.0,-0.027938,0.0050019999999999995,0.99247,-0.7000000000000001,0.49000000000000005,0.0,3.31,3.32,3.32,3.31,3.28,3.29,3.29,3.29,3.32,3.32,3.32,3.32,3.28,3.29,3.28,3.29,3.31,3.31,3.31,3.3,3.32,3.32,3.32,3.32,3.32,3.28,79.3,0.0,1.0,0.0,1.0,1.0,6140038
1765224645080,0.0,0.0,2.0,25.0,0.0,0.0,0.0,0.0,0.0,0.0,-0.027938,0.0050019999999999995,0.99247,-0.7000000000000001,0.49000000000000005,0.0,3.31,3.32,3.32,3.31,3.28,3.29,3.29,3.29,3.32,3.32,3.32,3.32,3.28,3.29,3.28,3.29,3.31,3.31,3.31,3.3,3.32,3.32,3.32,3.32,3.32,3.28,79.3,0.0,1.0,0.0,1.0,1.0,6140054
1765224645098,0.0,0.0,2.0,25.0,0.0,0.0,0.0,0.0,0.0,0.0,-0.025742,0.0037819999999999998,0.991738,-0.7000000000000001,0.49000000000000005,0.0,3.31,3.32,3.32,3.31,3.28,3.29,3.29,3.29,3.32,3.32,3.32,3.32,3.28,3.29,3.28,3.29,3.31,3.31,3.31,3.3,3.32,3.32,3.32,3.32,3.32,3.28,79.3,0.0,1.0,0.0,1.0,1.0,6140072
1765224645113,0.0,0.0,2.0,25.0,0.0,0.0,0.0,0.0,0.0,0.0,-0.025742,0.0037819999999999998,0.991738,-0.7000000000000001,0.49000000000000005,0.0,3.31,3.32,3.32,3.31,3.28,3.29,3.29,3.29,3.32,3.32,3.32,3.32,3.28,3.29,3.28,3.29,3.31,3.31,3.31,3.3,3.32,3.32,3.32,3.32,3.32,3.28,79.3,0.0,1.0,0.0,1.0,1.0,6140087
1765224645146,0.0,0.0,2.0,25.0,0.0,0.0,0.0,0.0,0.0,0.0,-0.025742,0.0037819999999999998,0.991738,-0.7000000000000001,0.49000000000000005,0.0,3.31,3.32,3.32,3.31,3.28,3.29,3.29,3.29,3.32,3.32,3.32,3.32,3.28,3.29,3.28,3.29,3.31,3.31,3.31,3.3,3.32,3.32,3.32,3.32,3.32,3.28,79.3,0.0,1.0,0.0,1.0,1.0,6140120
1765224645162,0.0,0.0,2.0,25.0,0.0,0.0,0.0,0.0,0.0,0.0,-0.025742,0.0037819999999999998,0.991738,-0.7000000000000001,0.35000000000000003,-0.07,3.31,3.32,3.32,3.31,3.28,3.29,3.29,3.29,3.32,3.32,3.32,3.32,3.28,3.29,3.28,3.29,3.31,3.31,3.31,3.3,3.32,3.32,3.32,3.32,3.32,3.28,79.3,0.0,1.0,0.0,1.0,1.0,6140136
1765224645213,0.0,0.0,2.0,25.0,0.0,0.0,0.0,0.0,0.0,0.0,-0.025742,0.0037819999999999998,0.991738,-0.7000000000000001,0.35000000000000003,-0.07,3.31,3.32,3.32,3.31,3.28,3.29,3.29,3.29,3.32,3.32,3.32,3.32,3.28,3.29,3.28,3.29,3.31,3.31,3.31,3.3,3.32,3.32,3.32,3.32,3.32,3.28,79.3,0.0,1.0,0.0,1.0,1.0,6140187
1765224645329,0.0,0.0,2.0,25.0,0.0,0.0,0.0,0.0,0.0,0.0,-0.025742,0.0037819999999999998,0.991738,-0.7000000000000001,0.35000000000000003,-0.07,3.31,3.32,3.32,3.31,3.28,3.29,3.29,3.29,3.32,3.32,3.32,3.32,3.28,3.29,3.28,3.29,3.31,3.31,3.31,3.3,3.32,3.32,3.32,3.32,3.32,3.28,79.3,0.0,1.0,0.0,1.0,1.0,6140303
1765224645345,0.0,0.0,2.0,25.0,0.0,0.0,0.0,0.0,0.0,0.0,-0.025742,0.0037819999999999998,0.991738,-0.6300000000000001,0.35000000000000003,0.0,3.31,3.32,3.32,3.31,3.28,3.29,3.29,3.29,3.32,3.32,3.32,3.32,3.28,3.29,3.28,3.29,3.31,3.31,3.31,3.3,3.32,3.32,3.32,3.32,3.32,3.28,79.3,0.0,1.0,0.0,1.0,1.0,6140319
1765224645429,0.0,0.0,2.0,25.0,0.0,0.0,0.0,0.0,0.0,0.0,-0.026595999999999998,0.005246,0.992592,-0.6300000000000001,0.35000000000000003,0.0,3.31,3.32,3.32,3.31,3.28,3.29,3.29,3.29,3.32,3.32,3.32,3.32,3.28,3.29,3.28,3.29,3.31,3.31,3.31,3.3,3.32,3.32,3.32,3.32,3.32,3.28,79.3,0.0,1.0,0.0,1.0,1.0,6140403
1765224645445,0.0,0.0,2.0,25.0,0.0,0.0,0.0,0.0,0.0,0.0,-0.026595999999999998,0.005246,0.992592,-0.6300000000000001,0.42000000000000004,-0.07,3.31,3.32,3.32,3.31,3.28,3.29,3.29,3.29,3.32,3.32,3.32,3.32,3.28,3.29,3.28,3.29,3.31,3.31,3.31,3.3,3.32,3.32,3.32,3.32,3.32,3.28,79.3,0.0,1.0,0.0,1.0,1.0,6140419
1765224645479,0.0,0.0,2.0,25.0,0.0,0.0,0.0,0.0,0.0,0.0,-0.026595999999999998,0.005246,0.992592,-0.6300000000000001,0.42000000000000004,-0.07,3.31,3.32,3.32,3.31,3.28,3.29,3.29,3.29,3.32,3.32,3.32,3.32,3.28,3.29,3.28,3.29,3.31,3.31,3.31,3.3,3.32,3.32,3.32,3.32,3.32,3.28,79.3,0.0,1.0,0.0,1.0,1.0,6140453
1765224645496,0.0,0.0,2.0,25.0,0.0,0.0,0.0,0.0,0.0,0.0,-0.026595999999999998,0.005246,0.992592,-0.6300000000000001,0.42000000000000004,-0.07,3.31,3.32,3.32,3.31,3.28,3.29,3.29,3.29,3.32,3.32,3.32,3.32,3.28,3.29,3.28,3.29,3.31,3.31,3.31,3.3,3.32,3.32,3.32,3.32,3.32,3.28,79.3,0.0,1.0,0.0,1.0,1.0,6140470
1765224645512,0.0,0.0,2.0,25.0,0.0,0.0,0.0,0.0,0.0,0.0,-0.026595999999999998,0.005246,0.992592,-0.6300000000000001,0.42000000000000004,-0.07,3.31,3.32,3.32,3.31,3.28,3.29,3.29,3.29,3.32,3.32,3.32,3.32,3.28,3.29,3.28,3.29,3.31,3.31,3.31,3.3,3.32,3.32,3.32,3.32,3.32,3.28,79.3,0.0,1.0,0.0,1.0,1.0,6140486
1765224645530,0.0,0.0,2.0,25.0,0.0,0.0,0.0,0.0,0.0,0.0,-0.026595999999999998,0.005246,0.992592,-0.6300000000000001,0.42000000000000004,-0.07,3.31,3.32,3.32,3.31,3.28,3.29,3.29,3.29,3.32,3.32,3.32,3.32,3.28,3.29,3.28,3.29,3.31,3.31,3.31,3.3,3.32,3.32,3.32,3.32,3.32,3.28,79.3,0.0,1.0,0.0,1.0,1.0,6140504
1765224645545,0.0,0.0,2.0,25.0,0.0,0.0,0.0,0.0,0.0,0.0,-0.026595999999999998,0.005246,0.992592,-0.6300000000000001,0.42000000000000004,-0.07,3.31,3.32,3.32,3.31,3.28,3.29,3.29,3.29,3.32,3.32,3.32,3.32,3.28,3.29,3.28,3.29,3.31,3.31,3.31,3.3,3.32,3.32,3.32,3.32,3.32,3.28,79.3,0.0,1.0,0.0,1.0,1.0,6140519
1765224645612,0.0,0.0,2.0,25.0,0.0,0.0,0.0,0.0,0.0,0.0,-0.026108,0.004026,0.9916159999999999,-0.6300000000000001,0.42000000000000004,-0.07,3.31,3.32,3.32,3.31,3.28,3.29,3.29,3.29,3.32,3.32,3.32,3.32,3.28,3.29,3.28,3.29,3.31,3.31,3.31,3.3,3.32,3.32,3.32,3.32,3.32,3.28,79.3,0.0,1.0,0.0,1.0,1.0,6140586
1765224645663,0.0,0.0,2.0,25.0,0.0,0.0,0.0,0.0,0.0,0.0,-0.026108,0.004026,0.9916159999999999,-0.6300000000000001,0.28,0.07,3.31,3.32,3.32,3.31,3.28,3.29,3.29,3.29,3.32,3.32,3.32,3.32,3.28,3.29,3.28,3.29,3.31,3.31,3.31,3.3,3.32,3.32,3.32,3.32,3.32,3.28,79.3,0.0,1.0,0.0,1.0,1.0,6140637
1765224645698,0.0,0.0,2.0,25.0,0.0,0.0,0.0,0.0,0.0,0.0,-0.026108,0.004026,0.9916159999999999,-0.6300000000000001,0.28,0.07,3.31,3.32,3.32,3.31,3.28,3.29,3.29,3.29,3.32,3.32,3.32,3.32,3.28,3.29,3.28,3.29,3.31,3.31,3.31,3.3,3.32,3.32,3.32,3.32,3.32,3.28,79.3,0.0,1.0,0.0,1.0,1.0,6140672
1765224645715,0.0,0.0,2.0,25.0,0.0,0.0,0.0,0.0,0.0,0.0,-0.026108,0.004026,0.9916159999999999,-0.6300000000000001,0.28,0.07,3.31,3.32,3.32,3.31,3.28,3.29,3.29,3.29,3.32,3.32,3.32,3.32,3.28,3.29,3.28,3.29,3.31,3.31,3.31,3.3,3.32,3.32,3.32,3.32,3.32,3.28,79.3,0.0,1.0,0.0,1.0,1.0,6140689
1765224645762,0.0,0.0,2.0,25.0,0.0,0.0,0.0,0.0,0.0,0.0,-0.026474,0.0053679999999999995,0.99369,-0.6300000000000001,0.28,0.07,3.31,3.32,3.32,3.31,3.28,3.29,3.29,3.29,3.32,3.32,3.32,3.32,3.28,3.29,3.28,3.29,3.31,3.31,3.31,3.3,3.32,3.32,3.32,3.32,3.32,3.28,79.3,0.0,1.0,0.0,1.0,1.0,6140736
1765224645780,0.0,0.0,2.0,25.0,0.0,0.0,0.0,0.0,0.0,0.0,-0.026474,0.0053679999999999995,0.99369,-0.7000000000000001,0.49000000000000005,0.0,3.31,3.32,3.32,3.31,3.28,3.29,3.29,3.29,3.32,3.32,3.32,3.32,3.28,3.29,3.28,3.29,3.31,3.31,3.31,3.3,3.32,3.32,3.32,3.32,3.32,3.28,79.3,0.0,1.0,0.0,1.0,1.0,6140754
1765224645814,60.0,0.0,2.0,25.0,0.0,0.0,0.0,0.0,0.0,0.0,-0.026474,0.0053679999999999995,0.99369,-0.7000000000000001,0.49000000000000005,0.0,3.31,3.32,3.32,3.31,3.28,3.29,3.29,3.29,3.32,3.32,3.32,3.32,3.28,3.29,3.28,3.29,3.31,3.31,3.31,3.3,3.32,3.32,3.32,3.32,3.32,3.28,79.3,0.0,1.0,0.0,1.0,1.0,6140788
1765224645831,60.0,0.0,2.0,25.0,0.0,0.0,0.0,0.0,0.0,0.0,-0.026474,0.0053679999999999995,0.99369,-0.7000000000000001,0.49000000000000005,0.0,3.31,3.32,3.32,3.31,3.28,3.29,3.29,3.29,3.32,3.32,3.32,3.32,3.28,3.29,3.28,3.29,3.31,3.31,3.31,3.3,3.32,3.32,3.32,3.32,3.32,3.28,79.3,0.0,1.0,0.0,1.0,1.0,6140805
1765224645847,60.0,0.0,2.0,25.0,0.0,0.0,0.0,0.0,0.0,0.0,-0.026474,0.0053679999999999995,0.99369,-0.7000000000000001,0.49000000000000005,0.0,3.31,3.32,3.32,3.31,3.28,3.29,3.29,3.29,3.32,3.32,3.32,3.32,3.28,3.29,3.28,3.29,3.31,3.31,3.31,3.3,3.32,3.32,3.32,3.32,3.32,3.28,79.3,0.0,1.0,0.0,1.0,1.0,6140821
1765224645881,60.0,0.0,2.0,25.0,0.0,0.0,0.0,0.0,0.0,0.0,-0.026474,0.0053679999999999995,0.99369,-0.7000000000000001,0.49000000000000005,0.0,3.31,3.32,3.32,3.31,3.28,3.29,3.29,3.29,3.32,3.32,3.32,3.32,3.28,3.29,3.28,3.29,3.31,3.31,3.31,3.3,3.32,3.32,3.32,3.32,3.32,3.28,79.3,0.0,1.0,0.0,1.0,1.0,6140855
1765224645930,132.0,0.0,2.0,25.0,0.0,0.0,0.0,0.0,0.0,0.0,-0.026474,0.0053679999999999995,0.99369,-0.7000000000000001,0.49000000000000005,0.0,3.31,3.32,3.32,3.31,3.28,3.29,3.29,3.29,3.32,3.32,3.32,3.32,3.28,3.29,3.28,3.29,3.31,3.31,3.31,3.3,3.32,3.32,3.32,3.32,3.32,3.28,79.3,0.0,1.0,0.0,1.0,1.0,6140904
1765224645947,132.0,0.0,2.0,25.0,330.0,330.0,0.0,0.0,0.0,0.0,-0.026474,0.0053679999999999995,0.99369,-0.7000000000000001,0.49000000000000005,0.0,3.31,3.32,3.32,3.31,3.28,3.29,3.29,3.29,3.32,3.32,3.32,3.32,3.28,3.29,3.28,3.29,3.31,3.31,3.31,3.3,3.32,3.32,3.32,3.32,3.32,3.28,79.3,0.0,1.0,0.0,1.0,1.0,6140921
1765224645964,132.0,0.0,2.0,25.0,330.0,330.0,0.0,0.0,0.011040128571428571,0.0,-0.026474,0.0053679999999999995,0.99369,-0.7000000000000001,0.49000000000000005,0.0,3.31,3.32,3.32,3.31,3.28,3.29,3.29,3.29,3.32,3.32,3.32,3.32,3.28,3.29,3.28,3.29,3.31,3.31,3.31,3.3,3.32,3.32,3.32,3.32,3.32,3.28,79.3,0.0,1.0,0.0,1.0,1.0,6140938
1765224645981,132.0,0.0,2.0,25.0,330.0,330.0,0.0,0.0,0.011040128571428571,0.0,-0.026718,0.006588,0.993568,-0.7000000000000001,0.49000000000000005,0.0,3.31,3.32,3.32,3.31,3.28,3.29,3.29,3.29,3.32,3.32,3.32,3.32,3.28,3.29,3.28,3.29,3.31,3.31,3.31,3.3,3.32,3.32,3.32,3.32,3.32,3.28,79.3,0.0,1.0,0.0,1.0,1.0,6140955
1765224645997,132.0,0.0,2.0,25.0,330.0,330.0,0.011040128571428571,0.0,0.011040128571428571,0.0,-0.026718,0.006588,0.993568,-0.7000000000000001,0.49000000000000005,0.0,3.31,3.32,3.32,3.31,3.28,3.29,3.29,3.29,3.32,3.32,3.32,3.32,3.28,3.29,3.28,3.29,3.31,3.31,3.31,3.3,3.32,3.32,3.32,3.32,3.32,3.28,79.3,0.0,1.0,0.0,1.0,1.0,6140971
1765224646047,132.0,0.0,2.0,25.0,330.0,330.0,0.011040128571428571,0.0,0.011040128571428571,0.0,-0.026718,0.006588,0.993568,-0.7000000000000001,0.42000000000000004,-0.07,3.31,3.32,3.32,3.31,3.28,3.29,3.29,3.29,3.32,3.32,3.32,3.32,3.28,3.29,3.28,3.29,3.31,3.31,3.31,3.3,3.32,3.32,3.32,3.32,3.32,3.28,79.3,0.0,1.0,0.0,1.0,1.0,6141021
1765224646064,132.0,0.0,2.0,25.0,330.0,330.0,0.011040128571428571,0.0,0.011040128571428571,0.0,-0.026718,0.006588,0.993568,-0.7000000000000001,0.42000000000000004,-0.07,3.31,3.32,3.32,3.31,3.28,3.29,3.29,3.29,3.32,3.32,3.32,3.32,3.28,3.29,3.28,3.29,3.31,3.31,3.31,3.3,3.32,3.32,3.32,3.32,3.32,3.28,79.3,0.0,1.0,0.0,1.0,1.0,6141038
1765224646147,132.0,0.0,2.0,25.0,330.0,330.0,0.011040128571428571,0.0,0.011040128571428571,0.0,-0.025131999999999998,0.0042699999999999995,0.99186,-0.7000000000000001,0.42000000000000004,-0.07,3.31,3.32,3.32,3.31,3.28,3.29,3.29,3.29,3.32,3.32,3.32,3.32,3.28,3.29,3.28,3.29,3.31,3.31,3.31,3.3,3.32,3.32,3.32,3.32,3.32,3.28,79.3,0.0,1.0,0.0,1.0,1.0,6141121
1765224646181,132.0,0.0,2.0,25.0,330.0,330.0,0.011040128571428571,0.0,0.011040128571428571,0.0,-0.025131999999999998,0.0042699999999999995,0.99186,-0.6300000000000001,0.42000000000000004,0.07,3.31,3.32,3.32,3.31,3.28,3.29,3.29,3.29,3.32,3.32,3.32,3.32,3.28,3.29,3.28,3.29,3.31,3.31,3.31,3.3,3.32,3.32,3.32,3.32,3.32,3.28,79.3,0.0,1.0,0.0,1.0,1.0,6141155
