timestamp,THROTTLE,BRAKE,ECU_MODE_ID,TORQUE_GAIN,TORQUE_REF_LEFT_MOTOR,TORQUE_REF_RIGHT_MOTOR,LEFT_MOTOR_SPEED,RIGHT_MOTOR_SPEED,REAR_LEFT_WHEEL_SPEED,REAR_RIGHT_WHEEL_SPEED,ACCEL_LONGITUDINAL,ACCEL_LATERAL,ACCEL_NORMAL,VEL_ANGULAR_YAW,VEL_ANGULAR_PITCH,VEL_ANGULAR_ROLL,STACK_1_CELL_1,STACK_1_CELL_2,STACK_1_CELL_3,STACK_1_CELL_4,STACK_2_CELL_1,STACK_2_CELL_2,STACK_2_CELL_3,STACK_2_CELL_4,STACK_3_CELL_1,STACK_3_CELL_2,STACK_3_CELL_3,STACK_3_CELL_4,STACK_4_CELL_1,STACK_4_CELL_2,STACK_4_CELL_3,STACK_4_CELL_4,STACK_5_CELL_1,STACK_5_CELL_2,STACK_5_CELL_3,STACK_5_CELL_4,STACK_6_CELL_1,STACK_6_CELL_2,STACK_6_CELL_3,STACK_6_CELL_4,MAX_VOLTAGE,MIN_VOLTAGE,TOTAL_VOLTAGE,SHUNT_CURRENT,BMS_MODE_ID,BMS_ERROR_ID,AIR_P,AIR_N,t,LEFT_MOTOR_RPM,RIGHT_MOTOR_RPM
1765224640014,0.0,0.0,0.0,0.0,0.0,0.0,37.56955752857143,36.55386570000001,37.56955752857143,36.55386570000001,-0.026108,0.004392,0.99308,-0.77,-0.6300000000000001,-0.9100000000000001,3.29,3.31,3.28,3.28,3.27,3.27,3.27,3.27,3.3,3.3,3.3,3.29,3.27,3.27,3.27,3.29,3.29,3.29,3.28,3.28,3.3,3.31,3.3,3.29,3.31,3.26,78.8,-45.0,1.0,2.0,0.0,0.0,6134988,3403.0,3311.0
1765224640032,0.0,0.0,0.0,0.0,0.0,0.0,37.56955752857143,0.0,37.56955752857143,36.55386570000001,-0.026108,0.004392,0.99308,-0.77,-0.6300000000000001,-0.9100000000000001,3.29,3.31,3.28,3.28,3.27,3.27,3.27,3.27,3.3,3.3,3.3,3.29,3.27,3.27,3.27,3.29,3.29,3.29,3.28,3.28,3.3,3.31,3.3,3.29,3.31,3.26,78.8,-45.0,1.0,2.0,0.0,0.0,6135006,3403.0,0.0
1765224640065,0.0,0.0,0.0,0.0,0.0,0.0,37.56955752857143,0.0,37.56955752857143,36.55386570000001,-0.026108,0.004392,0.99308,-0.7000000000000001,0.42000000000000004,0.0,3.29,3.31,3.28,3.28,3.27,3.27,3.27,3.27,3.3,3.3,3.3,3.29,3.27,3.27,3.27,3.29,3.29,3.29,3.28,3.28,3.3,3.31,3.3,3.29,3.31,3.26,78.8,-45.0,1.0,2.0,0.0,0.0,6135039,3403.0,0.0
1765224640145,0.0,0.0,0.0,0.0,0.0,0.0,37.56955752857143,0.0,37.56955752857143,36.55386570000001,-0.026108,0.004392,0.99308,-0.7000000000000001,0.42000000000000004,0.0,3.29,3.31,3.28,3.28,3.27,3.27,3.27,3.27,3.3,3.3,3.3,3.29,3.27,3.27,3.27,3.29,3.29,3.29,3.28,3.28,3.3,3.31,3.3,3.29,3.32,3.28,79.3,0.0,1.0,2.0,0.0,0.0,6135119,3403.0,0.0
1765224640181,0.0,0.0,0.0,0.0,0.0,0.0,37.56955752857143,0.0,37.56955752857143,36.55386570000001,-0.026108,0.004392,0.99308,-0.7000000000000001,0.42000000000000004,0.0,3.29,3.31,3.28,3.28,3.27,3.27,3.27,3.27,3.3,3.3,3.3,3.29,3.27,3.27,3.27,3.29,3.29,3.29,3.28,3.28,3.3,3.31,3.3,3.29,3.32,3.28,79.3,0.0,1.0,0.0,1.0,1.0,6135155,3403.0,0.0
1765224640198,0.0,0.0,0.0,0.0,0.0,0.0,37.56955752857143,0.0,37.56955752857143,36.55386570000001,-0.024888,0.005978,0.992958,-0.7000000000000001,0.28,0.0,3.29,3.31,3.28,3.28,3.27,3.27,3.27,3.27,3.3,3.3,3.3,3.29,3.27,3.27,3.27,3.29,3.29,3.29,3.28,3.28,3.3,3.31,3.3,3.29,3.32,3.28,79.3,0.0,1.0,0.0,1.0,1.0,6135172,3403.0,0.0
1765224640230,0.0,0.0,0.0,0.0,0.0,0.0,37.56955752857143,0.0,37.56955752857143,36.55386570000001,-0.024888,0.005978,0.992958,-0.7000000000000001,0.28,0.0,3.29,3.31,3.28,3.28,3.27,3.27,3.27,3.27,3.3,3.3,3.3,3.29,3.27,3.27,3.27,3.29,3.29,3.29,3.28,3.28,3.3,3.31,3.3,3.29,3.32,3.28,79.3,0.0,1.0,0.0,1.0,1.0,6135204,3403.0,0.0
1765224640247,0.0,0.0,2.0,25.0,0.0,0.0,37.56955752857143,0.0,37.56955752857143,36.55386570000001,-0.024888,0.005978,0.992958,-0.7000000000000001,0.28,0.0,3.29,3.31,3.28,3.28,3.27,3.27,3.27,3.27,3.3,3.3,3.3,3.29,3.27,3.27,3.27,3.29,3.29,3.29,3.28,3.28,3.3,3.31,3.3,3.29,3.32,3.28,79.3,0.0,1.0,0.0,1.0,1.0,6135221,3403.0,0.0
1765224640264,0.0,0.0,2.0,25.0,0.0,0.0,37.56955752857143,0.0,37.56955752857143,36.55386570000001,-0.024888,0.005978,0.992958,-0.7000000000000001,0.28,0.0,3.29,3.31,3.28,3.28,3.27,3.27,3.27,3.27,3.3,3.3,3.3,3.29,3.27,3.27,3.27,3.29,3.29,3.29,3.28,3.28,3.3,3.31,3.3,3.29,3.32,3.28,79.3,0.0,1.0,0.0,1.0,1.0,6135238,3403.0,0.0
1765224640280,0.0,0.0,2.0,25.0,0.0,0.0,37.56955752857143,0.0,0.0,0.0,-0.024888,0.005978,0.992958,-0.7000000000000001,0.28,0.0,3.29,3.31,3.28,3.28,3.27,3.27,3.27,3.27,3.3,3.3,3.3,3.29,3.27,3.27,3.27,3.29,3.29,3.29,3.28,3.28,3.3,3.31,3.3,3.29,3.32,3.28,79.3,0.0,1.0,0.0,1.0,1.0,6135254,3403.0,0.0
1765224640317,0.0,0.0,2.0,25.0,0.0,0.0,0.0,0.0,0.0,0.0,-0.024888,0.005978,0.992958,-0.7000000000000001,0.28,0.0,3.29,3.31,3.28,3.28,3.27,3.27,3.27,3.27,3.3,3.3,3.3,3.29,3.27,3.27,3.27,3.29,3.29,3.29,3.28,3.28,3.3,3.31,3.3,3.29,3.32,3.28,79.3,0.0,1.0,0.0,1.0,1.0,6135291,0.0,0.0
1765224640364,0.0,0.0,2.0,25.0,0.0,0.0,0.0,0.0,0.0,0.0,-0.024888,0.005978,0.992958,-0.7000000000000001,0.28,0.0,3.29,3.31,3.28,3.28,3.27,3.27,3.27,3.27,3.3,3.3,3.3,3.29,3.27,3.27,3.27,3.29,3.29,3.29,3.28,3.28,3.3,3.31,3.3,3.29,3.32,3.28,79.3,0.0,1.0,0.0,1.0,1.0,6135338,0.0,0.0
1765224640381,0.0,0.0,2.0,25.0,0.0,0.0,0.0,0.0,0.0,0.0,-0.025498,0.005612,0.992348,-0.7000000000000001,0.28,0.0,3.29,3.31,3.28,3.28,3.27,3.27,3.27,3.27,3.3,3.3,3.3,3.29,3.27,3.27,3.27,3.29,3.29,3.29,3.28,3.28,3.3,3.31,3.3,3.29,3.32,3.28,79.3,0.0,1.0,0.0,1.0,1.0,6135355,0.0,0.0
1765224640414,0.0,0.0,2.0,25.0,0.0,0.0,0.0,0.0,0.0,0.0,-0.025498,0.005612,0.992348,-0.6300000000000001,0.28,0.0,3.29,3.31,3.28,3.28,3.27,3.27,3.27,3.27,3.3,3.3,3.3,3.29,3.27,3.27,3.27,3.29,3.29,3.29,3.28,3.28,3.3,3.31,3.3,3.29,3.32,3.28,79.3,0.0,1.0,0.0,1.0,1.0,6135388,0.0,0.0
1765224640430,0.0,0.0,2.0,25.0,0.0,0.0,0.0,0.0,0.0,0.0,-0.026718,0.004514,0.993812,-0.6300000000000001,0.28,0.0,3.29,3.31,3.28,3.28,3.27,3.27,3.27,3.27,3.3,3.3,3.3,3.29,3.27,3.27,3.27,3.29,3.29,3.29,3.28,3.28,3.3,3.31,3.3,3.29,3.32,3.28,79.3,0.0,1.0,0.0,1.0,1.0,6135404,0.0,0.0
1765224640464,0.0,0.0,2.0,25.0,0.0,0.0,0.0,0.0,0.0,0.0,-0.026718,0.004514,0.993812,-0.6300000000000001,0.28,0.0,3.29,3.31,3.28,3.28,3.27,3.27,3.27,3.27,3.3,3.3,3.3,3.29,3.27,3.27,3.27,3.29,3.29,3.29,3.28,3.28,3.3,3.31,3.3,3.29,3.32,3.28,79.3,0.0,1.0,0.0,1.0,1.0,6135438,0.0,0.0
1765224640481,0.0,0.0,2.0,25.0,0.0,0.0,0.0,0.0,0.0,0.0,-0.026718,0.004514,0.993812,-0.6300000000000001,0.42000000000000004,-0.07,3.29,3.31,3.28,3.28,3.27,3.27,3.27,3.27,3.3,3.3,3.3,3.29,3.27,3.27,3.27,3.29,3.29,3.29,3.28,3.28,3.3,3.31,3.3,3.29,3.32,3.28,79.3,0.0,1.0,0.0,1.0,1.0,6135455,0.0,0.0
1765224640514,0.0,0.0,2.0,25.0,0.0,0.0,0.0,0.0,0.0,0.0,-0.026718,0.004514,0.993812,-0.6300000000000001,0.42000000000000004,-0.07,3.29,3.31,3.28,3.28,3.27,3.27,3.27,3.27,3.3,3.3,3.3,3.29,3.27,3.27,3.27,3.29,3.29,3.29,3.28,3.28,3.3,3.31,3.3,3.29,3.32,3.28,79.3,0.0,1.0,0.0,1.0,1.0,6135488,0.0,0.0
1765224640616,0.0,0.0,2.0,25.0,0.0,0.0,0.0,0.0,0.0,0.0,-0.024644,0.00549,0.992958,-0.6300000000000001,0.42000000000000004,-0.07,3.29,3.31,3.28,3.28,3.27,3.27,3.27,3.27,3.3,3.3,3.3,3.29,3.27,3.27,3.27,3.29,3.29,3.29,3.28,3.28,3.3,3.31,3.3,3.29,3.32,3.28,79.3,0.0,1.0,0.0,1.0,1.0,6135590,0.0,0.0
1765224640633,0.0,0.0,2.0,25.0,0.0,0.0,0.0,0.0,0.0,0.0,-0.024644,0.00549,0.992958,-0.7000000000000001,0.35000000000000003,0.0,3.29,3.31,3.28,3.28,3.27,3.27,3.27,3.27,3.3,3.3,3.3,3.29,3.27,3.27,3.27,3.29,3.29,3.29,3.28,3.28,3.3,3.31,3.3,3.29,3.32,3.28,79.3,0.0,1.0,0.0,1.0,1.0,6135607,0.0,0.0
1765224640686,0.0,0.0,2.0,25.0,0.0,0.0,0.0,0.0,0.0,0.0,-0.024644,0.00549,0.992958,-0.7000000000000001,0.35000000000000003,0.0,3.29,3.31,3.28,3.28,3.27,3.27,3.27,3.27,3.3,3.3,3.3,3.29,3.27,3.27,3.27,3.29,3.29,3.29,3.28,3.28,3.3,3.31,3.3,3.29,3.32,3.28,79.3,0.0,1.0,0.0,1.0,1.0,6135660,0.0,0.0
1765224640698,0.0,0.0,2.0,25.0,0.0,0.0,0.0,0.0,0.0,0.0,-0.024644,0.00549,0.992958,-0.7000000000000001,0.35000000000000003,0.0,3.29,3.31,3.28,3.28,3.27,3.27,3.27,3.27,3.3,3.3,3.3,3.29,3.27,3.27,3.27,3.29,3.29,3.29,3.28,3.28,3.3,3.31,3.3,3.29,3.32,3.28,79.3,0.0,1.0,0.0,1.0,1.0,6135672,0.0,0.0
1765224640714,0.0,0.0,2.0,25.0,0.0,0.0,0.0,0.0,0.0,0.0,-0.024644,0.00549,0.992958,-0.7000000000000001,0.35000000000000003,0.0,3.29,3.31,3.28,3.28,3.27,3.27,3.27,3.27,3.3,3.3,3.3,3.29,3.27,3.27,3.27,3.29,3.29,3.29,3.28,3.28,3.3,3.31,3.3,3.29,3.32,3.28,79.3,0.0,1.0,0.0,1.0,1.0,6135688,0.0,0.0
1765224640730,0.0,0.0,2.0,25.0,0.0,0.0,0.0,0.0,0.0,0.0,-0.02623,0.00488,0.99186,-0.7000000000000001,0.35000000000000003,0.0,3.29,3.31,3.28,3.28,3.27,3.27,3.27,3.27,3.3,3.3,3.3,3.29,3.27,3.27,3.27,3.29,3.29,3.29,3.28,3.28,3.3,3.31,3.3,3.29,3.32,3.28,79.3,0.0,1.0,0.0,1.0,1.0,6135704,0.0,0.0
1765224640747,0.0,0.0,2.0,25.0,0.0,0.0,0.0,0.0,0.0,0.0,-0.02623,0.00488,0.99186,-0.7000000000000001,0.35000000000000003,0.0,3.29,3.31,3.28,3.28,3.27,3.27,3.27,3.27,3.3,3.3,3.3,3.29,3.27,3.27,3.27,3.29,3.29,3.29,3.28,3.28,3.3,3.31,3.3,3.29,3.32,3.28,79.3,0.0,1.0,0.0,1.0,1.0,6135721,0.0,0.0
1765224640764,0.0,0.0,2.0,25.0,0.0,0.0,0.0,0.0,0.0,0.0,-0.02623,0.00488,0.99186,-0.6300000000000001,0.35000000000000003,0.07,3.29,3.31,3.28,3.28,3.27,3.27,3.27,3.27,3.3,3.3,3.3,3.29,3.27,3.27,3.27,3.29,3.29,3.29,3.28,3.28,3.3,3.31,3.3,3.29,3.32,3.28,79.3,0.0,1.0,0.0,1.0,1.0,6135738,0.0,0.0
1765224640814,0.0,0.0,2.0,25.0,0.0,0.0,0.0,0.0,0.0,0.0,-0.02623,0.00488,0.99186,-0.6300000000000001,0.35000000000000003,0.07,3.29,3.31,3.28,3.28,3.27,3.27,3.27,3.27,3.3,3.3,3.3,3.29,3.27,3.27,3.27,3.29,3.29,3.29,3.28,3.28,3.3,3.31,3.3,3.29,3.32,3.28,79.3,0.0,1.0,0.0,1.0,1.0,6135788,0.0,0.0
1765224640896,0.0,0.0,2.0,25.0,0.0,0.0,0.0,0.0,0.0,0.0,-0.026352,0.005246,0.992348,-0.6300000000000001,0.35000000000000003,0.07,3.29,3.31,3.28,3.28,3.27,3.27,3.27,3.27,3.3,3.3,3.3,3.29,3.27,3.27,3.27,3.29,3.29,3.29,3.28,3.28,3.3,3.31,3.3,3.29,3.32,3.28,79.3,0.0,1.0,0.0,1.0,1.0,6135870,0.0,0.0
1765224640913,0.0,0.0,2.0,25.0,0.0,0.0,0.0,0.0,0.0,0.0,-0.026352,0.005246,0.992348,-0.6300000000000001,0.49000000000000005,0.0,3.29,3.31,3.28,3.28,3.27,3.27,3.27,3.27,3.3,3.3,3.3,3.29,3.27,3.27,3.27,3.29,3.29,3.29,3.28,3.28,3.3,3.31,3.3,3.29,3.32,3.28,79.3,0.0,1.0,0.0,1.0,1.0,6135887,0.0,0.0
1765224640929,0.0,0.0,2.0,25.0,0.0,0.0,0.0,0.0,0.0,0.0,-0.026352,0.005246,0.992348,-0.6300000000000001,0.49000000000000005,0.0,3.31,3.32,3.32,3.3,3.27,3.27,3.27,3.27,3.3,3.3,3.3,3.29,3.27,3.27,3.27,3.29,3.29,3.29,3.28,3.28,3.3,3.31,3.3,3.29,3.32,3.28,79.3,0.0,1.0,0.0,1.0,1.0,6135903,0.0,0.0
1765224640963,0.0,0.0,2.0,25.0,0.0,0.0,0.0,0.0,0.0,0.0,-0.026352,0.005246,0.992348,-0.6300000000000001,0.49000000000000005,0.0,3.31,3.32,3.32,3.3,3.28,3.29,3.28,3.29,3.32,3.32,3.32,3.32,3.27,3.27,3.27,3.29,3.29,3.29,3.28,3.28,3.3,3.31,3.3,3.29,3.32,3.28,79.3,0.0,1.0,0.0,1.0,1.0,6135937,0.0,0.0
1765224640979,0.0,0.0,2.0,25.0,0.0,0.0,0.0,0.0,0.0,0.0,-0.026352,0.005246,0.992348,-0.6300000000000001,0.49000000000000005,0.0,3.31,3.32,3.32,3.3,3.28,3.29,3.28,3.29,3.32,3.32,3.32,3.32,3.28,3.29,3.28,3.29,3.29,3.29,3.28,3.28,3.3,3.31,3.3,3.29,3.32,3.28,79.3,0.0,1.0,0.0,1.0,1.0,6135953,0.0,0.0
1765224640996,0.0,0.0,2.0,25.0,0.0,0.0,0.0,0.0,0.0,0.0,-0.026352,0.005246,0.992348,-0.6300000000000001,0.49000000000000005,0.0,3.31,3.32,3.32,3.3,3.28,3.29,3.28,3.29,3.32,3.32,3.32,3.32,3.28,3.29,3.28,3.29,3.31,3.31,3.31,3.3,3.3,3.31,3.3,3.29,3.32,3.28,79.3,0.0,1.0,0.0,1.0,1.0,6135970,0.0,0.0
1765224641029,0.0,0.0,2.0,25.0,0.0,0.0,0.0,0.0,0.0,0.0,-0.026352,0.005246,0.992348,-0.6300000000000001,0.49000000000000005,0.0,3.31,3.32,3.32,3.3,3.28,3.29,3.28,3.29,3.32,3.32,3.32,3.32,3.28,3.29,3.28,3.29,3.31,3.31,3.31,3.3,3.3,3.31,3.3,3.29,3.32,3.28,79.3,0.0,1.0,0.0,1.0,1.0,6136003,0.0,0.0
1765224641064,0.0,0.0,2.0,25.0,0.0,0.0,0.0,0.0,0.0,0.0,-0.027084,0.005856,0.991738,-0.6300000000000001,0.49000000000000005,0.0,3.31,3.32,3.32,3.3,3.28,3.29,3.28,3.29,3.32,3.32,3.32,3.32,3.28,3.29,3.28,3.29,3.31,3.31,3.31,3.3,3.3,3.31,3.3,3.29,3.32,3.28,79.3,0.0,1.0,0.0,1.0,1.0,6136038,0.0,0.0
1765224641081,0.0,0.0,2.0,25.0,0.0,0.0,0.0,0.0,0.0,0.0,-0.027084,0.005856,0.991738,-0.6300000000000001,0.49000000000000005,0.0,3.31,3.32,3.32,3.31,3.28,3.29,3.28,3.29,3.32,3.32,3.32,3.32,3.28,3.29,3.28,3.29,3.31,3.31,3.31,3.3,3.3,3.31,3.3,3.29,3.32,3.28,79.3,0.0,1.0,0.0,1.0,1.0,6136055,0.0,0.0
1765224641098,0.0,0.0,2.0,25.0,0.0,0.0,0.0,0.0,0.0,0.0,-0.027084,0.005856,0.991738,-0.6300000000000001,0.49000000000000005,0.0,3.31,3.32,3.32,3.31,3.28,3.29,3.28,3.29,3.32,3.32,3.32,3.32,3.28,3.29,3.28,3.29,3.31,3.31,3.31,3.3,3.3,3.31,3.3,3.29,3.32,3.28,79.3,0.0,1.0,0.0,1.0,1.0,6136072,0.0,0.0
1765224641115,0.0,0.0,2.0,25.0,0.0,0.0,0.0,0.0,0.0,0.0,-0.027084,0.005856,0.991738,-0.6300000000000001,0.49000000000000005,0.0,3.31,3.32,3.32,3.31,3.28,3.29,3.28,3.29,3.32,3.32,3.32,3.32,3.28,3.29,3.28,3.29,3.31,3.31,3.31,3.3,3.3,3.31,3.3,3.29,3.32,3.28,79.3,0.0,1.0,0.0,1.0,1.0,6136089,0.0,0.0
1765224641132,0.0,0.0,2.0,25.0,0.0,0.0,0.0,0.0,0.0,0.0,-0.027084,0.005856,0.991738,-0.6300000000000001,0.49000000000000005,0.0,3.31,3.32,3.32,3.31,3.28,3.29,3.28,3.29,3.32,3.32,3.32,3.32,3.28,3.29,3.28,3.29,3.31,3.31,3.31,3.3,3.3,3.31,3.3,3.29,3.32,3.28,79.3,0.0,1.0,0.0,1.0,1.0,6136106,0.0,0.0
1765224641146,0.0,0.0,2.0,25.0,0.0,0.0,0.0,0.0,0.0,0.0,-0.027084,0.005856,0.991738,-0.6300000000000001,0.49000000000000005,0.0,3.31,3.32,3.32,3.31,3.28,3.29,3.28,3.29,3.32,3.32,3.32,3.32,3.28,3.29,3.28,3.29,3.31,3.31,3.31,3.3,3.3,3.31,3.3,3.29,3.32,3.28,79.3,0.0,1.0,0.0,1.0,1.0,6136120,0.0,0.0
1765224641162,0.0,0.0,2.0,25.0,0.0,0.0,0.0,0.0,0.0,0.0,-0.027084,0.005856,0.991738,-0.6300000000000001,0.49000000000000005,0.0,3.31,3.32,3.32,3.31,3.28,3.29,3.28,3.29,3.32,3.32,3.32,3.32,3.28,3.29,3.28,3.29,3.31,3.31,3.31,3.3,3.3,3.31,3.3,3.29,3.32,3.28,79.3,0.0,1.0,0.0,1.0,1.0,6136136,0.0,0.0
1765224641181,0.0,0.0,2.0,25.0,0.0,0.0,0.0,0.0,0.0,0.0,-0.027084,0.005856,0.991738,-0.6300000000000001,0.49000000000000005,0.0,3.31,3.32,3.32,3.31,3.28,3.29,3.28,3.29,3.32,3.32,3.32,3.32,3.28,3.29,3.28,3.29,3.31,3.31,3.31,3.3,3.3,3.31,3.3,3.29,3.32,3.28,79.3,0.0,1.0,0.0,1.0,1.0,6136155,0.0,0.0
1765224641197,0.0,0.0,2.0,25.0,0.0,0.0,0.0,0.0,0.0,0.0,-0.027084,0.005856,0.991738,-0.6300000000000001,0.35000000000000003,-0.07,3.31,3.32,3.32,3.31,3.28,3.29,3.28,3.29,3.32,3.32,3.32,3.32,3.28,3.29,3.28,3.29,3.31,3.31,3.31,3.3,3.3,3.31,3.3,3.29,3.32,3.28,79.3,0.0,1.0,0.0,1.0,1.0,6136171,0.0,0.0
1765224641214,0.0,0.0,2.0,25.0,0.0,0.0,0.0,0.0,0.0,0.0,-0.027084,0.005856,0.991738,-0.6300000000000001,0.35000000000000003,-0.07,3.31,3.32,3.32,3.31,3.28,3.29,3.28,3.29,3.32,3.32,3.32,3.32,3.28,3.29,3.28,3.29,3.31,3.31,3.31,3.3,3.32,3.32,3.32,3.32,3.32,3.28,79.3,0.0,1.0,0.0,1.0,1.0,6136188,0.0,0.0
1765224641231,0.0,0.0,2.0,25.0,0.0,0.0,0.0,0.0,0.0,0.0,-0.027084,0.005856,0.991738,-0.6300000000000001,0.35000000000000003,-0.07,3.31,3.32,3.32,3.31,3.28,3.29,3.28,3.29,3.32,3.32,3.32,3.32,3.28,3.29,3.28,3.29,3.31,3.31,3.31,3.3,3.32,3.32,3.32,3.32,3.32,3.28,79.3,0.0,1.0,0.0,1.0,1.0,6136205,0.0,0.0
1765224641281,0.0,0.0,2.0,25.0,0.0,0.0,0.0,0.0,0.0,0.0,-0.027084,0.005856,0.991738,-0.6300000000000001,0.35000000000000003,-0.07,3.31,3.32,3.32,3.31,3.28,3.29,3.28,3.29,3.32,3.32,3.32,3.32,3.28,3.29,3.28,3.29,3.31,3.31,3.31,3.3,3.32,3.32,3.32,3.32,3.32,3.28,79.3,0.0,1.0,0.0,1.0,1.0,6136255,0.0,0.0
1765224641380,0.0,0.0,2.0,25.0,0.0,0.0,0.0,0.0,0.0,0.0,-0.025376,0.004514,0.993812,-0.6300000000000001,0.28,-0.07,3.31,3.32,3.32,3.31,3.28,3.29,3.28,3.29,3.32,3.32,3.32,3.32,3.28,3.29,3.28,3.29,3.31,3.31,3.31,3.3,3.32,3.32,3.32,3.32,3.32,3.28,79.3,0.0,1.0,0.0,1.0,1.0,6136354,0.0,0.0
1765224641447,0.0,0.0,2.0,25.0,0.0,0.0,0.0,0.0,0.0,0.0,-0.025376,0.004514,0.993812,-0.6300000000000001,0.28,-0.07,3.31,3.32,3.32,3.31,3.28,3.29,3.28,3.29,3.32,3.32,3.32,3.32,3.28,3.29,3.28,3.29,3.31,3.31,3.31,3.3,3.32,3.32,3.32,3.32,3.32,3.28,79.3,0.0,1.0,0.0,1.0,1.0,6136421,0.0,0.0
1765224641463,0.0,0.0,2.0,25.0,0.0,0.0,0.0,0.0,0.0,0.0,-0.025376,0.004514,0.993812,-0.6300000000000001,0.28,-0.07,3.31,3.32,3.32,3.31,3.28,3.29,3.28,3.29,3.32,3.32,3.32,3.32,3.28,3.29,3.28,3.29,3.31,3.31,3.31,3.3,3.32,3.32,3.32,3.32,3.32,3.28,79.3,0.0,1.0,0.0,1.0,1.0,6136437,0.0,0.0
1765224641496,0.0,0.0,2.0,25.0,0.0,0.0,0.0,0.0,0.0,0.0,-0.02562,0.004392,0.992348,-0.6300000000000001,0.28,-0.07,3.31,3.32,3.32,3.31,3.28,3.29,3.28,3.29,3.32,3.32,3.32,3.32,3.28,3.29,3.28,3.29,3.31,3.31,3.31,3.3,3.32,3.32,3.32,3.32,3.32,3.28,79.3,0.0,1.0,0.0,1.0,1.0,6136470,0.0,0.0
1765224641513,0.0,0.0,2.0,25.0,0.0,0.0,0.0,0.0,0.0,0.0,-0.02562,0.004392,0.992348,-0.6300000000000001,0.28,-0.07,3.31,3.32,3.32,3.31,3.28,3.29,3.28,3.29,3.32,3.32,3.32,3.32,3.28,3.29,3.28,3.29,3.31,3.31,3.31,3.3,3.32,3.32,3.32,3.32,3.32,3.28,79.3,0.0,1.0,0.0,1.0,1.0,6136487,0.0,0.0
1765224641529,0.0,0.0,2.0,25.0,0.0,0.0,0.0,0.0,0.0,0.0,-0.02562,0.004392,0.992348,-0.56,0.35000000000000003,-0.07,3.31,3.32,3.32,3.31,3.28,3.29,3.28,3.29,3.32,3.32,3.32,3.32,3.28,3.29,3.28,3.29,3.31,3.31,3.31,3.3,3.32,3.32,3.32,3.32,3.32,3.28,79.3,0.0,1.0,0.0,1.0,1.0,6136503,0.0,0.0
1765224641580,0.0,0.0,2.0,25.0,0.0,0.0,0.0,0.0,0.0,0.0,-0.02562,0.004392,0.992348,-0.56,0.35000000000000003,-0.07,3.31,3.32,3.32,3.31,3.28,3.29,3.28,3.29,3.32,3.32,3.32,3.32,3.28,3.29,3.28,3.29,3.31,3.31,3.31,3.3,3.32,3.32,3.32,3.32,3.32,3.28,79.3,0.0,1.0,0.0,1.0,1.0,6136554,0.0,0.0
1765224641664,0.0,0.0,2.0,25.0,0.0,0.0,0.0,0.0,0.0,0.0,-0.02562,0.004392,0.992348,-0.56,0.35000000000000003,-0.07,3.31,3.32,3.32,3.31,3.28,3.29,3.28,3.29,3.32,3.32,3.32,3.32,3.28,3.29,3.28,3.29,3.31,3.31,3.31,3.3,3.32,3.32,3.32,3.32,3.32,3.28,79.3,0.0,1.0,0.0,1.0,1.0,6136638,0.0,0.0
1765224641714,0.0,0.0,2.0,25.0,0.0,0.0,0.0,0.0,0.0,0.0,-0.02562,0.004392,0.992348,-0.56,0.35000000000000003,-0.07,3.31,3.32,3.32,3.31,3.28,3.29,3.28,3.29,3.32,3.32,3.32,3.32,3.28,3.29,3.28,3.29,3.31,3.31,3.31,3.3,3.32,3.32,3.32,3.32,3.32,3.28,79.3,0.0,1.0,0.0,1.0,1.0,6136688,0.0,0.0
1765224641781,0.0,0.0,2.0,25.0,0.0,0.0,0.0,0.0,0.0,0.0,-0.026718,0.0064659999999999995,0.9928359999999999,-0.56,0.35000000000000003,-0.07,3.31,3.32,3.32,3.31,3.28,3.29,3.28,3.29,3.32,3.32,3.32,3.32,3.28,3.29,3.28,3.29,3.31,3.31,3.31,3.3,3.32,3.32,3.32,3.32,3.32,3.28,79.3,0.0,1.0,0.0,1.0,1.0,6136755,0.0,0.0
1765224641798,0.0,0.0,2.0,25.0,0.0,0.0,0.0,0.0,0.0,0.0,-0.026718,0.0064659999999999995,0.9928359999999999,-0.6300000000000001,0.42000000000000004,0.0,3.31,3.32,3.32,3.31,3.28,3.29,3.28,3.29,3.32,3.32,3.32,3.32,3.28,3.29,3.28,3.29,3.31,3.31,3.31,3.3,3.32,3.32,3.32,3.32,3.32,3.28,79.3,0.0,1.0,0.0,1.0,1.0,6136772,0.0,0.0
1765224641847,0.0,0.0,2.0,25.0,0.0,0.0,0.0,0.0,0.0,0.0,-0.026962,0.005978,0.99186,-0.6300000000000001,0.42000000000000004,0.0,3.31,3.32,3.32,3.31,3.28,3.29,3.28,3.29,3.32,3.32,3.32,3.32,3.28,3.29,3.28,3.29,3.31,3.31,3.31,3.3,3.32,3.32,3.32,3.32,3.32,3.28,79.3,0.0,1.0,0.0,1.0,1.0,6136821,0.0,0.0
1765224641864,0.0,0.0,2.0,25.0,0.0,0.0,0.0,0.0,0.0,0.0,-0.026962,0.005978,0.99186,-0.6300000000000001,0.42000000000000004,0.0,3.31,3.32,3.32,3.31,3.28,3.29,3.28,3.29,3.32,3.32,3.32,3.32,3.28,3.29,3.28,3.29,3.31,3.31,3.31,3.3,3.32,3.32,3.32,3.32,3.32,3.28,79.3,0.0,1.0,0.0,1.0,1.0,6136838,0.0,0.0
1765224641880,0.0,0.0,2.0,25.0,0.0,0.0,0.0,0.0,0.0,0.0,-0.026962,0.005978,0.99186,-0.6300000000000001,0.42000000000000004,-0.07,3.31,3.32,3.32,3.31,3.28,3.29,3.28,3.29,3.32,3.32,3.32,3.32,3.28,3.29,3.28,3.29,3.31,3.31,3.31,3.3,3.32,3.32,3.32,3.32,3.32,3.28,79.3,0.0,1.0,0.0,1.0,1.0,6136854,0.0,0.0
1765224641899,0.0,0.0,2.0,25.0,0.0,0.0,0.0,0.0,0.0,0.0,-0.026962,0.005978,0.99186,-0.6300000000000001,0.42000000000000004,-0.07,3.31,3.32,3.32,3.31,3.28,3.29,3.28,3.29,3.32,3.32,3.32,3.32,3.28,3.29,3.28,3.29,3.31,3.31,3.31,3.3,3.32,3.32,3.32,3.32,3.32,3.28,79.3,0.0,1.0,0.0,1.0,1.0,6136873,0.0,0.0
1765224641915,0.0,0.0,2.0,25.0,0.0,0.0,0.0,0.0,0.0,0.0,-0.026962,0.005978,0.99186,-0.6300000000000001,0.42000000000000004,-0.07,3.31,3.32,3.32,3.31,3.28,3.29,3.28,3.29,3.32,3.32,3.32,3.32,3.28,3.29,3.28,3.29,3.31,3.31,3.31,3.3,3.32,3.32,3.32,3.32,3.32,3.28,79.3,0.0,1.0,0.0,1.0,1.0,6136889,0.0,0.0
1765224641932,0.0,0.0,2.0,25.0,0.0,0.0,0.0,0.0,0.0,0.0,-0.026962,0.005978,0.99186,-0.6300000000000001,0.42000000000000004,-0.07,3.31,3.32,3.32,3.31,3.28,3.29,3.28,3.29,3.32,3.32,3.32,3.32,3.28,3.29,3.28,3.29,3.31,3.31,3.31,3.3,3.32,3.32,3.32,3.32,3.32,3.28,79.3,0.0,1.0,0.0,1.0,1.0,6136906,0.0,0.0
1765224642015,0.0,0.0,2.0,25.0,0.0,0.0,0.0,0.0,0.0,0.0,-0.026962,0.005978,0.99186,-0.6300000000000001,0.42000000000000004,-0.07,3.31,3.32,3.32,3.31,3.28,3.29,3.28,3.29,3.32,3.32,3.32,3.32,3.28,3.29,3.28,3.29,3.31,3.31,3.31,3.3,3.32,3.32,3.32,3.32,3.32,3.28,79.3,-1.0,1.0,0.0,1.0,1.0,6136989,0.0,0.0
1765224642030,0.0,0.0,2.0,25.0,0.0,0.0,0.0,0.0,0.0,0.0,-0.026962,0.005978,0.99186,-0.6300000000000001,0.42000000000000004,-0.07,3.31,3.32,3.32,3.31,3.28,3.29,3.28,3.29,3.32,3.32,3.32,3.32,3.28,3.29,3.28,3.29,3.31,3.31,3.31,3.3,3.32,3.32,3.32,3.32,3.32,3.28,79.3,-1.0,1.0,0.0,1.0,1.0,6137004,0.0,0.0
1765224642098,0.0,0.0,2.0,25.0,0.0,0.0,0.0,0.0,0.0,0.0,-0.025376,0.004026,0.992958,-0.6300000000000001,0.42000000000000004,-0.07,3.31,3.32,3.32,3.31,3.28,3.29,3.28,3.29,3.32,3.32,3.32,3.32,3.28,3.29,3.28,3.29,3.31,3.31,3.31,3.3,3.32,3.32,3.32,3.32,3.32,3.28,79.3,-1.0,1.0,0.0,1.0,1.0,6137072,0.0,0.0
1765224642131,0.0,0.0,2.0,25.0,0.0,0.0,0.0,0.0,0.0,0.0,-0.025376,0.004026,0.992958,-0.6300000000000001,0.35000000000000003,0.0,3.31,3.32,3.32,3.31,3.28,3.29,3.28,3.29,3.32,3.32,3.32,3.32,3.28,3.29,3.28,3.29,3.31,3.31,3.31,3.3,3.32,3.32,3.32,3.32,3.32,3.28,79.3,-1.0,1.0,0.0,1.0,1.0,6137105,0.0,0.0
1765224642180,0.0,0.0,2.0,25.0,0.0,0.0,0.0,0.0,0.0,0.0,-0.025376,0.004026,0.992958,-0.6300000000000001,0.35000000000000003,0.0,3.31,3.32,3.32,3.31,3.28,3.29,3.28,3.29,3.32,3.32,3.32,3.32,3.28,3.29,3.28,3.29,3.31,3.31,3.31,3.3,3.32,3.32,3.32,3.32,3.32,3.28,79.3,-1.0,1.0,0.0,1.0,1.0,6137154,0.0,0.0
1765224642200,0.0,0.0,2.0,25.0,0.0,0.0,0.0,0.0,0.0,0.0,-0.024644,0.0053679999999999995,0.9922259999999999,-0.6300000000000001,0.35000000000000003,0.0,3.31,3.32,3.32,3.31,3.28,3.29,3.28,3.29,3.32,3.32,3.32,3.32,3.28,3.29,3.28,3.29,3.31,3.31,3.31,3.3,3.32,3.32,3.32,3.32,3.32,3.28,79.3,-1.0,1.0,0.0,1.0,1.0,6137174,0.0,0.0
1765224642215,0.0,0.0,2.0,25.0,0.0,0.0,0.0,0.0,0.0,0.0,-0.024644,0.0053679999999999995,0.9922259999999999,-0.6300000000000001,0.35000000000000003,0.0,3.31,3.32,3.32,3.31,3.28,3.29,3.28,3.29,3.32,3.32,3.32,3.32,3.28,3.29,3.28,3.29,3.31,3.31,3.31,3.3,3.32,3.32,3.32,3.32,3.32,3.28,79.3,-1.0,1.0,0.0,1.0,1.0,6137189,0.0,0.0
1765224642230,0.0,0.0,2.0,25.0,0.0,0.0,0.0,0.0,0.0,0.0,-0.024644,0.0053679999999999995,0.9922259999999999,-0.6300000000000001,0.35000000000000003,0.0,3.31,3.32,3.32,3.31,3.28,3.29,3.28,3.29,3.32,3.32,3.32,3.32,3.28,3.29,3.28,3.29,3.31,3.31,3.31,3.3,3.32,3.32,3.32,3.32,3.32,3.28,79.3,-1.0,1.0,0.0,1.0,1.0,6137204,0.0,0.0
1765224642249,0.0,0.0,2.0,25.0,0.0,0.0,0.0,0.0,0.0,0.0,-0.024644,0.0053679999999999995,0.9922259999999999,-0.6300000000000001,0.35000000000000003,0.0,3.31,3.32,3.32,3.31,3.28,3.29,3.28,3.29,3.32,3.32,3.32,3.32,3.28,3.29,3.28,3.29,3.31,3.31,3.31,3.3,3.32,3.32,3.32,3.32,3.32,3.28,79.3,-1.0,1.0,0.0,1.0,1.0,6137223,0.0,0.0
1765224642282,0.0,0.0,2.0,25.0,0.0,0.0,0.0,0.0,0.0,0.0,-0.027206,0.003904,0.993202,-0.6300000000000001,0.35000000000000003,0.0,3.31,3.32,3.32,3.31,3.28,3.29,3.28,3.29,3.32,3.32,3.32,3.32,3.28,3.29,3.28,3.29,3.31,3.31,3.31,3.3,3.32,3.32,3.32,3.32,3.32,3.28,79.3,-1.0,1.0,0.0,1.0,1.0,6137256,0.0,0.0
1765224642299,0.0,0.0,2.0,25.0,0.0,0.0,0.0,0.0,0.0,0.0,-0.027206,0.003904,0.993202,-0.6300000000000001,0.42000000000000004,-0.07,3.31,3.32,3.32,3.31,3.28,3.29,3.28,3.29,3.32,3.32,3.32,3.32,3.28,3.29,3.28,3.29,3.31,3.31,3.31,3.3,3.32,3.32,3.32,3.32,3.32,3.28,79.3,-1.0,1.0,0.0,1.0,1.0,6137273,0.0,0.0
1765224642332,0.0,0.0,2.0,25.0,0.0,0.0,0.0,0.0,0.0,0.0,-0.027206,0.003904,0.993202,-0.6300000000000001,0.42000000000000004,-0.07,3.31,3.32,3.32,3.31,3.28,3.29,3.28,3.29,3.32,3.32,3.32,3.32,3.28,3.29,3.28,3.29,3.31,3.31,3.31,3.3,3.32,3.32,3.32,3.32,3.32,3.28,79.3,-1.0,1.0,0.0,1.0,1.0,6137306,0.0,0.0
1765224642348,0.0,0.0,2.0,25.0,0.0,0.0,0.0,0.0,0.0,0.0,-0.027206,0.003904,0.993202,-0.6300000000000001,0.42000000000000004,-0.07,3.31,3.32,3.32,3.31,3.28,3.29,3.28,3.29,3.32,3.32,3.32,3.32,3.28,3.29,3.28,3.29,3.31,3.31,3.31,3.3,3.32,3.32,3.32,3.32,3.32,3.28,79.3,-1.0,1.0,0.0,1.0,1.0,6137322,0.0,0.0
1765224642365,0.0,0.0,2.0,25.0,0.0,0.0,0.0,0.0,0.0,0.0,-0.027206,0.003904,0.993202,-0.6300000000000001,0.42000000000000004,-0.07,3.31,3.32,3.32,3.31,3.28,3.29,3.28,3.29,3.32,3.32,3.32,3.32,3.28,3.29,3.28,3.29,3.31,3.31,3.31,3.3,3.32,3.32,3.32,3.32,3.32,3.28,79.3,-1.0,1.0,0.0,1.0,1.0,6137339,0.0,0.0
1765224642381,0.0,0.0,2.0,25.0,0.0,0.0,0.0,0.0,0.0,0.0,-0.027206,0.003904,0.993202,-0.6300000000000001,0.42000000000000004,-0.07,3.31,3.32,3.32,3.31,3.28,3.29,3.28,3.29,3.32,3.32,3.32,3.32,3.28,3.29,3.28,3.29,3.31,3.31,3.31,3.3,3.32,3.32,3.32,3.32,3.32,3.28,79.3,-1.0,1.0,0.0,1.0,1.0,6137355,0.0,0.0
1765224642396,0.0,0.0,2.0,25.0,0.0,0.0,0.0,0.0,0.0,0.0,-0.027206,0.003904,0.993202,-0.6300000000000001,0.42000000000000004,-0.07,3.31,3.32,3.32,3.31,3.28,3.29,3.28,3.29,3.32,3.32,3.32,3.32,3.28,3.29,3.28,3.29,3.31,3.31,3.31,3.3,3.32,3.32,3.32,3.32,3.32,3.28,79.3,-1.0,1.0,0.0,1.0,1.0,6137370,0.0,0.0
1765224642430,0.0,0.0,2.0,25.0,0.0,0.0,0.0,0.0,0.0,0.0,-0.027084,0.005124,0.992592,-0.6300000000000001,0.42000000000000004,-0.07,3.31,3.32,3.32,3.31,3.28,3.29,3.28,3.29,3.32,3.32,3.32,3.32,3.28,3.29,3.28,3.29,3.31,3.31,3.31,3.3,3.32,3.32,3.32,3.32,3.32,3.28,79.3,-1.0,1.0,0.0,1.0,1.0,6137404,0.0,0.0
1765224642464,0.0,0.0,2.0,25.0,0.0,0.0,0.0,0.0,0.0,0.0,-0.027084,0.005124,0.992592,-0.7000000000000001,0.35000000000000003,0.0,3.31,3.32,3.32,3.31,3.28,3.29,3.28,3.29,3.32,3.32,3.32,3.32,3.28,3.29,3.28,3.29,3.31,3.31,3.31,3.3,3.32,3.32,3.32,3.32,3.32,3.28,79.3,-1.0,1.0,0.0,1.0,1.0,6137438,0.0,0.0
1765224642480,0.0,0.0,2.0,25.0,0.0,0.0,0.0,0.0,0.0,0.0,-0.027084,0.005124,0.992592,-0.7000000000000001,0.35000000000000003,0.0,3.31,3.32,3.32,3.31,3.28,3.29,3.28,3.29,3.32,3.32,3.32,3.32,3.28,3.29,3.28,3.29,3.31,3.31,3.31,3.3,3.32,3.32,3.32,3.32,3.32,3.28,79.3,-1.0,1.0,0.0,1.0,1.0,6137454,0.0,0.0
1765224642563,0.0,0.0,2.0,25.0,0.0,0.0,0.0,0.0,0.0,0.0,-0.02562,0.005124,0.99369,-0.7000000000000001,0.35000000000000003,0.0,3.31,3.32,3.32,3.31,3.28,3.29,3.28,3.29,3.32,3.32,3.32,3.32,3.28,3.29,3.28,3.29,3.31,3.31,3.31,3.3,3.32,3.32,3.32,3.32,3.32,3.28,79.3,-1.0,1.0,0.0,1.0,1.0,6137537,0.0,0.0
1765224642580,0.0,0.0,2.0,25.0,0.0,0.0,0.0,0.0,0.0,0.0,-0.02562,0.005124,0.99369,-0.6300000000000001,0.35000000000000003,0.0,3.31,3.32,3.32,3.31,3.28,3.29,3.28,3.29,3.32,3.32,3.32,3.32,3.28,3.29,3.28,3.29,3.31,3.31,3.31,3.3,3.32,3.32,3.32,3.32,3.32,3.28,79.3,-1.0,1.0,0.0,1.0,1.0,6137554,0.0,0.0
1765224642629,0.0,0.0,2.0,25.0,0.0,0.0,0.0,0.0,0.0,0.0,-0.02562,0.005124,0.99369,-0.6300000000000001,0.35000000000000003,0.0,3.31,3.32,3.32,3.31,3.28,3.29,3.28,3.29,3.32,3.32,3.32,3.32,3.28,3.29,3.28,3.29,3.31,3.31,3.31,3.3,3.32,3.32,3.32,3.32,3.32,3.28,79.3,-1.0,1.0,0.0,1.0,1.0,6137603,0.0,0.0
1765224642646,0.0,0.0,2.0,25.0,0.0,0.0,0.0,0.0,0.0,0.0,-0.02562,0.005124,0.99369,-0.6300000000000001,0.35000000000000003,0.0,3.31,3.32,3.32,3.31,3.28,3.29,3.28,3.29,3.32,3.32,3.32,3.32,3.28,3.29,3.28,3.29,3.31,3.31,3.31,3.3,3.32,3.32,3.32,3.32,3.32,3.28,79.3,-1.0,1.0,0.0,1.0,1.0,6137620,0.0,0.0
1765224642663,0.0,0.0,2.0,25.0,0.0,0.0,0.0,0.0,0.0,0.0,-0.02562,0.005124,0.99369,-0.6300000000000001,0.35000000000000003,0.0,3.31,3.32,3.32,3.31,3.28,3.29,3.28,3.29,3.32,3.32,3.32,3.32,3.28,3.29,3.28,3.29,3.31,3.31,3.31,3.3,3.32,3.32,3.32,3.32,3.32,3.28,79.3,-1.0,1.0,0.0,1.0,1.0,6137637,0.0,0.0
1765224642695,0.0,0.0,2.0,25.0,0.0,0.0,0.0,0.0,0.0,0.0,-0.02562,0.005124,0.99369,-0.6300000000000001,0.35000000000000003,0.0,3.31,3.32,3.32,3.31,3.28,3.29,3.28,3.29,3.32,3.32,3.32,3.32,3.28,3.29,3.28,3.29,3.31,3.31,3.31,3.3,3.32,3.32,3.32,3.32,3.32,3.28,79.3,-1.0,1.0,0.0,1.0,1.0,6137669,0.0,0.0
1765224642712,0.0,0.0,2.0,25.0,0.0,0.0,0.0,0.0,0.0,0.0,-0.026108,0.0046359999999999995,0.993324,-0.6300000000000001,0.35000000000000003,0.0,3.31,3.32,3.32,3.31,3.28,3.29,3.28,3.29,3.32,3.32,3.32,3.32,3.28,3.29,3.28,3.29,3.31,3.31,3.31,3.3,3.32,3.32,3.32,3.32,3.32,3.28,79.3,-1.0,1.0,0.0,1.0,1.0,6137686,0.0,0.0
1765224642763,0.0,0.0,2.0,25.0,0.0,0.0,0.0,0.0,0.0,0.0,-0.026108,0.0046359999999999995,0.993324,-0.6300000000000001,0.35000000000000003,0.0,3.31,3.32,3.32,3.31,3.28,3.29,3.28,3.29,3.32,3.32,3.32,3.32,3.28,3.29,3.28,3.29,3.31,3.31,3.31,3.3,3.32,3.32,3.32,3.32,3.32,3.28,79.3,-1.0,1.0,0.0,1.0,1.0,6137737,0.0,0.0
1765224642779,0.0,0.0,2.0,25.0,0.0,0.0,0.0,0.0,0.0,0.0,-0.026108,0.0046359999999999995,0.993324,-0.56,0.35000000000000003,-0.07,3.31,3.32,3.32,3.31,3.28,3.29,3.28,3.29,3.32,3.32,3.32,3.32,3.28,3.29,3.28,3.29,3.31,3.31,3.31,3.3,3.32,3.32,3.32,3.32,3.32,3.28,79.3,-1.0,1.0,0.0,1.0,1.0,6137753,0.0,0.0
1765224642796,0.0,0.0,2.0,25.0,0.0,0.0,0.0,0.0,0.0,0.0,-0.026108,0.0046359999999999995,0.993324,-0.56,0.35000000000000003,-0.07,3.31,3.32,3.32,3.3,3.28,3.29,3.28,3.29,3.32,3.32,3.32,3.32,3.28,3.29,3.28,3.29,3.31,3.31,3.31,3.3,3.32,3.32,3.32,3.32,3.32,3.28,79.3,-1.0,1.0,0.0,1.0,1.0,6137770,0.0,0.0
1765224642813,0.0,0.0,2.0,25.0,0.0,0.0,0.0,0.0,0.0,0.0,-0.026108,0.0046359999999999995,0.993324,-0.56,0.35000000000000003,-0.07,3.31,3.32,3.32,3.3,3.28,3.29,3.28,3.29,3.32,3.32,3.32,3.32,3.28,3.29,3.28,3.29,3.31,3.31,3.31,3.3,3.32,3.32,3.32,3.32,3.32,3.28,79.3,-1.0,1.0,0.0,1.0,1.0,6137787,0.0,0.0
1765224642863,0.0,0.0,2.0,25.0,0.0,0.0,0.0,0.0,0.0,0.0,-0.026108,0.0046359999999999995,0.993324,-0.56,0.35000000000000003,-0.07,3.31,3.32,3.32,3.3,3.28,3.29,3.28,3.29,3.32,3.32,3.32,3.32,3.28,3.29,3.28,3.29,3.31,3.31,3.31,3.3,3.32,3.32,3.32,3.32,3.32,3.28,79.3,-1.0,1.0,0.0,1.0,1.0,6137837,0.0,0.0
1765224642914,0.0,0.0,2.0,25.0,0.0,0.0,0.0,0.0,0.0,0.0,-0.026108,0.0046359999999999995,0.993324,-0.56,0.35000000000000003,-0.07,3.31,3.32,3.32,3.3,3.28,3.29,3.28,3.29,3.32,3.32,3.32,3.32,3.28,3.29,3.28,3.29,3.31,3.31,3.31,3.3,3.32,3.32,3.32,3.32,3.32,3.28,79.3,-1.0,1.0,0.0,1.0,1.0,6137888,0.0,0.0
1765224642946,0.0,0.0,2.0,25.0,0.0,0.0,0.0,0.0,0.0,0.0,-0.024034,0.005246,0.99186,-0.56,0.35000000000000003,-0.07,3.31,3.32,3.32,3.3,3.28,3.29,3.28,3.29,3.32,3.32,3.32,3.32,3.28,3.29,3.28,3.29,3.31,3.31,3.31,3.3,3.32,3.32,3.32,3.32,3.32,3.28,79.3,-1.0,1.0,0.0,1.0,1.0,6137920,0.0,0.0
1765224642997,0.0,0.0,2.0,25.0,0.0,0.0,0.0,0.0,0.0,0.0,-0.024034,0.005246,0.99186,-0.7000000000000001,0.35000000000000003,17.78,3.31,3.32,3.32,3.31,3.28,3.29,3.28,3.29,3.32,3.32,3.32,3.32,3.28,3.29,3.28,3.29,3.31,3.31,3.31,3.3,3.32,3.32,3.32,3.32,3.32,3.28,79.3,-1.0,1.0,0.0,1.0,1.0,6137971,0.0,0.0
1765224643014,0.0,0.0,2.0,25.0,0.0,0.0,0.0,0.0,0.0,0.0,-0.024034,0.005246,0.99186,-0.7000000000000001,0.35000000000000003,17.78,3.31,3.32,3.32,3.31,3.28,3.29,3.28,3.29,3.32,3.32,3.32,3.32,3.28,3.29,3.28,3.29,3.31,3.31,3.31,3.3,3.32,3.32,3.32,3.32,3.32,3.28,79.3,-1.0,1.0,0.0,1.0,1.0,6137988,0.0,0.0
1765224643031,0.0,0.0,2.0,25.0,0.0,0.0,0.0,0.0,0.0,0.0,-0.024034,0.005246,0.99186,-0.7000000000000001,0.35000000000000003,17.78,3.31,3.32,3.32,3.31,3.28,3.29,3.28,3.29,3.32,3.32,3.32,3.32,3.28,3.29,3.28,3.29,3.31,3.31,3.31,3.3,3.32,3.32,3.32,3.32,3.32,3.28,79.3,-1.0,1.0,0.0,1.0,1.0,6138005,0.0,0.0
1765224643049,0.0,0.0,2.0,25.0,0.0,0.0,0.0,0.0,0.0,0.0,-0.024034,0.005246,0.99186,-0.7000000000000001,0.35000000000000003,17.78,3.31,3.32,3.32,3.31,3.28,3.29,3.28,3.29,3.32,3.32,3.32,3.32,3.28,3.29,3.28,3.29,3.31,3.31,3.31,3.3,3.32,3.32,3.32,3.32,3.32,3.28,79.3,-1.0,1.0,0.0,1.0,1.0,6138023,0.0,0.0
1765224643064,0.0,0.0,2.0,25.0,0.0,0.0,0.0,0.0,0.0,0.0,-0.024034,0.005246,0.99186,-0.7000000000000001,0.35000000000000003,17.78,3.31,3.32,3.32,3.31,3.28,3.29,3.28,3.29,3.32,3.32,3.32,3.32,3.28,3.29,3.28,3.29,3.31,3.31,3.31,3.3,3.32,3.32,3.32,3.32,3.32,3.28,79.3,-1.0,1.0,0.0,1.0,1.0,6138038,0.0,0.0
1765224643081,0.0,0.0,2.0,25.0,0.0,0.0,0.0,0.0,0.0,0.0,-0.024034,0.005246,0.99186,-0.7000000000000001,0.35000000000000003,17.78,3.31,3.32,3.32,3.31,3.28,3.29,3.28,3.29,3.32,3.32,3.32,3.32,3.28,3.29,3.28,3.29,3.31,3.31,3.31,3.3,3.32,3.32,3.32,3.32,3.32,3.28,79.3,-1.0,1.0,0.0,1.0,1.0,6138055,0.0,0.0
1765224643114,0.0,0.0,2.0,25.0,0.0,0.0,0.0,0.0,0.0,0.0,-0.024034,0.005246,0.99186,-0.7000000000000001,0.35000000000000003,17.78,3.31,3.32,3.32,3.31,3.28,3.29,3.28,3.29,3.32,3.32,3.32,3.32,3.28,3.29,3.28,3.29,3.31,3.31,3.31,3.3,3.32,3.32,3.32,3.32,3.32,3.28,79.3,-1.0,1.0,0.0,1.0,1.0,6138088,0.0,0.0
1765224643146,0.0,0.0,2.0,25.0,0.0,0.0,0.0,0.0,0.0,0.0,-0.024034,0.005246,0.99186,-0.7000000000000001,0.35000000000000003,17.78,3.31,3.32,3.32,3.31,3.28,3.29,3.28,3.29,3.32,3.32,3.32,3.32,3.28,3.29,3.28,3.29,3.31,3.31,3.31,3.3,3.32,3.32,3.32,3.32,3.32,3.28,79.3,-1.0,1.0,0.0,1.0,1.0,6138120,0.0,0.0
1765224643163,0.0,0.0,2.0,25.0,0.0,0.0,0.0,0.0,0.0,0.0,-0.026718,0.004148,0.993934,-0.7000000000000001,0.35000000000000003,17.78,3.31,3.32,3.32,3.31,3.28,3.29,3.28,3.29,3.32,3.32,3.32,3.32,3.28,3.29,3.28,3.29,3.31,3.31,3.31,3.3,3.32,3.32,3.32,3.32,3.32,3.28,79.3,-1.0,1.0,0.0,1.0,1.0,6138137,0.0,0.0
1765224643196,0.0,0.0,2.0,25.0,0.0,0.0,0.0,0.0,0.0,0.0,-0.026718,0.004148,0.993934,-0.7000000000000001,0.35000000000000003,0.0,3.31,3.32,3.32,3.31,3.28,3.29,3.28,3.29,3.32,3.32,3.32,3.32,3.28,3.29,3.28,3.29,3.31,3.31,3.31,3.3,3.32,3.32,3.32,3.32,3.32,3.28,79.3,-1.0,1.0,0.0,1.0,1.0,6138170,0.0,0.0
1765224643264,0.0,0.0,2.0,25.0,0.0,0.0,0.0,0.0,0.0,0.0,-0.026718,0.004148,0.993934,-0.7000000000000001,0.35000000000000003,0.0,3.31,3.32,3.32,3.31,3.28,3.29,3.28,3.29,3.32,3.32,3.32,3.32,3.28,3.29,3.28,3.29,3.31,3.31,3.31,3.3,3.32,3.32,3.32,3.32,3.32,3.28,79.3,-1.0,1.0,0.0,1.0,1.0,6138238,0.0,0.0
1765224643331,0.0,0.0,2.0,25.0,0.0,0.0,0.0,0.0,0.0,0.0,-0.026718,0.0068319999999999995,0.993812,-0.7000000000000001,0.35000000000000003,0.0,3.31,3.32,3.32,3.31,3.28,3.29,3.28,3.29,3.32,3.32,3.32,3.32,3.28,3.29,3.28,3.29,3.31,3.31,3.31,3.3,3.32,3.32,3.32,3.32,3.32,3.28,79.3,-1.0,1.0,0.0,1.0,1.0,6138305,0.0,0.0
1765224643348,0.0,0.0,2.0,25.0,0.0,0.0,0.0,0.0,0.0,0.0,-0.026718,0.0068319999999999995,0.993812,-0.6300000000000001,0.42000000000000004,0.0,3.31,3.32,3.32,3.31,3.28,3.29,3.28,3.29,3.32,3.32,3.32,3.32,3.28,3.29,3.28,3.29,3.31,3.31,3.31,3.3,3.32,3.32,3.32,3.32,3.32,3.28,79.3,-1.0,1.0,0.0,1.0,1.0,6138322,0.0,0.0
1765224643415,0.0,0.0,2.0,25.0,0.0,0.0,0.0,0.0,0.0,0.0,-0.026718,0.0068319999999999995,0.993812,-0.6300000000000001,0.42000000000000004,0.0,3.31,3.32,3.32,3.31,3.28,3.29,3.28,3.29,3.32,3.32,3.32,3.32,3.28,3.29,3.28,3.29,3.31,3.31,3.31,3.3,3.32,3.32,3.32,3.32,3.32,3.28,79.3,-1.0,1.0,0.0,1.0,1.0,6138389,0.0,0.0
1765224643448,0.0,0.0,2.0,25.0,0.0,0.0,0.0,0.0,0.0,0.0,-0.026718,0.0068319999999999995,0.993812,-0.6300000000000001,0.49000000000000005,0.0,3.31,3.32,3.32,3.31,3.28,3.29,3.28,3.29,3.32,3.32,3.32,3.32,3.28,3.29,3.28,3.29,3.31,3.31,3.31,3.3,3.32,3.32,3.32,3.32,3.32,3.28,79.3,-1.0,1.0,0.0,1.0,1.0,6138422,0.0,0.0
1765224643514,0.0,0.0,2.0,25.0,0.0,0.0,0.0,0.0,0.0,0.0,-0.026595999999999998,0.0060999999999999995,0.991494,-0.6300000000000001,0.49000000000000005,0.0,3.31,3.32,3.32,3.31,3.28,3.29,3.28,3.29,3.32,3.32,3.32,3.32,3.28,3.29,3.28,3.29,3.31,3.31,3.31,3.3,3.32,3.32,3.32,3.32,3.32,3.28,79.3,-1.0,1.0,0.0,1.0,1.0,6138488,0.0,0.0
1765224643530,0.0,0.0,2.0,25.0,0.0,0.0,0.0,0.0,0.0,0.0,-0.026595999999999998,0.0060999999999999995,0.991494,-0.7000000000000001,0.49000000000000005,0.0,3.31,3.32,3.32,3.31,3.28,3.29,3.28,3.29,3.32,3.32,3.32,3.32,3.28,3.29,3.28,3.29,3.31,3.31,3.31,3.3,3.32,3.32,3.32,3.32,3.32,3.28,79.3,-1.0,1.0,0.0,1.0,1.0,6138504,0.0,0.0
1765224643547,0.0,0.0,2.0,25.0,0.0,0.0,0.0,0.0,0.0,0.0,-0.026595999999999998,0.0060999999999999995,0.991494,-0.7000000000000001,0.49000000000000005,0.0,3.31,3.32,3.32,3.31,3.28,3.29,3.28,3.29,3.32,3.32,3.32,3.32,3.28,3.29,3.28,3.29,3.31,3.31,3.31,3.3,3.32,3.32,3.32,3.32,3.32,3.28,79.3,-1.0,1.0,0.0,1.0,1.0,6138521,0.0,0.0
1765224643563,0.0,0.0,2.0,25.0,0.0,0.0,0.0,0.0,0.0,0.0,-0.026595999999999998,0.0060999999999999995,0.991494,-0.7000000000000001,0.49000000000000005,0.0,3.31,3.32,3.32,3.31,3.28,3.29,3.28,3.29,3.32,3.32,3.32,3.32,3.28,3.29,3.28,3.29,3.31,3.31,3.31,3.3,3.32,3.32,3.32,3.32,3.32,3.28,79.3,-1.0,1.0,0.0,1.0,1.0,6138537,0.0,0.0
1765224643599,0.0,0.0,2.0,25.0,0.0,0.0,0.0,0.0,0.0,0.0,-0.026595999999999998,0.0060999999999999995,0.991494,-0.7000000000000001,0.49000000000000005,0.0,3.31,3.32,3.32,3.31,3.28,3.29,3.28,3.29,3.32,3.32,3.32,3.32,3.28,3.29,3.28,3.29,3.31,3.31,3.31,3.3,3.32,3.32,3.32,3.32,3.32,3.28,79.3,-1.0,1.0,0.0,1.0,1.0,6138573,0.0,0.0
1765224643630,0.0,0.0,2.0,25.0,0.0,0.0,0.0,0.0,0.0,0.0,-0.026595999999999998,0.0060999999999999995,0.991494,-0.7000000000000001,0.49000000000000005,0.0,3.31,3.32,3.32,3.31,3.28,3.29,3.28,3.29,3.32,3.32,3.32,3.32,3.28,3.29,3.28,3.29,3.31,3.31,3.31,3.3,3.32,3.32,3.32,3.32,3.32,3.28,79.3,-1.0,1.0,0.0,1.0,1.0,6138604,0.0,0.0
1765224643681,0.0,0.0,2.0,25.0,0.0,0.0,0.0,0.0,0.0,0.0,-0.026595999999999998,0.0060999999999999995,0.991494,-0.7000000000000001,0.49000000000000005,0.0,3.31,3.32,3.32,3.31,3.28,3.29,3.28,3.29,3.32,3.32,3.32,3.32,3.28,3.29,3.28,3.29,3.31,3.31,3.31,3.3,3.32,3.32,3.32,3.32,3.32,3.28,79.3,-1.0,1.0,0.0,1.0,1.0,6138655,0.0,0.0
1765224643697,0.0,0.0,2.0,25.0,0.0,0.0,0.0,0.0,0.0,0.0,-0.029402,0.0050019999999999995,0.993568,-0.7000000000000001,0.49000000000000005,0.0,3.31,3.32,3.32,3.31,3.28,3.29,3.28,3.29,3.32,3.32,3.32,3.32,3.28,3.29,3.28,3.29,3.31,3.31,3.31,3.3,3.32,3.32,3.32,3.32,3.32,3.28,79.3,-1.0,1.0,0.0,1.0,1.0,6138671,0.0,0.0
1765224643747,0.0,0.0,2.0,25.0,0.0,0.0,0.0,0.0,0.0,0.0,-0.029402,0.0050019999999999995,0.993568,-0.6300000000000001,0.42000000000000004,-0.07,3.31,3.32,3.32,3.31,3.28,3.29,3.28,3.29,3.32,3.32,3.32,3.32,3.28,3.29,3.28,3.29,3.31,3.31,3.31,3.3,3.32,3.32,3.32,3.32,3.32,3.28,79.3,-1.0,1.0,0.0,1.0,1.0,6138721,0.0,0.0
1765224643797,0.0,0.0,2.0,25.0,0.0,0.0,0.0,0.0,0.0,0.0,-0.026718,0.0050019999999999995,0.991372,-0.6300000000000001,0.42000000000000004,-0.07,3.31,3.32,3.32,3.31,3.28,3.29,3.28,3.29,3.32,3.32,3.32,3.32,3.28,3.29,3.28,3.29,3.31,3.31,3.31,3.3,3.32,3.32,3.32,3.32,3.32,3.28,79.3,-1.0,1.0,0.0,1.0,1.0,6138771,0.0,0.0
1765224643814,0.0,0.0,2.0,25.0,0.0,0.0,0.0,0.0,0.0,0.0,-0.026718,0.0050019999999999995,0.991372,-0.7000000000000001,0.42000000000000004,-17.92,3.31,3.32,3.32,3.31,3.28,3.29,3.28,3.29,3.32,3.32,3.32,3.32,3.28,3.29,3.28,3.29,3.31,3.31,3.31,3.3,3.32,3.32,3.32,3.32,3.32,3.28,79.3,-1.0,1.0,0.0,1.0,1.0,6138788,0.0,0.0
1765224643831,0.0,0.0,2.0,25.0,0.0,0.0,0.0,0.0,0.0,0.0,-0.026718,0.0050019999999999995,0.991372,-0.7000000000000001,0.42000000000000004,-17.92,3.31,3.32,3.32,3.31,3.28,3.29,3.28,3.29,3.32,3.32,3.32,3.32,3.28,3.29,3.28,3.29,3.31,3.31,3.31,3.3,3.32,3.32,3.32,3.32,3.32,3.28,79.3,0.0,1.0,0.0,1.0,1.0,6138805,0.0,0.0
1765224643864,0.0,0.0,2.0,25.0,0.0,0.0,0.0,0.0,0.0,0.0,-0.026718,0.0050019999999999995,0.991372,-0.7000000000000001,0.42000000000000004,-17.92,3.31,3.32,3.32,3.31,3.28,3.29,3.28,3.29,3.32,3.32,3.32,3.32,3.28,3.29,3.28,3.29,3.31,3.31,3.31,3.3,3.32,3.32,3.32,3.32,3.32,3.28,79.3,0.0,1.0,0.0,1.0,1.0,6138838,0.0,0.0
1765224643880,0.0,0.0,2.0,25.0,0.0,0.0,0.0,0.0,0.0,0.0,-0.026718,0.0050019999999999995,0.991372,-0.7000000000000001,0.42000000000000004,-17.92,3.31,3.32,3.32,3.31,3.28,3.29,3.28,3.29,3.32,3.32,3.32,3.32,3.28,3.29,3.28,3.29,3.31,3.31,3.31,3.3,3.32,3.32,3.32,3.32,3.32,3.28,79.3,0.0,1.0,0.0,1.0,1.0,6138854,0.0,0.0
1765224643896,0.0,0.0,2.0,25.0,0.0,0.0,0.0,0.0,0.0,0.0,-0.026718,0.0050019999999999995,0.991372,-0.7000000000000001,0.42000000000000004,-17.92,3.31,3.32,3.32,3.31,3.28,3.29,3.28,3.29,3.32,3.32,3.32,3.32,3.28,3.29,3.28,3.29,3.31,3.31,3.31,3.3,3.32,3.32,3.32,3.32,3.32,3.28,79.3,0.0,1.0,0.0,1.0,1.0,6138870,0.0,0.0
1765224643913,0.0,0.0,2.0,25.0,0.0,0.0,0.0,0.0,0.0,0.0,-0.026718,0.0050019999999999995,0.991372,-0.7000000000000001,0.42000000000000004,-17.92,3.31,3.32,3.32,3.31,3.28,3.29,3.28,3.29,3.32,3.32,3.32,3.32,3.28,3.29,3.28,3.29,3.31,3.31,3.31,3.3,3.32,3.32,3.32,3.32,3.32,3.28,79.3,0.0,1.0,0.0,1.0,1.0,6138887,0.0,0.0
1765224643948,0.0,0.0,2.0,25.0,0.0,0.0,0.0,0.0,0.0,0.0,-0.026718,0.0050019999999999995,0.991372,-0.7000000000000001,0.42000000000000004,-17.92,3.31,3.32,3.32,3.31,3.28,3.29,3.28,3.29,3.32,3.32,3.32,3.32,3.28,3.29,3.28,3.29,3.31,3.31,3.31,3.3,3.32,3.32,3.32,3.32,3.32,3.28,79.3,0.0,1.0,0.0,1.0,1.0,6138922,0.0,0.0
1765224643995,0.0,0.0,2.0,25.0,0.0,0.0,0.0,0.0,0.0,0.0,-0.026718,0.0050019999999999995,0.991372,-0.7000000000000001,0.42000000000000004,-17.92,3.31,3.32,3.32,3.31,3.28,3.29,3.28,3.29,3.32,3.32,3.32,3.32,3.28,3.29,3.28,3.29,3.31,3.31,3.31,3.3,3.32,3.32,3.32,3.32,3.32,3.28,79.3,0.0,1.0,0.0,1.0,1.0,6138969,0.0,0.0
1765224644014,0.0,0.0,2.0,25.0,0.0,0.0,0.0,0.0,0.0,0.0,-0.024156,0.0064659999999999995,0.994422,-0.7000000000000001,0.42000000000000004,-17.92,3.31,3.32,3.32,3.31,3.28,3.29,3.28,3.29,3.32,3.32,3.32,3.32,3.28,3.29,3.28,3.29,3.31,3.31,3.31,3.3,3.32,3.32,3.32,3.32,3.32,3.28,79.3,0.0,1.0,0.0,1.0,1.0,6138988,0.0,0.0
1765224644081,0.0,0.0,2.0,25.0,0.0,0.0,0.0,0.0,0.0,0.0,-0.024156,0.0064659999999999995,0.994422,-0.7000000000000001,0.42000000000000004,-17.92,3.31,3.32,3.32,3.31,3.28,3.29,3.28,3.29,3.32,3.32,3.32,3.32,3.28,3.29,3.28,3.29,3.31,3.31,3.31,3.3,3.32,3.32,3.32,3.32,3.32,3.28,79.3,0.0,1.0,0.0,1.0,1.0,6139055,0.0,0.0
1765224644114,0.0,0.0,2.0,25.0,0.0,0.0,0.0,0.0,0.0,0.0,-0.024156,0.0064659999999999995,0.994422,-0.6300000000000001,0.49000000000000005,0.0,3.31,3.32,3.32,3.31,3.28,3.29,3.28,3.29,3.32,3.32,3.32,3.32,3.28,3.29,3.28,3.29,3.31,3.31,3.31,3.3,3.32,3.32,3.32,3.32,3.32,3.28,79.3,0.0,1.0,0.0,1.0,1.0,6139088,0.0,0.0
1765224644147,0.0,0.0,2.0,25.0,0.0,0.0,0.0,0.0,0.0,0.0,-0.024156,0.0064659999999999995,0.994422,-0.6300000000000001,0.49000000000000005,0.0,3.31,3.32,3.32,3.31,3.28,3.29,3.28,3.29,3.32,3.32,3.32,3.32,3.28,3.29,3.28,3.29,3.31,3.31,3.31,3.3,3.32,3.32,3.32,3.32,3.32,3.28,79.3,0.0,1.0,0.0,1.0,1.0,6139121,0.0,0.0
1765224644229,0.0,0.0,2.0,25.0,0.0,0.0,0.0,0.0,0.0,0.0,-0.025863999999999998,0.005978,0.993324,-0.6300000000000001,0.49000000000000005,0.0,3.31,3.32,3.32,3.31,3.28,3.29,3.28,3.29,3.32,3.32,3.32,3.32,3.28,3.29,3.28,3.29,3.31,3.31,3.31,3.3,3.32,3.32,3.32,3.32,3.32,3.28,79.3,0.0,1.0,0.0,1.0,1.0,6139203,0.0,0.0
1765224644246,0.0,0.0,2.0,25.0,0.0,0.0,0.0,0.0,0.0,0.0,-0.025863999999999998,0.005978,0.993324,-0.56,0.49000000000000005,0.0,3.31,3.32,3.32,3.31,3.28,3.29,3.28,3.29,3.32,3.32,3.32,3.32,3.28,3.29,3.28,3.29,3.31,3.31,3.31,3.3,3.32,3.32,3.32,3.32,3.32,3.28,79.3,0.0,1.0,0.0,1.0,1.0,6139220,0.0,0.0
1765224644296,0.0,0.0,2.0,25.0,0.0,0.0,0.0,0.0,0.0,0.0,-0.025863999999999998,0.005978,0.993324,-0.56,0.49000000000000005,0.0,3.31,3.32,3.32,3.31,3.28,3.29,3.28,3.29,3.32,3.32,3.32,3.32,3.28,3.29,3.28,3.29,3.31,3.31,3.31,3.3,3.32,3.32,3.32,3.32,3.32,3.28,79.3,0.0,1.0,0.0,1.0,1.0,6139270,0.0,0.0
1765224644330,0.0,0.0,2.0,25.0,0.0,0.0,0.0,0.0,0.0,0.0,-0.025863999999999998,0.005978,0.993324,-0.56,0.49000000000000005,0.0,3.31,3.32,3.32,3.31,3.28,3.29,3.28,3.29,3.32,3.32,3.32,3.32,3.28,3.29,3.28,3.29,3.31,3.31,3.31,3.3,3.32,3.32,3.32,3.32,3.32,3.28,79.3,0.0,1.0,0.0,1.0,1.0,6139304,0.0,0.0
1765224644347,0.0,0.0,2.0,25.0,0.0,0.0,0.0,0.0,0.0,0.0,-0.026108,0.005612,0.992958,-0.56,0.49000000000000005,0.0,3.31,3.32,3.32,3.31,3.28,3.29,3.28,3.29,3.32,3.32,3.32,3.32,3.28,3.29,3.28,3.29,3.31,3.31,3.31,3.3,3.32,3.32,3.32,3.32,3.32,3.28,79.3,0.0,1.0,0.0,1.0,1.0,6139321,0.0,0.0
1765224644364,0.0,0.0,2.0,25.0,0.0,0.0,0.0,0.0,0.0,0.0,-0.026108,0.005612,0.992958,-0.56,0.49000000000000005,0.0,3.31,3.32,3.32,3.31,3.28,3.29,3.28,3.29,3.32,3.32,3.32,3.32,3.28,3.29,3.28,3.29,3.31,3.31,3.31,3.3,3.32,3.32,3.32,3.32,3.32,3.28,79.3,0.0,1.0,0.0,1.0,1.0,6139338,0.0,0.0
1765224644395,0.0,0.0,2.0,25.0,0.0,0.0,0.0,0.0,0.0,0.0,-0.026108,0.005612,0.992958,-0.6300000000000001,0.42000000000000004,0.0,3.31,3.32,3.32,3.31,3.28,3.29,3.28,3.29,3.32,3.32,3.32,3.32,3.28,3.29,3.28,3.29,3.31,3.31,3.31,3.3,3.32,3.32,3.32,3.32,3.32,3.28,79.3,0.0,1.0,0.0,1.0,1.0,6139369,0.0,0.0
1765224644430,0.0,0.0,2.0,25.0,0.0,0.0,0.0,0.0,0.0,0.0,-0.026108,0.005612,0.992958,-0.6300000000000001,0.42000000000000004,0.0,3.31,3.32,3.32,3.31,3.28,3.29,3.28,3.29,3.32,3.32,3.32,3.32,3.28,3.29,3.28,3.29,3.31,3.31,3.31,3.3,3.32,3.32,3.32,3.32,3.32,3.28,79.3,0.0,1.0,0.0,1.0,1.0,6139404,0.0,0.0
1765224644514,0.0,0.0,2.0,25.0,0.0,0.0,0.0,0.0,0.0,0.0,-0.025376,0.005124,0.9922259999999999,-0.6300000000000001,0.42000000000000004,0.0,3.31,3.32,3.32,3.31,3.28,3.29,3.28,3.29,3.32,3.32,3.32,3.32,3.28,3.29,3.28,3.29,3.31,3.31,3.31,3.3,3.32,3.32,3.32,3.32,3.32,3.28,79.3,0.0,1.0,0.0,1.0,1.0,6139488,0.0,0.0
1765224644529,0.0,0.0,2.0,25.0,0.0,0.0,0.0,0.0,0.0,0.0,-0.025376,0.005124,0.9922259999999999,-0.7000000000000001,0.42000000000000004,-0.07,3.31,3.32,3.32,3.31,3.28,3.29,3.28,3.29,3.32,3.32,3.32,3.32,3.28,3.29,3.28,3.29,3.31,3.31,3.31,3.3,3.32,3.32,3.32,3.32,3.32,3.28,79.3,0.0,1.0,0.0,1.0,1.0,6139503,0.0,0.0
1765224644580,0.0,0.0,2.0,25.0,0.0,0.0,0.0,0.0,0.0,0.0,-0.025376,0.005124,0.9922259999999999,-0.7000000000000001,0.42000000000000004,-0.07,3.31,3.32,3.32,3.31,3.28,3.29,3.28,3.29,3.32,3.32,3.32,3.32,3.28,3.29,3.28,3.29,3.31,3.31,3.31,3.3,3.32,3.32,3.32,3.32,3.32,3.28,79.3,0.0,1.0,0.0,1.0,1.0,6139554,0.0,0.0
1765224644597,0.0,0.0,2.0,25.0,0.0,0.0,0.0,0.0,0.0,0.0,-0.025376,0.005124,0.9922259999999999,-0.7000000000000001,0.42000000000000004,-0.07,3.31,3.32,3.32,3.31,3.28,3.29,3.28,3.29,3.32,3.32,3.32,3.32,3.28,3.29,3.28,3.29,3.31,3.31,3.31,3.3,3.32,3.32,3.32,3.32,3.32,3.28,79.3,0.0,1.0,0.0,1.0,1.0,6139571,0.0,0.0
1765224644614,0.0,0.0,2.0,25.0,0.0,0.0,0.0,0.0,0.0,0.0,-0.025376,0.005124,0.9922259999999999,-0.7000000000000001,0.42000000000000004,-0.07,3.31,3.32,3.32,3.31,3.28,3.29,3.28,3.29,3.32,3.32,3.32,3.32,3.28,3.29,3.28,3.29,3.31,3.31,3.31,3.3,3.32,3.32,3.32,3.32,3.32,3.28,79.3,0.0,1.0,0.0,1.0,1.0,6139588,0.0,0.0
1765224644630,0.0,0.0,2.0,25.0,0.0,0.0,0.0,0.0,0.0,0.0,-0.025376,0.005124,0.9922259999999999,-0.7000000000000001,0.42000000000000004,-0.07,3.31,3.32,3.32,3.31,3.28,3.29,3.28,3.29,3.32,3.32,3.32,3.32,3.28,3.29,3.28,3.29,3.31,3.31,3.31,3.3,3.32,3.32,3.32,3.32,3.32,3.28,79.3,0.0,1.0,0.0,1.0,1.0,6139604,0.0,0.0
1765224644647,0.0,0.0,2.0,25.0,0.0,0.0,0.0,0.0,0.0,0.0,-0.025376,0.005124,0.9922259999999999,-0.7000000000000001,0.42000000000000004,-0.07,3.31,3.32,3.32,3.31,3.28,3.29,3.28,3.29,3.32,3.32,3.32,3.32,3.28,3.29,3.28,3.29,3.31,3.31,3.31,3.3,3.32,3.32,3.32,3.32,3.32,3.28,79.3,0.0,1.0,0.0,1.0,1.0,6139621,0.0,0.0
1765224644698,0.0,0.0,2.0,25.0,0.0,0.0,0.0,0.0,0.0,0.0,-0.026595999999999998,0.005246,0.9940559999999999,-0.7000000000000001,0.42000000000000004,-0.07,3.31,3.32,3.32,3.31,3.28,3.29,3.28,3.29,3.32,3.32,3.32,3.32,3.28,3.29,3.28,3.29,3.31,3.31,3.31,3.3,3.32,3.32,3.32,3.32,3.32,3.28,79.3,0.0,1.0,0.0,1.0,1.0,6139672,0.0,0.0
1765224644715,0.0,0.0,2.0,25.0,0.0,0.0,0.0,0.0,0.0,0.0,-0.026595999999999998,0.005246,0.9940559999999999,-0.56,0.21000000000000002,0.07,3.31,3.32,3.32,3.31,3.28,3.29,3.28,3.29,3.32,3.32,3.32,3.32,3.28,3.29,3.28,3.29,3.31,3.31,3.31,3.3,3.32,3.32,3.32,3.32,3.32,3.28,79.3,0.0,1.0,0.0,1.0,1.0,6139689,0.0,0.0
1765224644730,0.0,0.0,2.0,25.0,0.0,0.0,0.0,0.0,0.0,0.0,-0.026595999999999998,0.005246,0.9940559999999999,-0.56,0.21000000000000002,0.07,3.31,3.32,3.32,3.31,3.28,3.29,3.28,3.29,3.32,3.32,3.32,3.32,3.28,3.29,3.28,3.29,3.31,3.31,3.31,3.3,3.32,3.32,3.32,3.32,3.32,3.28,79.3,0.0,1.0,0.0,1.0,1.0,6139704,0.0,0.0
1765224644747,0.0,0.0,2.0,25.0,0.0,0.0,0.0,0.0,0.0,0.0,-0.026595999999999998,0.005246,0.9940559999999999,-0.56,0.21000000000000002,0.07,3.31,3.32,3.32,3.31,3.28,3.29,3.28,3.29,3.32,3.32,3.32,3.32,3.28,3.29,3.28,3.29,3.31,3.31,3.31,3.3,3.32,3.32,3.32,3.32,3.32,3.28,79.3,0.0,1.0,0.0,1.0,1.0,6139721,0.0,0.0
1765224644764,0.0,0.0,2.0,25.0,0.0,0.0,0.0,0.0,0.0,0.0,-0.026595999999999998,0.005246,0.9940559999999999,-0.56,0.21000000000000002,0.07,3.31,3.32,3.32,3.31,3.28,3.29,3.28,3.29,3.32,3.32,3.32,3.32,3.28,3.29,3.28,3.29,3.31,3.31,3.31,3.3,3.32,3.32,3.32,3.32,3.32,3.28,79.3,0.0,1.0,0.0,1.0,1.0,6139738,0.0,0.0
1765224644781,0.0,0.0,2.0,25.0,0.0,0.0,0.0,0.0,0.0,0.0,-0.026595999999999998,0.005246,0.9940559999999999,-0.56,0.21000000000000002,0.07,3.31,3.32,3.32,3.31,3.28,3.29,3.28,3.29,3.32,3.32,3.32,3.32,3.28,3.29,3.28,3.29,3.31,3.31,3.31,3.3,3.32,3.32,3.32,3.32,3.32,3.28,79.3,0.0,1.0,0.0,1.0,1.0,6139755,0.0,0.0
1765224644796,0.0,0.0,2.0,25.0,0.0,0.0,0.0,0.0,0.0,0.0,-0.026595999999999998,0.005246,0.9940559999999999,-0.56,0.21000000000000002,0.07,3.31,3.32,3.32,3.31,3.28,3.29,3.28,3.29,3.32,3.32,3.32,3.32,3.28,3.29,3.28,3.29,3.31,3.31,3.31,3.3,3.32,3.32,3.32,3.32,3.32,3.28,79.3,0.0,1.0,0.0,1.0,1.0,6139770,0.0,0.0
1765224644813,0.0,0.0,2.0,25.0,0.0,0.0,0.0,0.0,0.0,0.0,-0.026595999999999998,0.005246,0.9940559999999999,-0.56,0.21000000000000002,0.07,3.31,3.32,3.32,3.31,3.28,3.29,3.29,3.29,3.32,3.32,3.32,3.32,3.28,3.29,3.28,3.29,3.31,3.31,3.31,3.3,3.32,3.32,3.32,3.32,3.32,3.28,79.3,0.0,1.0,0.0,1.0,1.0,6139787,0.0,0.0
1765224644831,0.0,0.0,2.0,25.0,0.0,0.0,0.0,0.0,0.0,0.0,-0.026595999999999998,0.005246,0.9940559999999999,-0.56,0.21000000000000002,0.07,3.31,3.32,3.32,3.31,3.28,3.29,3.29,3.29,3.32,3.32,3.32,3.32,3.28,3.29,3.28,3.29,3.31,3.31,3.31,3.3,3.32,3.32,3.32,3.32,3.32,3.28,79.3,0.0,1.0,0.0,1.0,1.0,6139805,0.0,0.0
1765224644847,0.0,0.0,2.0,25.0,0.0,0.0,0.0,0.0,0.0,0.0,-0.026595999999999998,0.005246,0.9940559999999999,-0.56,0.21000000000000002,0.07,3.31,3.32,3.32,3.31,3.28,3.29,3.29,3.29,3.32,3.32,3.32,3.32,3.28,3.29,3.28,3.29,3.31,3.31,3.31,3.3,3.32,3.32,3.32,3.32,3.32,3.28,79.3,0.0,1.0,0.0,1.0,1.0,6139821,0.0,0.0
1765224644864,0.0,0.0,2.0,25.0,0.0,0.0,0.0,0.0,0.0,0.0,-0.026595999999999998,0.005246,0.9940559999999999,-0.56,0.21000000000000002,0.07,3.31,3.32,3.32,3.31,3.28,3.29,3.29,3.29,3.32,3.32,3.32,3.32,3.28,3.29,3.28,3.29,3.31,3.31,3.31,3.3,3.32,3.32,3.32,3.32,3.32,3.28,79.3,0.0,1.0,0.0,1.0,1.0,6139838,0.0,0.0
1765224644895,0.0,0.0,2.0,25.0,0.0,0.0,0.0,0.0,0.0,0.0,-0.026595999999999998,0.005246,0.9940559999999999,-0.56,0.21000000000000002,0.07,3.31,3.32,3.32,3.31,3.28,3.29,3.29,3.29,3.32,3.32,3.32,3.32,3.28,3.29,3.28,3.29,3.31,3.31,3.31,3.3,3.32,3.32,3.32,3.32,3.32,3.28,79.3,0.0,1.0,0.0,1.0,1.0,6139869,0.0,0.0
1765224644913,0.0,0.0,2.0,25.0,0.0,0.0,0.0,0.0,0.0,0.0,-0.026595999999999998,0.005246,0.9940559999999999,-0.56,0.21000000000000002,0.07,3.31,3.32,3.32,3.31,3.28,3.29,3.29,3.29,3.32,3.32,3.32,3.32,3.28,3.29,3.28,3.29,3.31,3.31,3.31,3.3,3.32,3.32,3.32,3.32,3.32,3.28,79.3,0.0,1.0,0.0,1.0,1.0,6139887,0.0,0.0
1765224644929,0.0,0.0,2.0,25.0,0.0,0.0,0.0,0.0,0.0,0.0,-0.026595999999999998,0.005246,0.9940559999999999,-0.56,0.21000000000000002,0.07,3.31,3.32,3.32,3.31,3.28,3.29,3.29,3.29,3.32,3.32,3.32,3.32,3.28,3.29,3.28,3.29,3.31,3.31,3.31,3.3,3.32,3.32,3.32,3.32,3.32,3.28,79.3,0.0,1.0,0.0,1.0,1.0,6139903,0.0,0.0
1765224644995,0.0,0.0,2.0,25.0,0.0,0.0,0.0,0.0,0.0,0.0,-0.027938,0.0050019999999999995,0.99247,-0.56,0.21000000000000002,0.07,3.31,3.32,3.32,3.31,3.28,3.29,3.29,3.29,3.32,3.32,3.32,3.32,3.28,3.29,3.28,3.29,3.31,3.31,3.31,3.3,3.32,3.32,3.32,3.32,3.32,3.28,79.3,0.0,1.0,0.0,1.0,1.0,6139969,0.0,0.0
1765224645013,0.0,0.0,2.0,25.0,0.0,0.0,0.0,0.0,0.0,0.0,-0.027938,0.0050019999999999995,0.99247,-0.7000000000000001,0.49000000000000005,0.0,3.31,3.32,3.32,3.31,3.28,3.29,3.29,3.29,3.32,3.32,3.32,3.32,3.28,3.29,3.28,3.29,3.31,3.31,3.31,3.3,3.32,3.32,3.32,3.32,3.32,3.28,79.3,0.0,1.0,0.0,1.0,1.0,6139987,0.0,0.0
1765224645064,0.0,0.0,2.0,25.0,0.0,0.0,0.0,0.0,0.0,0.0,-0.027938,0.0050019999999999995,0.99247,-0.7000000000000001,0.49000000000000005,0.0,3.31,3.32,3.32,3.31,3.28,3.29,3.29,3.29,3.32,3.32,3.32,3.32,3.28,3.29,3.28,3.29,3.31,3.31,3.31,3.3,3.32,3.32,3.32,3.32,3.32,3.28,79.3,0.0,1.0,0.0,1.0,1.0,6140038,0.0,0.0
1765224645080,0.0,0.0,2.0,25.0,0.0,0.0,0.0,0.0,0.0,0.0,-0.027938,0.0050019999999999995,0.99247,-0.7000000000000001,0.49000000000000005,0.0,3.31,3.32,3.32,3.31,3.28,3.29,3.29,3.29,3.32,3.32,3.32,3.32,3.28,3.29,3.28,3.29,3.31,3.31,3.31,3.3,3.32,3.32,3.32,3.32,3.32,3.28,79.3,0.0,1.0,0.0,1.0,1.0,6140054,0.0,0.0
1765224645098,0.0,0.0,2.0,25.0,0.0,0.0,0.0,0.0,0.0,0.0,-0.025742,0.0037819999999999998,0.991738,-0.7000000000000001,0.49000000000000005,0.0,3.31,3.32,3.32,3.31,3.28,3.29,3.29,3.29,3.32,3.32,3.32,3.32,3.28,3.29,3.28,3.29,3.31,3.31,3.31,3.3,3.32,3.32,3.32,3.32,3.32,3.28,79.3,0.0,1.0,0.0,1.0,1.0,6140072,0.0,0.0
1765224645113,0.0,0.0,2.0,25.0,0.0,0.0,0.0,0.0,0.0,0.0,-0.025742,0.0037819999999999998,0.991738,-0.7000000000000001,0.49000000000000005,0.0,3.31,3.32,3.32,3.31,3.28,3.29,3.29,3.29,3.32,3.32,3.32,3.32,3.28,3.29,3.28,3.29,3.31,3.31,3.31,3.3,3.32,3.32,3.32,3.32,3.32,3.28,79.3,0.0,1.0,0.0,1.0,1.0,6140087,0.0,0.0
1765224645146,0.0,0.0,2.0,25.0,0.0,0.0,0.0,0.0,0.0,0.0,-0.025742,0.0037819999999999998,0.991738,-0.7000000000000001,0.49000000000000005,0.0,3.31,3.32,3.32,3.31,3.28,3.29,3.29,3.29,3.32,3.32,3.32,3.32,3.28,3.29,3.28,3.29,3.31,3.31,3.31,3.3,3.32,3.32,3.32,3.32,3.32,3.28,79.3,0.0,1.0,0.0,1.0,1.0,6140120,0.0,0.0
1765224645162,0.0,0.0,2.0,25.0,0.0,0.0,0.0,0.0,0.0,0.0,-0.025742,0.0037819999999999998,0.991738,-0.7000000000000001,0.35000000000000003,-0.07,3.31,3.32,3.32,3.31,3.28,3.29,3.29,3.29,3.32,3.32,3.32,3.32,3.28,3.29,3.28,3.29,3.31,3.31,3.31,3.3,3.32,3.32,3.32,3.32,3.32,3.28,79.3,0.0,1.0,0.0,1.0,1.0,6140136,0.0,0.0
1765224645213,0.0,0.0,2.0,25.0,0.0,0.0,0.0,0.0,0.0,0.0,-0.025742,0.0037819999999999998,0.991738,-0.7000000000000001,0.35000000000000003,-0.07,3.31,3.32,3.32,3.31,3.28,3.29,3.29,3.29,3.32,3.32,3.32,3.32,3.28,3.29,3.28,3.29,3.31,3.31,3.31,3.3,3.32,3.32,3.32,3.32,3.32,3.28,79.3,0.0,1.0,0.0,1.0,1.0,6140187,0.0,0.0
1765224645329,0.0,0.0,2.0,25.0,0.0,0.0,0.0,0.0,0.0,0.0,-0.025742,0.0037819999999999998,0.991738,-0.7000000000000001,0.35000000000000003,-0.07,3.31,3.32,3.32,3.31,3.28,3.29,3.29,3.29,3.32,3.32,3.32,3.32,3.28,3.29,3.28,3.29,3.31,3.31,3.31,3.3,3.32,3.32,3.32,3.32,3.32,3.28,79.3,0.0,1.0,0.0,1.0,1.0,6140303,0.0,0.0
1765224645345,0.0,0.0,2.0,25.0,0.0,0.0,0.0,0.0,0.0,0.0,-0.025742,0.0037819999999999998,0.991738,-0.6300000000000001,0.35000000000000003,0.0,3.31,3.32,3.32,3.31,3.28,3.29,3.29,3.29,3.32,3.32,3.32,3.32,3.28,3.29,3.28,3.29,3.31,3.31,3.31,3.3,3.32,3.32,3.32,3.32,3.32,3.28,79.3,0.0,1.0,0.0,1.0,1.0,6140319,0.0,0.0
1765224645429,0.0,0.0,2.0,25.0,0.0,0.0,0.0,0.0,0.0,0.0,-0.026595999999999998,0.005246,0.992592,-0.6300000000000001,0.35000000000000003,0.0,3.31,3.32,3.32,3.31,3.28,3.29,3.29,3.29,3.32,3.32,3.32,3.32,3.28,3.29,3.28,3.29,3.31,3.31,3.31,3.3,3.32,3.32,3.32,3.32,3.32,3.28,79.3,0.0,1.0,0.0,1.0,1.0,6140403,0.0,0.0
1765224645445,0.0,0.0,2.0,25.0,0.0,0.0,0.0,0.0,0.0,0.0,-0.026595999999999998,0.005246,0.992592,-0.6300000000000001,0.42000000000000004,-0.07,3.31,3.32,3.32,3.31,3.28,3.29,3.29,3.29,3.32,3.32,3.32,3.32,3.28,3.29,3.28,3.29,3.31,3.31,3.31,3.3,3.32,3.32,3.32,3.32,3.32,3.28,79.3,0.0,1.0,0.0,1.0,1.0,6140419,0.0,0.0
1765224645479,0.0,0.0,2.0,25.0,0.0,0.0,0.0,0.0,0.0,0.0,-0.026595999999999998,0.005246,0.992592,-0.6300000000000001,0.42000000000000004,-0.07,3.31,3.32,3.32,3.31,3.28,3.29,3.29,3.29,3.32,3.32,3.32,3.32,3.28,3.29,3.28,3.29,3.31,3.31,3.31,3.3,3.32,3.32,3.32,3.32,3.32,3.28,79.3,0.0,1.0,0.0,1.0,1.0,6140453,0.0,0.0
1765224645496,0.0,0.0,2.0,25.0,0.0,0.0,0.0,0.0,0.0,0.0,-0.026595999999999998,0.005246,0.992592,-0.6300000000000001,0.42000000000000004,-0.07,3.31,3.32,3.32,3.31,3.28,3.29,3.29,3.29,3.32,3.32,3.32,3.32,3.28,3.29,3.28,3.29,3.31,3.31,3.31,3.3,3.32,3.32,3.32,3.32,3.32,3.28,79.3,0.0,1.0,0.0,1.0,1.0,6140470,0.0,0.0
1765224645512,0.0,0.0,2.0,25.0,0.0,0.0,0.0,0.0,0.0,0.0,-0.026595999999999998,0.005246,0.992592,-0.6300000000000001,0.42000000000000004,-0.07,3.31,3.32,3.32,3.31,3.28,3.29,3.29,3.29,3.32,3.32,3.32,3.32,3.28,3.29,3.28,3.29,3.31,3.31,3.31,3.3,3.32,3.32,3.32,3.32,3.32,3.28,79.3,0.0,1.0,0.0,1.0,1.0,6140486,0.0,0.0
1765224645530,0.0,0.0,2.0,25.0,0.0,0.0,0.0,0.0,0.0,0.0,-0.026595999999999998,0.005246,0.992592,-0.6300000000000001,0.42000000000000004,-0.07,3.31,3.32,3.32,3.31,3.28,3.29,3.29,3.29,3.32,3.32,3.32,3.32,3.28,3.29,3.28,3.29,3.31,3.31,3.31,3.3,3.32,3.32,3.32,3.32,3.32,3.28,79.3,0.0,1.0,0.0,1.0,1.0,6140504,0.0,0.0
1765224645545,0.0,0.0,2.0,25.0,0.0,0.0,0.0,0.0,0.0,0.0,-0.026595999999999998,0.005246,0.992592,-0.6300000000000001,0.42000000000000004,-0.07,3.31,3.32,3.32,3.31,3.28,3.29,3.29,3.29,3.32,3.32,3.32,3.32,3.28,3.29,3.28,3.29,3.31,3.31,3.31,3.3,3.32,3.32,3.32,3.32,3.32,3.28,79.3,0.0,1.0,0.0,1.0,1.0,6140519,0.0,0.0
1765224645612,0.0,0.0,2.0,25.0,0.0,0.0,0.0,0.0,0.0,0.0,-0.026108,0.004026,0.9916159999999999,-0.6300000000000001,0.42000000000000004,-0.07,3.31,3.32,3.32,3.31,3.28,3.29,3.29,3.29,3.32,3.32,3.32,3.32,3.28,3.29,3.28,3.29,3.31,3.31,3.31,3.3,3.32,3.32,3.32,3.32,3.32,3.28,79.3,0.0,1.0,0.0,1.0,1.0,6140586,0.0,0.0
1765224645663,0.0,0.0,2.0,25.0,0.0,0.0,0.0,0.0,0.0,0.0,-0.026108,0.004026,0.9916159999999999,-0.6300000000000001,0.28,0.07,3.31,3.32,3.32,3.31,3.28,3.29,3.29,3.29,3.32,3.32,3.32,3.32,3.28,3.29,3.28,3.29,3.31,3.31,3.31,3.3,3.32,3.32,3.32,3.32,3.32,3.28,79.3,0.0,1.0,0.0,1.0,1.0,6140637,0.0,0.0
1765224645698,0.0,0.0,2.0,25.0,0.0,0.0,0.0,0.0,0.0,0.0,-0.026108,0.004026,0.9916159999999999,-0.6300000000000001,0.28,0.07,3.31,3.32,3.32,3.31,3.28,3.29,3.29,3.29,3.32,3.32,3.32,3.32,3.28,3.29,3.28,3.29,3.31,3.31,3.31,3.3,3.32,3.32,3.32,3.32,3.32,3.28,79.3,0.0,1.0,0.0,1.0,1.0,6140672,0.0,0.0
1765224645715,0.0,0.0,2.0,25.0,0.0,0.0,0.0,0.0,0.0,0.0,-0.026108,0.004026,0.9916159999999999,-0.6300000000000001,0.28,0.07,3.31,3.32,3.32,3.31,3.28,3.29,3.29,3.29,3.32,3.32,3.32,3.32,3.28,3.29,3.28,3.29,3.31,3.31,3.31,3.3,3.32,3.32,3.32,3.32,3.32,3.28,79.3,0.0,1.0,0.0,1.0,1.0,6140689,0.0,0.0
1765224645762,0.0,0.0,2.0,25.0,0.0,0.0,0.0,0.0,0.0,0.0,-0.026474,0.0053679999999999995,0.99369,-0.6300000000000001,0.28,0.07,3.31,3.32,3.32,3.31,3.28,3.29,3.29,3.29,3.32,3.32,3.32,3.32,3.28,3.29,3.28,3.29,3.31,3.31,3.31,3.3,3.32,3.32,3.32,3.32,3.32,3.28,79.3,0.0,1.0,0.0,1.0,1.0,6140736,0.0,0.0
1765224645780,0.0,0.0,2.0,25.0,0.0,0.0,0.0,0.0,0.0,0.0,-0.026474,0.0053679999999999995,0.99369,-0.7000000000000001,0.49000000000000005,0.0,3.31,3.32,3.32,3.31,3.28,3.29,3.29,3.29,3.32,3.32,3.32,3.32,3.28,3.29,3.28,3.29,3.31,3.31,3.31,3.3,3.32,3.32,3.32,3.32,3.32,3.28,79.3,0.0,1.0,0.0,1.0,1.0,6140754,0.0,0.0
1765224645814,60.0,0.0,2.0,25.0,0.0,0.0,0.0,0.0,0.0,0.0,-0.026474,0.0053679999999999995,0.99369,-0.7000000000000001,0.49000000000000005,0.0,3.31,3.32,3.32,3.31,3.28,3.29,3.29,3.29,3.32,3.32,3.32,3.32,3.28,3.29,3.28,3.29,3.31,3.31,3.31,3.3,3.32,3.32,3.32,3.32,3.32,3.28,79.3,0.0,1.0,0.0,1.0,1.0,6140788,0.0,0.0
1765224645831,60.0,0.0,2.0,25.0,0.0,0.0,0.0,0.0,0.0,0.0,-0.026474,0.0053679999999999995,0.99369,-0.7000000000000001,0.49000000000000005,0.0,3.31,3.32,3.32,3.31,3.28,3.29,3.29,3.29,3.32,3.32,3.32,3.32,3.28,3.29,3.28,3.29,3.31,3.31,3.31,3.3,3.32,3.32,3.32,3.32,3.32,3.28,79.3,0.0,1.0,0.0,1.0,1.0,6140805,0.0,0.0
1765224645847,60.0,0.0,2.0,25.0,0.0,0.0,0.0,0.0,0.0,0.0,-0.026474,0.0053679999999999995,0.99369,-0.7000000000000001,0.49000000000000005,0.0,3.31,3.32,3.32,3.31,3.28,3.29,3.29,3.29,3.32,3.32,3.32,3.32,3.28,3.29,3.28,3.29,3.31,3.31,3.31,3.3,3.32,3.32,3.32,3.32,3.32,3.28,79.3,0.0,1.0,0.0,1.0,1.0,6140821,0.0,0.0
1765224645881,60.0,0.0,2.0,25.0,0.0,0.0,0.0,0.0,0.0,0.0,-0.026474,0.0053679999999999995,0.99369,-0.7000000000000001,0.49000000000000005,0.0,3.31,3.32,3.32,3.31,3.28,3.29,3.29,3.29,3.32,3.32,3.32,3.32,3.28,3.29,3.28,3.29,3.31,3.31,3.31,3.3,3.32,3.32,3.32,3.32,3.32,3.28,79.3,0.0,1.0,0.0,1.0,1.0,6140855,0.0,0.0
1765224645930,132.0,0.0,2.0,25.0,0.0,0.0,0.0,0.0,0.0,0.0,-0.026474,0.0053679999999999995,0.99369,-0.7000000000000001,0.49000000000000005,0.0,3.31,3.32,3.32,3.31,3.28,3.29,3.29,3.29,3.32,3.32,3.32,3.32,3.28,3.29,3.28,3.29,3.31,3.31,3.31,3.3,3.32,3.32,3.32,3.32,3.32,3.28,79.3,0.0,1.0,0.0,1.0,1.0,6140904,0.0,0.0
1765224645947,132.0,0.0,2.0,25.0,330.0,330.0,0.0,0.0,0.0,0.0,-0.026474,0.0053679999999999995,0.99369,-0.7000000000000001,0.49000000000000005,0.0,3.31,3.32,3.32,3.31,3.28,3.29,3.29,3.29,3.32,3.32,3.32,3.32,3.28,3.29,3.28,3.29,3.31,3.31,3.31,3.3,3.32,3.32,3.32,3.32,3.32,3.28,79.3,0.0,1.0,0.0,1.0,1.0,6140921,0.0,0.0
1765224645964,132.0,0.0,2.0,25.0,330.0,330.0,0.0,0.0,0.011040128571428571,0.0,-0.026474,0.0053679999999999995,0.99369,-0.7000000000000001,0.49000000000000005,0.0,3.31,3.32,3.32,3.31,3.28,3.29,3.29,3.29,3.32,3.32,3.32,3.32,3.28,3.29,3.28,3.29,3.31,3.31,3.31,3.3,3.32,3.32,3.32,3.32,3.32,3.28,79.3,0.0,1.0,0.0,1.0,1.0,6140938,0.0,0.0
1765224645981,132.0,0.0,2.0,25.0,330.0,330.0,0.0,0.0,0.011040128571428571,0.0,-0.026718,0.006588,0.993568,-0.7000000000000001,0.49000000000000005,0.0,3.31,3.32,3.32,3.31,3.28,3.29,3.29,3.29,3.32,3.32,3.32,3.32,3.28,3.29,3.28,3.29,3.31,3.31,3.31,3.3,3.32,3.32,3.32,3.32,3.32,3.28,79.3,0.0,1.0,0.0,1.0,1.0,6140955,0.0,0.0
1765224645997,132.0,0.0,2.0,25.0,330.0,330.0,0.011040128571428571,0.0,0.011040128571428571,0.0,-0.026718,0.006588,0.993568,-0.7000000000000001,0.49000000000000005,0.0,3.31,3.32,3.32,3.31,3.28,3.29,3.29,3.29,3.32,3.32,3.32,3.32,3.28,3.29,3.28,3.29,3.31,3.31,3.31,3.3,3.32,3.32,3.32,3.32,3.32,3.28,79.3,0.0,1.0,0.0,1.0,1.0,6140971,1.0,0.0
