timestamp,THROTTLE,BRAKE,ECU_MODE_ID,TORQUE_GAIN,TORQUE_REF_LEFT_MOTOR,TORQUE_REF_RIGHT_MOTOR,LEFT_MOTOR_SPEED,RIGHT_MOTOR_SPEED,REAR_LEFT_WHEEL_SPEED,REAR_RIGHT_WHEEL_SPEED,ACCEL_LONGITUDINAL,ACCEL_LATERAL,ACCEL_NORMAL,VEL_ANGULAR_YAW,VEL_ANGULAR_PITCH,VEL_ANGULAR_ROLL,STACK_1_CELL_1,STACK_1_CELL_2,STACK_1_CELL_3,STACK_1_CELL_4,STACK_2_CELL_1,STACK_2_CELL_2,STACK_2_CELL_3,STACK_2_CELL_4,STACK_3_CELL_1,STACK_3_CELL_2,STACK_3_CELL_3,STACK_3_CELL_4,STACK_4_CELL_1,STACK_4_CELL_2,STACK_4_CELL_3,STACK_4_CELL_4,STACK_5_CELL_1,STACK_5_CELL_2,STACK_5_CELL_3,STACK_5_CELL_4,STACK_6_CELL_1,STACK_6_CELL_2,STACK_6_CELL_3,STACK_6_CELL_4,MAX_VOLTAGE,MIN_VOLTAGE,TOTAL_VOLTAGE,SHUNT_CURRENT,BMS_MODE_ID,BMS_ERROR_ID,AIR_P,AIR_N,t
1765224060052,0.0,0.0,0.0,0.0,0.0,0.0,40.296469285714295,37.97804228571429,40.296469285714295,37.97804228571429,-0.014152,0.007076,0.993202,-0.77,0.56,0.0,3.31,3.31,3.31,3.29,3.28,3.29,3.28,3.3,3.31,3.31,3.31,3.31,3.28,3.3,3.28,3.3,3.31,3.31,3.31,3.31,3.31,3.32,3.31,3.31,3.32,3.28,79.2,-45.0,1.0,2.0,0.0,0.0,5555026
1765224060104,0.0,0.0,0.0,0.0,0.0,0.0,40.296469285714295,37.97804228571429,40.296469285714295,37.97804228571429,-0.014152,0.007076,0.993202,-0.77,0.56,0.0,3.31,3.31,3.31,3.29,3.28,3.29,3.28,3.3,3.31,3.31,3.31,3.31,3.28,3.3,3.28,3.3,3.31,3.31,3.31,3.31,3.31,3.32,3.31,3.31,3.32,3.28,79.2,-45.0,1.0,2.0,0.0,0.0,5555078
1765224060154,0.0,0.0,0.0,0.0,0.0,0.0,40.296469285714295,37.97804228571429,40.296469285714295,37.97804228571429,-0.014395999999999999,0.007442,0.994788,-0.77,0.56,0.0,3.31,3.31,3.31,3.29,3.28,3.29,3.28,3.3,3.31,3.31,3.31,3.31,3.28,3.3,3.28,3.3,3.31,3.31,3.31,3.31,3.31,3.32,3.31,3.31,3.32,3.28,79.2,-45.0,1.0,2.0,0.0,0.0,5555128
1765224060187,0.0,0.0,0.0,0.0,0.0,0.0,40.296469285714295,37.97804228571429,40.296469285714295,37.97804228571429,-0.014395999999999999,0.007442,0.994788,-0.7000000000000001,0.6300000000000001,0.0,3.31,3.31,3.31,3.29,3.28,3.29,3.28,3.3,3.31,3.31,3.31,3.31,3.28,3.3,3.28,3.3,3.31,3.31,3.31,3.31,3.31,3.32,3.31,3.31,3.32,3.28,79.2,-45.0,1.0,2.0,0.0,0.0,5555161
1765224060237,0.0,0.0,0.0,0.0,0.0,0.0,40.296469285714295,37.97804228571429,40.296469285714295,37.97804228571429,-0.01464,0.005124,0.9940559999999999,-0.7000000000000001,0.6300000000000001,0.0,3.31,3.31,3.31,3.29,3.28,3.29,3.28,3.3,3.31,3.31,3.31,3.31,3.28,3.3,3.28,3.3,3.31,3.31,3.31,3.31,3.31,3.32,3.31,3.31,3.32,3.28,79.2,-45.0,1.0,2.0,0.0,0.0,5555211
1765224060271,0.0,0.0,0.0,0.0,0.0,0.0,40.296469285714295,37.97804228571429,40.296469285714295,37.97804228571429,-0.01464,0.005124,0.9940559999999999,-0.77,0.49000000000000005,-0.07,3.31,3.31,3.31,3.29,3.28,3.29,3.28,3.3,3.31,3.31,3.31,3.31,3.28,3.3,3.28,3.3,3.31,3.31,3.31,3.31,3.31,3.32,3.31,3.31,3.32,3.28,79.2,-45.0,1.0,2.0,0.0,0.0,5555245
1765224060288,0.0,0.0,2.0,25.0,0.0,0.0,40.296469285714295,37.97804228571429,40.296469285714295,37.97804228571429,-0.01464,0.005124,0.9940559999999999,-0.77,0.49000000000000005,-0.07,3.31,3.31,3.31,3.29,3.28,3.29,3.28,3.3,3.31,3.31,3.31,3.31,3.28,3.3,3.28,3.3,3.31,3.31,3.31,3.31,3.31,3.32,3.31,3.31,3.32,3.28,79.2,-45.0,1.0,2.0,0.0,0.0,5555262
1765224060321,0.0,0.0,2.0,25.0,0.0,0.0,40.296469285714295,37.97804228571429,0.0,0.0,-0.01464,0.005124,0.9940559999999999,-0.77,0.49000000000000005,-0.07,3.31,3.31,3.31,3.29,3.28,3.29,3.28,3.3,3.31,3.31,3.31,3.31,3.28,3.3,3.28,3.3,3.31,3.31,3.31,3.31,3.31,3.32,3.31,3.31,3.32,3.28,79.2,-45.0,1.0,2.0,0.0,0.0,5555295
1765224060354,0.0,0.0,2.0,25.0,0.0,0.0,0.0,37.97804228571429,0.0,0.0,-0.01464,0.005124,0.9940559999999999,-0.77,0.49000000000000005,-0.07,3.31,3.31,3.31,3.29,3.28,3.29,3.28,3.3,3.31,3.31,3.31,3.31,3.28,3.3,3.28,3.3,3.31,3.31,3.31,3.31,3.31,3.32,3.31,3.31,3.32,3.28,79.2,-45.0,1.0,2.0,0.0,0.0,5555328
1765224060404,0.0,0.0,2.0,25.0,0.0,0.0,0.0,0.0,0.0,0.0,-0.01464,0.005124,0.9940559999999999,-0.77,0.49000000000000005,-0.07,3.31,3.31,3.31,3.29,3.28,3.29,3.28,3.3,3.31,3.31,3.31,3.31,3.28,3.3,3.28,3.3,3.31,3.31,3.31,3.31,3.31,3.32,3.31,3.31,3.32,3.28,79.2,-45.0,1.0,2.0,0.0,0.0,5555378
1765224060471,0.0,0.0,2.0,25.0,0.0,0.0,0.0,0.0,0.0,0.0,-0.01464,0.005124,0.9940559999999999,-0.8400000000000001,0.49000000000000005,-0.07,3.31,3.31,3.31,3.29,3.28,3.29,3.28,3.3,3.31,3.31,3.31,3.31,3.28,3.3,3.28,3.3,3.31,3.31,3.31,3.31,3.31,3.32,3.31,3.31,3.32,3.28,79.2,-45.0,1.0,2.0,0.0,0.0,5555445
1765224060521,0.0,0.0,2.0,25.0,0.0,0.0,0.0,0.0,0.0,0.0,-0.014761999999999999,0.005978,0.995154,-0.8400000000000001,0.49000000000000005,-0.07,3.31,3.31,3.31,3.29,3.28,3.29,3.28,3.3,3.31,3.31,3.31,3.31,3.28,3.3,3.28,3.3,3.31,3.31,3.31,3.31,3.31,3.32,3.31,3.31,3.32,3.28,79.2,-45.0,1.0,2.0,0.0,0.0,5555495
1765224060552,0.0,0.0,2.0,25.0,0.0,0.0,0.0,0.0,0.0,0.0,-0.014761999999999999,0.005978,0.995154,-0.7000000000000001,0.49000000000000005,-0.07,3.31,3.31,3.31,3.29,3.28,3.29,3.28,3.3,3.31,3.31,3.31,3.31,3.28,3.3,3.28,3.3,3.31,3.31,3.31,3.31,3.31,3.32,3.31,3.31,3.32,3.28,79.2,-45.0,1.0,2.0,0.0,0.0,5555526
1765224060569,0.0,0.0,2.0,25.0,0.0,0.0,0.0,0.0,0.0,0.0,-0.014761999999999999,0.005978,0.995154,-0.7000000000000001,0.49000000000000005,-0.07,3.31,3.31,3.31,3.29,3.28,3.29,3.28,3.3,3.31,3.31,3.31,3.31,3.28,3.3,3.28,3.3,3.31,3.31,3.31,3.31,3.31,3.32,3.31,3.31,3.32,3.28,79.2,-45.0,1.0,2.0,0.0,0.0,5555543
1765224060587,0.0,0.0,2.0,25.0,0.0,0.0,0.0,0.0,0.0,0.0,-0.014761999999999999,0.005978,0.995154,-0.7000000000000001,0.49000000000000005,-0.07,3.31,3.31,3.31,3.29,3.28,3.29,3.28,3.3,3.31,3.31,3.31,3.31,3.28,3.3,3.28,3.3,3.31,3.31,3.31,3.31,3.31,3.32,3.31,3.31,3.32,3.28,79.2,-45.0,1.0,2.0,0.0,0.0,5555561
1765224060620,0.0,0.0,2.0,25.0,0.0,0.0,0.0,0.0,0.0,0.0,-0.014761999999999999,0.005978,0.995154,-0.7000000000000001,0.49000000000000005,-0.07,3.31,3.31,3.31,3.29,3.28,3.29,3.28,3.3,3.31,3.31,3.31,3.31,3.28,3.3,3.28,3.3,3.31,3.31,3.31,3.31,3.31,3.32,3.31,3.31,3.32,3.28,79.2,-45.0,1.0,2.0,0.0,0.0,5555594
1765224060638,0.0,0.0,2.0,25.0,0.0,0.0,0.0,0.0,0.0,0.0,-0.014761999999999999,0.005978,0.995154,-0.7000000000000001,0.49000000000000005,-0.07,3.31,3.31,3.31,3.29,3.28,3.29,3.28,3.3,3.31,3.31,3.31,3.31,3.28,3.3,3.28,3.3,3.31,3.31,3.31,3.31,3.31,3.32,3.31,3.31,3.32,3.28,79.2,-45.0,1.0,2.0,0.0,0.0,5555612
1765224060654,0.0,0.0,2.0,25.0,0.0,0.0,0.0,0.0,0.0,0.0,-0.014761999999999999,0.005978,0.995154,-0.7000000000000001,0.49000000000000005,-0.07,3.31,3.31,3.31,3.29,3.28,3.29,3.28,3.3,3.31,3.31,3.31,3.31,3.28,3.3,3.28,3.3,3.31,3.31,3.31,3.31,3.31,3.32,3.31,3.31,3.33,3.29,79.4,0.0,1.0,2.0,0.0,0.0,5555628
1765224060704,0.0,0.0,2.0,25.0,0.0,0.0,0.0,0.0,0.0,0.0,-0.014761999999999999,0.005978,0.995154,-0.7000000000000001,0.49000000000000005,-0.07,3.31,3.31,3.31,3.29,3.28,3.29,3.28,3.3,3.31,3.31,3.31,3.31,3.28,3.3,3.28,3.3,3.31,3.31,3.31,3.31,3.31,3.32,3.31,3.31,3.33,3.29,79.4,0.0,1.0,0.0,1.0,1.0,5555678
1765224060719,0.0,0.0,2.0,25.0,0.0,0.0,0.0,0.0,0.0,0.0,-0.014761999999999999,0.005978,0.995154,-0.7000000000000001,0.49000000000000005,-0.07,3.31,3.31,3.31,3.29,3.28,3.29,3.28,3.3,3.31,3.31,3.31,3.31,3.28,3.3,3.28,3.3,3.31,3.31,3.31,3.31,3.31,3.32,3.31,3.31,3.33,3.29,79.4,0.0,1.0,0.0,1.0,1.0,5555693
1765224060752,0.0,0.0,2.0,25.0,0.0,0.0,0.0,0.0,0.0,0.0,-0.016104,0.005856,0.9928359999999999,-0.7000000000000001,0.49000000000000005,-0.07,3.31,3.31,3.31,3.29,3.28,3.29,3.28,3.3,3.31,3.31,3.31,3.31,3.28,3.3,3.28,3.3,3.31,3.31,3.31,3.31,3.31,3.32,3.31,3.31,3.33,3.29,79.4,0.0,1.0,0.0,1.0,1.0,5555726
1765224060785,0.0,0.0,2.0,25.0,0.0,0.0,0.0,0.0,0.0,0.0,-0.016104,0.005856,0.9928359999999999,-0.7000000000000001,0.49000000000000005,-0.07,3.31,3.31,3.31,3.29,3.28,3.29,3.28,3.3,3.31,3.31,3.31,3.31,3.28,3.3,3.28,3.3,3.31,3.31,3.31,3.31,3.31,3.32,3.31,3.31,3.33,3.29,79.4,0.0,1.0,0.0,1.0,1.0,5555759
1765224060803,0.0,0.0,2.0,25.0,0.0,0.0,0.0,0.0,0.0,0.0,-0.016104,0.005856,0.9928359999999999,-0.8400000000000001,0.49000000000000005,-0.07,3.31,3.31,3.31,3.29,3.28,3.29,3.28,3.3,3.31,3.31,3.31,3.31,3.28,3.3,3.28,3.3,3.31,3.31,3.31,3.31,3.31,3.32,3.31,3.31,3.33,3.29,79.4,0.0,1.0,0.0,1.0,1.0,5555777
1765224060837,0.0,0.0,2.0,25.0,0.0,0.0,0.0,0.0,0.0,0.0,-0.016104,0.005856,0.9928359999999999,-0.8400000000000001,0.49000000000000005,-0.07,3.31,3.31,3.31,3.29,3.28,3.29,3.28,3.3,3.31,3.31,3.31,3.31,3.28,3.3,3.28,3.3,3.31,3.31,3.31,3.31,3.31,3.32,3.31,3.31,3.33,3.29,79.4,0.0,1.0,0.0,1.0,1.0,5555811
1765224060904,0.0,0.0,2.0,25.0,0.0,0.0,0.0,0.0,0.0,0.0,-0.016104,0.005856,0.9928359999999999,-0.8400000000000001,0.49000000000000005,-0.07,3.31,3.31,3.31,3.29,3.28,3.29,3.28,3.3,3.31,3.31,3.31,3.31,3.28,3.3,3.28,3.3,3.31,3.31,3.31,3.31,3.31,3.32,3.31,3.31,3.33,3.29,79.4,1.0,1.0,0.0,1.0,1.0,5555878
1765224060971,0.0,0.0,2.0,25.0,0.0,0.0,0.0,0.0,0.0,0.0,-0.016714,0.0057339999999999995,0.994788,-0.7000000000000001,0.56,0.0,3.31,3.31,3.31,3.29,3.28,3.29,3.28,3.3,3.31,3.31,3.31,3.31,3.28,3.3,3.28,3.3,3.31,3.31,3.31,3.31,3.31,3.32,3.31,3.31,3.33,3.29,79.4,1.0,1.0,0.0,1.0,1.0,5555945
1765224061020,0.0,0.0,2.0,25.0,0.0,0.0,0.0,0.0,0.0,0.0,-0.016714,0.0057339999999999995,0.994788,-0.7000000000000001,0.56,0.0,3.31,3.31,3.31,3.29,3.28,3.29,3.28,3.3,3.31,3.31,3.31,3.31,3.28,3.3,3.28,3.3,3.31,3.31,3.31,3.31,3.31,3.32,3.31,3.31,3.33,3.29,79.4,1.0,1.0,0.0,1.0,1.0,5555994
1765224061037,0.0,0.0,2.0,25.0,0.0,0.0,0.0,0.0,0.0,0.0,-0.016714,0.0057339999999999995,0.994788,-0.7000000000000001,0.56,0.0,3.31,3.31,3.31,3.29,3.28,3.29,3.28,3.3,3.31,3.31,3.31,3.31,3.28,3.3,3.28,3.3,3.31,3.31,3.31,3.31,3.31,3.32,3.31,3.31,3.33,3.29,79.4,1.0,1.0,0.0,1.0,1.0,5556011
1765224061054,0.0,0.0,2.0,25.0,0.0,0.0,0.0,0.0,0.0,0.0,-0.016714,0.0057339999999999995,0.994788,-0.7000000000000001,0.56,0.0,3.31,3.31,3.31,3.29,3.28,3.29,3.28,3.3,3.31,3.31,3.31,3.31,3.28,3.3,3.28,3.3,3.31,3.31,3.31,3.31,3.31,3.32,3.31,3.31,3.33,3.29,79.4,1.0,1.0,0.0,1.0,1.0,5556028
1765224061070,0.0,0.0,2.0,25.0,0.0,0.0,0.0,0.0,0.0,0.0,-0.016714,0.0057339999999999995,0.994788,-0.7000000000000001,0.56,0.0,3.31,3.31,3.31,3.29,3.28,3.29,3.28,3.3,3.31,3.31,3.31,3.31,3.28,3.3,3.28,3.3,3.31,3.31,3.31,3.31,3.31,3.32,3.31,3.31,3.33,3.29,79.4,1.0,1.0,0.0,1.0,1.0,5556044
1765224061087,0.0,0.0,2.0,25.0,0.0,0.0,0.0,0.0,0.0,0.0,-0.016714,0.0057339999999999995,0.994788,-0.7000000000000001,0.56,0.0,3.31,3.31,3.31,3.29,3.28,3.29,3.28,3.3,3.31,3.31,3.31,3.31,3.28,3.3,3.28,3.3,3.31,3.31,3.31,3.31,3.31,3.32,3.31,3.31,3.33,3.29,79.4,1.0,1.0,0.0,1.0,1.0,5556061
1765224061104,0.0,0.0,2.0,25.0,0.0,0.0,0.0,0.0,0.0,0.0,-0.013663999999999999,0.006588,0.9940559999999999,-0.7000000000000001,0.56,0.0,3.31,3.31,3.31,3.29,3.28,3.29,3.28,3.3,3.31,3.31,3.31,3.31,3.28,3.3,3.28,3.3,3.31,3.31,3.31,3.31,3.31,3.32,3.31,3.31,3.33,3.29,79.4,1.0,1.0,0.0,1.0,1.0,5556078
1765224061154,0.0,0.0,2.0,25.0,0.0,0.0,0.0,0.0,0.0,0.0,-0.013663999999999999,0.006588,0.9940559999999999,-0.7000000000000001,0.49000000000000005,-0.07,3.31,3.31,3.31,3.29,3.28,3.29,3.28,3.3,3.31,3.31,3.31,3.31,3.28,3.3,3.28,3.3,3.31,3.31,3.31,3.31,3.31,3.32,3.31,3.31,3.33,3.29,79.4,1.0,1.0,0.0,1.0,1.0,5556128
1765224061254,0.0,0.0,2.0,25.0,0.0,0.0,0.0,0.0,0.0,0.0,-0.01525,0.0060999999999999995,0.99369,-0.7000000000000001,0.49000000000000005,-0.07,3.31,3.31,3.31,3.29,3.28,3.29,3.28,3.3,3.31,3.31,3.31,3.31,3.28,3.3,3.28,3.3,3.31,3.31,3.31,3.31,3.31,3.32,3.31,3.31,3.33,3.29,79.4,1.0,1.0,0.0,1.0,1.0,5556228
1765224061271,0.0,0.0,2.0,25.0,0.0,0.0,0.0,0.0,0.0,0.0,-0.01525,0.0060999999999999995,0.99369,-0.77,0.6300000000000001,0.0,3.31,3.31,3.31,3.29,3.28,3.29,3.28,3.3,3.31,3.31,3.31,3.31,3.28,3.3,3.28,3.3,3.31,3.31,3.31,3.31,3.31,3.32,3.31,3.31,3.33,3.29,79.4,1.0,1.0,0.0,1.0,1.0,5556245
1765224061320,0.0,0.0,2.0,25.0,0.0,0.0,0.0,0.0,0.0,0.0,-0.01525,0.0060999999999999995,0.99369,-0.77,0.6300000000000001,0.0,3.31,3.31,3.31,3.29,3.28,3.29,3.28,3.3,3.31,3.31,3.31,3.31,3.28,3.3,3.28,3.3,3.31,3.31,3.31,3.31,3.31,3.32,3.31,3.31,3.33,3.29,79.4,1.0,1.0,0.0,1.0,1.0,5556294
1765224061403,0.0,0.0,2.0,25.0,0.0,0.0,0.0,0.0,0.0,0.0,-0.014395999999999999,0.00488,0.9934459999999999,-0.77,0.6300000000000001,0.0,3.31,3.31,3.31,3.29,3.28,3.29,3.28,3.3,3.31,3.31,3.31,3.31,3.28,3.3,3.28,3.3,3.31,3.31,3.31,3.31,3.31,3.32,3.31,3.31,3.33,3.29,79.4,1.0,1.0,0.0,1.0,1.0,5556377
1765224061420,0.0,0.0,2.0,25.0,0.0,0.0,0.0,0.0,0.0,0.0,-0.014395999999999999,0.00488,0.9934459999999999,-0.77,0.49000000000000005,-0.07,3.31,3.31,3.31,3.29,3.28,3.29,3.28,3.3,3.31,3.31,3.31,3.31,3.28,3.3,3.28,3.3,3.31,3.31,3.31,3.31,3.31,3.32,3.31,3.31,3.33,3.29,79.4,1.0,1.0,0.0,1.0,1.0,5556394
1765224061452,0.0,0.0,2.0,25.0,0.0,0.0,0.0,0.0,0.0,0.0,-0.014395999999999999,0.00488,0.9934459999999999,-0.77,0.49000000000000005,-0.07,3.31,3.31,3.31,3.29,3.28,3.29,3.28,3.3,3.31,3.31,3.31,3.31,3.28,3.3,3.28,3.3,3.31,3.31,3.31,3.31,3.31,3.32,3.31,3.31,3.33,3.29,79.4,1.0,1.0,0.0,1.0,1.0,5556426
1765224061469,0.0,0.0,2.0,25.0,0.0,0.0,0.0,0.0,0.0,0.0,-0.014395999999999999,0.00488,0.9934459999999999,-0.77,0.49000000000000005,-0.07,3.31,3.31,3.31,3.29,3.28,3.29,3.28,3.3,3.31,3.31,3.31,3.31,3.28,3.3,3.28,3.3,3.31,3.31,3.31,3.31,3.31,3.32,3.31,3.31,3.33,3.29,79.4,1.0,1.0,0.0,1.0,1.0,5556443
1765224061486,0.0,0.0,2.0,25.0,0.0,0.0,0.0,0.0,0.0,0.0,-0.014395999999999999,0.00488,0.9934459999999999,-0.77,0.49000000000000005,-0.07,3.31,3.31,3.31,3.29,3.28,3.29,3.28,3.3,3.31,3.31,3.31,3.31,3.28,3.3,3.28,3.3,3.31,3.31,3.31,3.31,3.31,3.32,3.31,3.31,3.33,3.29,79.4,1.0,1.0,0.0,1.0,1.0,5556460
1765224061519,0.0,0.0,2.0,25.0,0.0,0.0,0.0,0.0,0.0,0.0,-0.014395999999999999,0.00488,0.9934459999999999,-0.77,0.49000000000000005,-0.07,3.31,3.31,3.31,3.29,3.28,3.29,3.28,3.3,3.31,3.31,3.31,3.31,3.28,3.3,3.28,3.3,3.31,3.31,3.31,3.31,3.31,3.32,3.31,3.31,3.33,3.29,79.4,1.0,1.0,0.0,1.0,1.0,5556493
1765224061571,0.0,0.0,2.0,25.0,0.0,0.0,0.0,0.0,0.0,0.0,-0.014395999999999999,0.00488,0.9934459999999999,-0.77,0.49000000000000005,-0.07,3.31,3.31,3.31,3.29,3.28,3.29,3.28,3.3,3.31,3.31,3.31,3.31,3.28,3.3,3.28,3.3,3.31,3.31,3.31,3.31,3.31,3.32,3.31,3.31,3.33,3.29,79.4,1.0,1.0,0.0,1.0,1.0,5556545
1765224061604,0.0,0.0,2.0,25.0,0.0,0.0,0.0,0.0,0.0,0.0,-0.01464,0.00549,0.994544,-0.77,0.49000000000000005,-0.07,3.31,3.31,3.31,3.29,3.28,3.29,3.28,3.3,3.31,3.31,3.31,3.31,3.28,3.3,3.28,3.3,3.31,3.31,3.31,3.31,3.31,3.32,3.31,3.31,3.33,3.29,79.4,1.0,1.0,0.0,1.0,1.0,5556578
1765224061621,0.0,0.0,2.0,25.0,0.0,0.0,0.0,0.0,0.0,0.0,-0.01464,0.00549,0.994544,-0.77,0.49000000000000005,-0.07,3.32,3.32,3.32,3.3,3.28,3.29,3.28,3.3,3.31,3.31,3.31,3.31,3.28,3.3,3.28,3.3,3.31,3.31,3.31,3.31,3.31,3.32,3.31,3.31,3.33,3.29,79.4,1.0,1.0,0.0,1.0,1.0,5556595
1765224061637,0.0,0.0,2.0,25.0,0.0,0.0,0.0,0.0,0.0,0.0,-0.01464,0.00549,0.994544,-0.77,0.49000000000000005,-0.07,3.32,3.32,3.32,3.3,3.29,3.29,3.29,3.29,3.31,3.31,3.31,3.31,3.28,3.3,3.28,3.3,3.31,3.31,3.31,3.31,3.31,3.32,3.31,3.31,3.33,3.29,79.4,1.0,1.0,0.0,1.0,1.0,5556611
1765224061671,0.0,0.0,2.0,25.0,0.0,0.0,0.0,0.0,0.0,0.0,-0.01464,0.00549,0.994544,-0.77,0.49000000000000005,-0.07,3.32,3.32,3.32,3.3,3.29,3.29,3.29,3.29,3.32,3.32,3.32,3.32,3.28,3.3,3.28,3.3,3.31,3.31,3.31,3.31,3.31,3.32,3.31,3.31,3.33,3.29,79.4,1.0,1.0,0.0,1.0,1.0,5556645
1765224061687,0.0,0.0,2.0,25.0,0.0,0.0,0.0,0.0,0.0,0.0,-0.01464,0.00549,0.994544,-0.77,0.49000000000000005,-0.07,3.32,3.32,3.32,3.3,3.29,3.29,3.29,3.29,3.32,3.32,3.32,3.32,3.29,3.29,3.29,3.29,3.31,3.31,3.31,3.31,3.31,3.32,3.31,3.31,3.33,3.29,79.4,1.0,1.0,0.0,1.0,1.0,5556661
1765224061704,0.0,0.0,2.0,25.0,0.0,0.0,0.0,0.0,0.0,0.0,-0.01464,0.00549,0.994544,-0.77,0.56,17.85,3.32,3.32,3.32,3.3,3.29,3.29,3.29,3.29,3.32,3.32,3.32,3.32,3.29,3.29,3.29,3.29,3.32,3.32,3.32,3.31,3.31,3.32,3.31,3.31,3.33,3.29,79.4,1.0,1.0,0.0,1.0,1.0,5556678
1765224061720,0.0,0.0,2.0,25.0,0.0,0.0,0.0,0.0,0.0,0.0,-0.01464,0.00549,0.994544,-0.77,0.56,17.85,3.32,3.32,3.32,3.3,3.29,3.29,3.29,3.29,3.32,3.32,3.32,3.32,3.29,3.29,3.29,3.29,3.32,3.32,3.32,3.31,3.32,3.33,3.33,3.32,3.33,3.29,79.4,1.0,1.0,0.0,1.0,1.0,5556694
1765224061771,0.0,0.0,2.0,25.0,0.0,0.0,0.0,0.0,0.0,0.0,-0.01464,0.00549,0.994544,-0.77,0.56,17.85,3.32,3.32,3.32,3.3,3.29,3.29,3.29,3.29,3.32,3.32,3.32,3.32,3.29,3.29,3.29,3.29,3.32,3.32,3.32,3.31,3.32,3.33,3.33,3.32,3.33,3.29,79.4,1.0,1.0,0.0,1.0,1.0,5556745
1765224061787,0.0,0.0,2.0,25.0,0.0,0.0,0.0,0.0,0.0,0.0,-0.01464,0.00549,0.994544,-0.77,0.56,17.85,3.32,3.32,3.32,3.3,3.29,3.29,3.29,3.29,3.32,3.32,3.32,3.32,3.29,3.29,3.29,3.29,3.32,3.32,3.32,3.31,3.32,3.33,3.33,3.32,3.33,3.29,79.4,1.0,1.0,0.0,1.0,1.0,5556761
1765224061804,0.0,0.0,2.0,25.0,0.0,0.0,0.0,0.0,0.0,0.0,-0.01464,0.00549,0.994544,-0.77,0.56,17.85,3.32,3.32,3.32,3.3,3.29,3.29,3.29,3.29,3.32,3.32,3.32,3.32,3.29,3.29,3.29,3.29,3.32,3.32,3.32,3.31,3.32,3.33,3.33,3.32,3.33,3.29,79.4,1.0,1.0,0.0,1.0,1.0,5556778
1765224061820,0.0,0.0,2.0,25.0,0.0,0.0,0.0,0.0,0.0,0.0,-0.013663999999999999,0.00732,0.993568,-0.77,0.56,17.85,3.32,3.32,3.32,3.3,3.29,3.29,3.29,3.29,3.32,3.32,3.32,3.32,3.29,3.29,3.29,3.29,3.32,3.32,3.32,3.31,3.32,3.33,3.33,3.32,3.33,3.29,79.4,1.0,1.0,0.0,1.0,1.0,5556794
1765224061837,0.0,0.0,2.0,25.0,0.0,0.0,0.0,0.0,0.0,0.0,-0.013663999999999999,0.00732,0.993568,-0.77,0.56,17.85,3.32,3.32,3.32,3.3,3.29,3.29,3.29,3.29,3.32,3.32,3.32,3.32,3.29,3.29,3.29,3.29,3.32,3.32,3.32,3.31,3.32,3.33,3.33,3.32,3.33,3.29,79.4,1.0,1.0,0.0,1.0,1.0,5556811
1765224061853,0.0,0.0,2.0,25.0,0.0,0.0,0.0,0.0,0.0,0.0,-0.013663999999999999,0.00732,0.993568,-0.77,0.56,17.85,3.32,3.32,3.32,3.3,3.29,3.29,3.29,3.29,3.32,3.32,3.32,3.32,3.29,3.29,3.29,3.29,3.32,3.32,3.32,3.31,3.32,3.33,3.33,3.32,3.33,3.29,79.4,1.0,1.0,0.0,1.0,1.0,5556827
1765224061870,0.0,0.0,2.0,25.0,0.0,0.0,0.0,0.0,0.0,0.0,-0.013663999999999999,0.00732,0.993568,-0.77,0.49000000000000005,17.85,3.32,3.32,3.32,3.3,3.29,3.29,3.29,3.29,3.32,3.32,3.32,3.32,3.29,3.29,3.29,3.29,3.32,3.32,3.32,3.31,3.32,3.33,3.33,3.32,3.33,3.29,79.4,1.0,1.0,0.0,1.0,1.0,5556844
1765224061921,0.0,0.0,2.0,25.0,0.0,0.0,0.0,0.0,0.0,0.0,-0.013663999999999999,0.00732,0.993568,-0.77,0.49000000000000005,17.85,3.32,3.32,3.32,3.3,3.29,3.29,3.29,3.29,3.32,3.32,3.32,3.32,3.29,3.29,3.29,3.29,3.32,3.32,3.32,3.31,3.32,3.33,3.33,3.32,3.33,3.29,79.4,1.0,1.0,0.0,1.0,1.0,5556895
1765224061987,0.0,0.0,2.0,25.0,0.0,0.0,0.0,0.0,0.0,0.0,-0.013663999999999999,0.00732,0.993568,-0.77,0.49000000000000005,17.85,3.32,3.32,3.32,3.3,3.29,3.29,3.29,3.29,3.32,3.32,3.32,3.32,3.29,3.29,3.29,3.29,3.32,3.32,3.32,3.31,3.32,3.33,3.33,3.32,3.33,3.29,79.4,1.0,1.0,0.0,1.0,1.0,5556961
1765224062020,0.0,0.0,2.0,25.0,0.0,0.0,0.0,0.0,0.0,0.0,-0.014395999999999999,0.006344,0.993202,-0.77,0.49000000000000005,17.85,3.32,3.32,3.32,3.3,3.29,3.29,3.29,3.29,3.32,3.32,3.32,3.32,3.29,3.29,3.29,3.29,3.32,3.32,3.32,3.31,3.32,3.33,3.33,3.32,3.33,3.29,79.4,1.0,1.0,0.0,1.0,1.0,5556994
1765224062054,0.0,0.0,2.0,25.0,0.0,0.0,0.0,0.0,0.0,0.0,-0.014395999999999999,0.006344,0.993202,-0.77,0.49000000000000005,17.85,3.32,3.32,3.32,3.3,3.29,3.29,3.29,3.29,3.32,3.32,3.32,3.32,3.29,3.29,3.29,3.29,3.32,3.32,3.32,3.31,3.32,3.33,3.33,3.32,3.33,3.29,79.4,1.0,1.0,0.0,1.0,1.0,5557028
1765224062087,0.0,0.0,2.0,25.0,0.0,0.0,0.0,0.0,0.0,0.0,-0.014395999999999999,0.006344,0.993202,-0.77,0.42000000000000004,-0.07,3.32,3.32,3.32,3.3,3.29,3.29,3.29,3.29,3.32,3.32,3.32,3.32,3.29,3.29,3.29,3.29,3.32,3.32,3.32,3.31,3.32,3.33,3.33,3.32,3.33,3.29,79.4,1.0,1.0,0.0,1.0,1.0,5557061
1765224062155,0.0,0.0,2.0,25.0,0.0,0.0,0.0,0.0,0.0,0.0,-0.014761999999999999,0.0053679999999999995,0.994788,-0.77,0.42000000000000004,-0.07,3.32,3.32,3.32,3.3,3.29,3.29,3.29,3.29,3.32,3.32,3.32,3.32,3.29,3.29,3.29,3.29,3.32,3.32,3.32,3.31,3.32,3.33,3.33,3.32,3.33,3.29,79.4,1.0,1.0,0.0,1.0,1.0,5557129
1765224062170,0.0,0.0,2.0,25.0,0.0,0.0,0.0,0.0,0.0,0.0,-0.014761999999999999,0.0053679999999999995,0.994788,-0.8400000000000001,0.49000000000000005,-0.07,3.32,3.32,3.32,3.3,3.29,3.29,3.29,3.29,3.32,3.32,3.32,3.32,3.29,3.29,3.29,3.29,3.32,3.32,3.32,3.31,3.32,3.33,3.33,3.32,3.33,3.29,79.4,1.0,1.0,0.0,1.0,1.0,5557144
1765224062206,0.0,0.0,2.0,25.0,0.0,0.0,0.0,0.0,0.0,0.0,-0.014761999999999999,0.0053679999999999995,0.994788,-0.8400000000000001,0.49000000000000005,-0.07,3.32,3.32,3.32,3.3,3.29,3.29,3.29,3.29,3.32,3.32,3.32,3.32,3.29,3.29,3.29,3.29,3.32,3.32,3.32,3.31,3.32,3.33,3.33,3.32,3.33,3.29,79.4,1.0,1.0,0.0,1.0,1.0,5557180
1765224062221,0.0,0.0,2.0,25.0,0.0,0.0,0.0,0.0,0.0,0.0,-0.014761999999999999,0.0053679999999999995,0.994788,-0.8400000000000001,0.49000000000000005,-0.07,3.32,3.32,3.32,3.3,3.29,3.29,3.29,3.29,3.32,3.32,3.32,3.32,3.29,3.29,3.29,3.29,3.32,3.32,3.32,3.31,3.32,3.33,3.33,3.32,3.33,3.29,79.4,1.0,1.0,0.0,1.0,1.0,5557195
1765224062235,0.0,0.0,2.0,25.0,0.0,0.0,0.0,0.0,0.0,0.0,-0.014761999999999999,0.0053679999999999995,0.994788,-0.8400000000000001,0.49000000000000005,-0.07,3.32,3.32,3.32,3.3,3.29,3.29,3.29,3.29,3.32,3.32,3.32,3.32,3.29,3.29,3.29,3.29,3.32,3.32,3.32,3.31,3.32,3.33,3.33,3.32,3.33,3.29,79.4,1.0,1.0,0.0,1.0,1.0,5557209
1765224062252,0.0,0.0,2.0,25.0,0.0,0.0,0.0,0.0,0.0,0.0,-0.014761999999999999,0.0053679999999999995,0.994788,-0.8400000000000001,0.49000000000000005,-0.07,3.32,3.32,3.32,3.3,3.29,3.29,3.29,3.29,3.32,3.32,3.32,3.32,3.29,3.29,3.29,3.29,3.32,3.32,3.32,3.31,3.32,3.33,3.33,3.32,3.33,3.29,79.4,1.0,1.0,0.0,1.0,1.0,5557226
1765224062268,0.0,0.0,2.0,25.0,0.0,0.0,0.0,0.0,0.0,0.0,-0.014761999999999999,0.0053679999999999995,0.994788,-0.8400000000000001,0.49000000000000005,-0.07,3.32,3.32,3.32,3.3,3.29,3.29,3.29,3.29,3.32,3.32,3.32,3.32,3.29,3.29,3.29,3.29,3.32,3.32,3.32,3.31,3.32,3.33,3.33,3.32,3.33,3.29,79.4,1.0,1.0,0.0,1.0,1.0,5557242
1765224062319,0.0,0.0,2.0,25.0,0.0,0.0,0.0,0.0,0.0,0.0,-0.014761999999999999,0.0053679999999999995,0.994788,-0.8400000000000001,0.49000000000000005,-0.07,3.32,3.32,3.32,3.3,3.29,3.29,3.29,3.29,3.32,3.32,3.32,3.32,3.29,3.29,3.29,3.29,3.32,3.32,3.32,3.31,3.32,3.33,3.33,3.32,3.33,3.29,79.4,1.0,1.0,0.0,1.0,1.0,5557293
1765224062369,0.0,0.0,2.0,25.0,0.0,0.0,0.0,0.0,0.0,0.0,-0.013908,0.006588,0.993568,-0.8400000000000001,0.49000000000000005,-0.07,3.32,3.32,3.32,3.3,3.29,3.29,3.29,3.29,3.32,3.32,3.32,3.32,3.29,3.29,3.29,3.29,3.32,3.32,3.32,3.31,3.32,3.33,3.33,3.32,3.33,3.29,79.4,1.0,1.0,0.0,1.0,1.0,5557343
1765224062404,0.0,0.0,2.0,25.0,0.0,0.0,0.0,0.0,0.0,0.0,-0.013908,0.006588,0.993568,-0.77,0.49000000000000005,-0.07,3.32,3.32,3.32,3.3,3.29,3.29,3.29,3.29,3.32,3.32,3.32,3.32,3.29,3.29,3.29,3.29,3.32,3.32,3.32,3.31,3.32,3.33,3.33,3.32,3.33,3.29,79.4,1.0,1.0,0.0,1.0,1.0,5557378
1765224062436,0.0,0.0,2.0,25.0,0.0,0.0,0.0,0.0,0.0,0.0,-0.013908,0.006588,0.993568,-0.77,0.49000000000000005,-0.07,3.32,3.32,3.32,3.3,3.29,3.29,3.29,3.29,3.32,3.32,3.32,3.32,3.29,3.29,3.29,3.29,3.32,3.32,3.32,3.31,3.32,3.33,3.33,3.32,3.33,3.29,79.4,0.0,1.0,0.0,1.0,1.0,5557410
1765224062470,0.0,0.0,2.0,25.0,0.0,0.0,0.0,0.0,0.0,0.0,-0.013908,0.006588,0.993568,-0.77,0.49000000000000005,-0.07,3.32,3.32,3.32,3.3,3.29,3.29,3.29,3.29,3.32,3.32,3.32,3.32,3.29,3.29,3.29,3.29,3.32,3.32,3.32,3.31,3.32,3.33,3.33,3.32,3.33,3.29,79.4,0.0,1.0,0.0,1.0,1.0,5557444
1765224062504,0.0,0.0,2.0,25.0,0.0,0.0,0.0,0.0,0.0,0.0,-0.016347999999999998,0.0046359999999999995,0.994544,-0.77,0.49000000000000005,-0.07,3.32,3.32,3.32,3.3,3.29,3.29,3.29,3.29,3.32,3.32,3.32,3.32,3.29,3.29,3.29,3.29,3.32,3.32,3.32,3.31,3.32,3.33,3.33,3.32,3.33,3.29,79.4,0.0,1.0,0.0,1.0,1.0,5557478
1765224062521,0.0,0.0,2.0,25.0,0.0,0.0,0.0,0.0,0.0,0.0,-0.016347999999999998,0.0046359999999999995,0.994544,-0.77,0.49000000000000005,-0.07,3.32,3.32,3.32,3.3,3.29,3.29,3.29,3.29,3.32,3.32,3.32,3.32,3.29,3.29,3.29,3.29,3.32,3.32,3.32,3.31,3.32,3.33,3.33,3.32,3.33,3.29,79.4,0.0,1.0,0.0,1.0,1.0,5557495
1765224062537,0.0,0.0,2.0,25.0,0.0,0.0,0.0,0.0,0.0,0.0,-0.016347999999999998,0.0046359999999999995,0.994544,-0.77,0.49000000000000005,-0.07,3.32,3.32,3.32,3.3,3.29,3.29,3.29,3.29,3.32,3.32,3.32,3.32,3.29,3.29,3.29,3.29,3.32,3.32,3.32,3.31,3.32,3.33,3.33,3.32,3.33,3.29,79.4,0.0,1.0,0.0,1.0,1.0,5557511
1765224062554,0.0,0.0,2.0,25.0,0.0,0.0,0.0,0.0,0.0,0.0,-0.016347999999999998,0.0046359999999999995,0.994544,-0.77,0.42000000000000004,-0.14,3.32,3.32,3.32,3.3,3.29,3.29,3.29,3.29,3.32,3.32,3.32,3.32,3.29,3.29,3.29,3.29,3.32,3.32,3.32,3.31,3.32,3.33,3.33,3.32,3.33,3.29,79.4,0.0,1.0,0.0,1.0,1.0,5557528
1765224062587,0.0,0.0,2.0,25.0,0.0,0.0,0.0,0.0,0.0,0.0,-0.016347999999999998,0.0046359999999999995,0.994544,-0.77,0.42000000000000004,-0.14,3.32,3.32,3.32,3.3,3.29,3.29,3.29,3.29,3.32,3.32,3.32,3.32,3.29,3.29,3.29,3.29,3.32,3.32,3.32,3.31,3.32,3.33,3.33,3.32,3.33,3.29,79.4,0.0,1.0,0.0,1.0,1.0,5557561
1765224062621,0.0,0.0,2.0,25.0,0.0,0.0,0.0,0.0,0.0,0.0,-0.016347999999999998,0.0046359999999999995,0.994544,-0.77,0.42000000000000004,-0.14,3.32,3.32,3.32,3.3,3.29,3.29,3.29,3.29,3.32,3.32,3.32,3.32,3.29,3.29,3.29,3.29,3.32,3.32,3.32,3.31,3.32,3.33,3.33,3.32,3.33,3.29,79.4,0.0,1.0,0.0,1.0,1.0,5557595
1765224062638,0.0,0.0,2.0,25.0,0.0,0.0,0.0,0.0,0.0,0.0,-0.016347999999999998,0.0046359999999999995,0.994544,-0.77,0.42000000000000004,-0.14,3.32,3.32,3.32,3.3,3.29,3.29,3.29,3.29,3.32,3.32,3.32,3.32,3.29,3.29,3.29,3.29,3.32,3.32,3.32,3.31,3.32,3.33,3.33,3.32,3.33,3.29,79.4,0.0,1.0,0.0,1.0,1.0,5557612
1765224062653,0.0,0.0,2.0,25.0,0.0,0.0,0.0,0.0,0.0,0.0,-0.016347999999999998,0.0046359999999999995,0.994544,-0.77,0.42000000000000004,-0.14,3.32,3.32,3.32,3.3,3.29,3.29,3.29,3.29,3.32,3.32,3.32,3.32,3.29,3.29,3.29,3.29,3.32,3.32,3.32,3.31,3.32,3.33,3.33,3.32,3.33,3.29,79.4,0.0,1.0,0.0,1.0,1.0,5557627
1765224062670,0.0,0.0,2.0,25.0,0.0,0.0,0.0,0.0,0.0,0.0,-0.016347999999999998,0.0046359999999999995,0.994544,-0.77,0.42000000000000004,-0.14,3.32,3.32,3.32,3.3,3.29,3.29,3.29,3.29,3.32,3.32,3.32,3.32,3.29,3.29,3.29,3.29,3.32,3.32,3.32,3.31,3.32,3.33,3.33,3.32,3.33,3.29,79.4,0.0,1.0,0.0,1.0,1.0,5557644
1765224062704,0.0,0.0,2.0,25.0,0.0,0.0,0.0,0.0,0.0,0.0,-0.016347999999999998,0.0046359999999999995,0.994544,-0.77,0.42000000000000004,-0.14,3.32,3.32,3.32,3.3,3.29,3.29,3.29,3.29,3.32,3.32,3.32,3.32,3.29,3.29,3.29,3.29,3.32,3.32,3.32,3.31,3.32,3.33,3.33,3.32,3.33,3.29,79.4,0.0,1.0,0.0,1.0,1.0,5557678
1765224062720,0.0,0.0,2.0,25.0,0.0,0.0,0.0,0.0,0.0,0.0,-0.013542,0.0060999999999999995,0.993934,-0.77,0.42000000000000004,-0.14,3.32,3.32,3.32,3.3,3.29,3.29,3.29,3.29,3.32,3.32,3.32,3.32,3.29,3.29,3.29,3.29,3.32,3.32,3.32,3.31,3.32,3.33,3.33,3.32,3.33,3.29,79.4,0.0,1.0,0.0,1.0,1.0,5557694
1765224062771,0.0,0.0,2.0,25.0,0.0,0.0,0.0,0.0,0.0,0.0,-0.013542,0.0060999999999999995,0.993934,-0.77,0.42000000000000004,-0.14,3.32,3.32,3.32,3.3,3.29,3.29,3.29,3.29,3.32,3.32,3.32,3.32,3.29,3.29,3.29,3.29,3.32,3.32,3.32,3.31,3.32,3.33,3.33,3.32,3.33,3.29,79.4,0.0,1.0,0.0,1.0,1.0,5557745
1765224062787,0.0,0.0,2.0,25.0,0.0,0.0,0.0,0.0,0.0,0.0,-0.013542,0.0060999999999999995,0.993934,-0.77,0.49000000000000005,0.0,3.32,3.32,3.32,3.3,3.29,3.29,3.29,3.29,3.32,3.32,3.32,3.32,3.29,3.29,3.29,3.29,3.32,3.32,3.32,3.31,3.32,3.33,3.33,3.32,3.33,3.29,79.4,0.0,1.0,0.0,1.0,1.0,5557761
1765224062870,0.0,0.0,2.0,25.0,0.0,0.0,0.0,0.0,0.0,0.0,-0.014152,0.00549,0.9940559999999999,-0.77,0.49000000000000005,0.0,3.32,3.32,3.32,3.3,3.29,3.29,3.29,3.29,3.32,3.32,3.32,3.32,3.29,3.29,3.29,3.29,3.32,3.32,3.32,3.31,3.32,3.33,3.33,3.32,3.33,3.29,79.4,0.0,1.0,0.0,1.0,1.0,5557844
1765224062886,0.0,0.0,2.0,25.0,0.0,0.0,0.0,0.0,0.0,0.0,-0.014152,0.00549,0.9940559999999999,-0.77,0.42000000000000004,-0.07,3.32,3.32,3.32,3.3,3.29,3.29,3.29,3.29,3.32,3.32,3.32,3.32,3.29,3.29,3.29,3.29,3.32,3.32,3.32,3.31,3.32,3.33,3.33,3.32,3.33,3.29,79.4,0.0,1.0,0.0,1.0,1.0,5557860
1765224062920,0.0,0.0,2.0,25.0,0.0,0.0,0.0,0.0,0.0,0.0,-0.014152,0.00549,0.9940559999999999,-0.77,0.42000000000000004,-0.07,3.32,3.32,3.32,3.3,3.29,3.29,3.29,3.29,3.32,3.32,3.32,3.32,3.29,3.29,3.29,3.29,3.32,3.32,3.32,3.31,3.32,3.33,3.33,3.32,3.33,3.29,79.4,0.0,1.0,0.0,1.0,1.0,5557894
1765224062937,0.0,0.0,2.0,25.0,0.0,0.0,0.0,0.0,0.0,0.0,-0.014152,0.00549,0.9940559999999999,-0.77,0.42000000000000004,-0.07,3.32,3.32,3.32,3.3,3.29,3.29,3.29,3.29,3.32,3.32,3.32,3.32,3.29,3.29,3.29,3.29,3.32,3.32,3.32,3.31,3.32,3.33,3.33,3.32,3.33,3.29,79.4,0.0,1.0,0.0,1.0,1.0,5557911
1765224062954,0.0,0.0,2.0,25.0,0.0,0.0,0.0,0.0,0.0,0.0,-0.014152,0.00549,0.9940559999999999,-0.77,0.42000000000000004,-0.07,3.32,3.32,3.32,3.3,3.29,3.29,3.29,3.29,3.32,3.32,3.32,3.32,3.29,3.29,3.29,3.29,3.32,3.32,3.32,3.31,3.32,3.33,3.33,3.32,3.33,3.29,79.4,0.0,1.0,0.0,1.0,1.0,5557928
1765224062971,0.0,0.0,2.0,25.0,0.0,0.0,0.0,0.0,0.0,0.0,-0.014152,0.00549,0.9940559999999999,-0.77,0.42000000000000004,-0.07,3.32,3.32,3.32,3.3,3.29,3.29,3.29,3.29,3.32,3.32,3.32,3.32,3.29,3.29,3.29,3.29,3.32,3.32,3.32,3.31,3.32,3.33,3.33,3.32,3.33,3.29,79.4,0.0,1.0,0.0,1.0,1.0,5557945
1765224062987,0.0,0.0,2.0,25.0,0.0,0.0,0.0,0.0,0.0,0.0,-0.014152,0.00549,0.9940559999999999,-0.77,0.42000000000000004,-0.07,3.32,3.32,3.32,3.3,3.29,3.29,3.29,3.29,3.32,3.32,3.32,3.32,3.29,3.29,3.29,3.29,3.32,3.32,3.32,3.31,3.32,3.33,3.33,3.32,3.33,3.29,79.4,0.0,1.0,0.0,1.0,1.0,5557961
1765224063036,0.0,0.0,2.0,25.0,0.0,0.0,0.0,0.0,0.0,0.0,-0.014152,0.00549,0.9940559999999999,-0.77,0.42000000000000004,-0.07,3.32,3.32,3.32,3.3,3.29,3.29,3.29,3.29,3.32,3.32,3.32,3.32,3.29,3.29,3.29,3.29,3.32,3.32,3.32,3.31,3.32,3.33,3.33,3.32,3.33,3.29,79.4,0.0,1.0,0.0,1.0,1.0,5558010
1765224063053,0.0,0.0,2.0,25.0,0.0,0.0,0.0,0.0,0.0,0.0,-0.015616,0.0060999999999999995,0.99369,-0.77,0.42000000000000004,-0.07,3.32,3.32,3.32,3.3,3.29,3.29,3.29,3.29,3.32,3.32,3.32,3.32,3.29,3.29,3.29,3.29,3.32,3.32,3.32,3.31,3.32,3.33,3.33,3.32,3.33,3.29,79.4,0.0,1.0,0.0,1.0,1.0,5558027
1765224063120,0.0,0.0,2.0,25.0,0.0,0.0,0.0,0.0,0.0,0.0,-0.015616,0.0060999999999999995,0.99369,-0.77,0.56,-0.07,3.32,3.32,3.32,3.3,3.29,3.29,3.29,3.29,3.32,3.32,3.32,3.32,3.29,3.29,3.29,3.29,3.32,3.32,3.32,3.31,3.32,3.33,3.33,3.32,3.33,3.29,79.4,0.0,1.0,0.0,1.0,1.0,5558094
1765224063170,0.0,0.0,2.0,25.0,0.0,0.0,0.0,0.0,0.0,0.0,-0.01525,0.005124,0.9943,-0.77,0.56,-0.07,3.32,3.32,3.32,3.3,3.29,3.29,3.29,3.29,3.32,3.32,3.32,3.32,3.29,3.29,3.29,3.29,3.32,3.32,3.32,3.31,3.32,3.33,3.33,3.32,3.33,3.29,79.4,0.0,1.0,0.0,1.0,1.0,5558144
1765224063188,0.0,0.0,2.0,25.0,0.0,0.0,0.0,0.0,0.0,0.0,-0.01525,0.005124,0.9943,-0.77,0.56,-0.07,3.32,3.32,3.32,3.3,3.29,3.29,3.29,3.29,3.32,3.32,3.32,3.32,3.29,3.29,3.29,3.29,3.32,3.32,3.32,3.31,3.32,3.33,3.33,3.32,3.33,3.29,79.4,0.0,1.0,0.0,1.0,1.0,5558162
1765224063203,0.0,0.0,2.0,25.0,0.0,0.0,0.0,0.0,0.0,0.0,-0.01525,0.005124,0.9943,-0.77,0.56,-0.07,3.32,3.32,3.32,3.3,3.29,3.29,3.29,3.29,3.32,3.32,3.32,3.32,3.29,3.29,3.29,3.29,3.32,3.32,3.32,3.31,3.32,3.33,3.33,3.32,3.33,3.29,79.4,0.0,1.0,0.0,1.0,1.0,5558177
1765224063255,0.0,0.0,2.0,25.0,0.0,0.0,0.0,0.0,0.0,0.0,-0.017324,0.0068319999999999995,0.992104,-0.77,0.56,-0.07,3.32,3.32,3.32,3.3,3.29,3.29,3.29,3.29,3.32,3.32,3.32,3.32,3.29,3.29,3.29,3.29,3.32,3.32,3.32,3.31,3.32,3.33,3.33,3.32,3.33,3.29,79.4,0.0,1.0,0.0,1.0,1.0,5558229
1765224063271,0.0,0.0,2.0,25.0,0.0,0.0,0.0,0.0,0.0,0.0,-0.017324,0.0068319999999999995,0.992104,-0.77,0.56,-0.07,3.32,3.32,3.32,3.3,3.29,3.29,3.29,3.29,3.32,3.32,3.32,3.32,3.29,3.29,3.29,3.29,3.32,3.32,3.32,3.31,3.32,3.33,3.33,3.32,3.33,3.29,79.4,0.0,1.0,0.0,1.0,1.0,5558245
1765224063321,0.0,0.0,2.0,25.0,0.0,0.0,0.0,0.0,0.0,0.0,-0.017324,0.0068319999999999995,0.992104,-0.77,0.56,-0.07,3.32,3.32,3.32,3.3,3.29,3.29,3.29,3.29,3.32,3.32,3.32,3.32,3.29,3.29,3.29,3.29,3.32,3.32,3.32,3.31,3.32,3.33,3.33,3.32,3.33,3.29,79.4,0.0,1.0,0.0,1.0,1.0,5558295
1765224063338,0.0,0.0,2.0,25.0,0.0,0.0,0.0,0.0,0.0,0.0,-0.017324,0.0068319999999999995,0.992104,-0.77,0.56,-0.07,3.32,3.32,3.32,3.3,3.29,3.29,3.29,3.29,3.32,3.32,3.32,3.32,3.29,3.29,3.29,3.29,3.32,3.32,3.32,3.31,3.32,3.33,3.33,3.32,3.33,3.29,79.4,0.0,1.0,0.0,1.0,1.0,5558312
1765224063352,0.0,0.0,2.0,25.0,0.0,0.0,0.0,0.0,0.0,0.0,-0.017324,0.0068319999999999995,0.992104,-0.77,0.56,-0.07,3.32,3.32,3.32,3.3,3.29,3.29,3.29,3.29,3.32,3.32,3.32,3.32,3.29,3.29,3.29,3.29,3.32,3.32,3.32,3.31,3.32,3.33,3.33,3.32,3.33,3.29,79.4,0.0,1.0,0.0,1.0,1.0,5558326
1765224063370,0.0,0.0,2.0,25.0,0.0,0.0,0.0,0.0,0.0,0.0,-0.017324,0.0068319999999999995,0.992104,-0.77,0.56,-0.07,3.32,3.32,3.32,3.3,3.29,3.29,3.29,3.29,3.32,3.32,3.32,3.32,3.29,3.29,3.29,3.29,3.32,3.32,3.32,3.31,3.32,3.33,3.33,3.32,3.33,3.29,79.4,0.0,1.0,0.0,1.0,1.0,5558344
1765224063387,0.0,0.0,2.0,25.0,0.0,0.0,0.0,0.0,0.0,0.0,-0.017324,0.0068319999999999995,0.992104,-0.77,0.56,-0.07,3.32,3.32,3.32,3.3,3.29,3.29,3.29,3.29,3.32,3.32,3.32,3.32,3.29,3.29,3.29,3.29,3.32,3.32,3.32,3.31,3.32,3.33,3.33,3.32,3.33,3.29,79.4,0.0,1.0,0.0,1.0,1.0,5558361
1765224063405,0.0,0.0,2.0,25.0,0.0,0.0,0.0,0.0,0.0,0.0,-0.017324,0.0068319999999999995,0.992104,-0.77,0.56,-0.07,3.32,3.32,3.32,3.3,3.29,3.29,3.29,3.29,3.32,3.32,3.32,3.32,3.29,3.29,3.29,3.29,3.32,3.32,3.32,3.31,3.32,3.33,3.33,3.32,3.33,3.29,79.4,0.0,1.0,0.0,1.0,1.0,5558379
1765224063420,0.0,0.0,2.0,25.0,0.0,0.0,0.0,0.0,0.0,0.0,-0.017324,0.0068319999999999995,0.992104,-0.77,0.56,-0.07,3.32,3.32,3.32,3.3,3.29,3.29,3.29,3.29,3.32,3.32,3.32,3.32,3.29,3.29,3.29,3.29,3.32,3.32,3.32,3.31,3.32,3.33,3.33,3.32,3.33,3.29,79.4,0.0,1.0,0.0,1.0,1.0,5558394
1765224063438,0.0,0.0,2.0,25.0,0.0,0.0,0.0,0.0,0.0,0.0,-0.014395999999999999,0.00671,0.993934,-0.77,0.56,-0.07,3.32,3.32,3.32,3.3,3.29,3.29,3.29,3.29,3.32,3.32,3.32,3.32,3.29,3.29,3.29,3.29,3.32,3.32,3.32,3.31,3.32,3.33,3.33,3.32,3.33,3.29,79.4,0.0,1.0,0.0,1.0,1.0,5558412
1765224063452,0.0,0.0,2.0,25.0,0.0,0.0,0.0,0.0,0.0,0.0,-0.014395999999999999,0.00671,0.993934,-0.77,0.56,-0.07,3.32,3.32,3.32,3.3,3.29,3.29,3.29,3.29,3.32,3.32,3.32,3.32,3.29,3.29,3.29,3.29,3.32,3.32,3.32,3.31,3.32,3.33,3.33,3.32,3.33,3.29,79.4,0.0,1.0,0.0,1.0,1.0,5558426
1765224063470,0.0,0.0,2.0,25.0,0.0,0.0,0.0,0.0,0.0,0.0,-0.014395999999999999,0.00671,0.993934,-0.77,0.56,-0.07,3.32,3.32,3.32,3.3,3.29,3.29,3.29,3.29,3.32,3.32,3.32,3.32,3.29,3.29,3.29,3.29,3.32,3.32,3.32,3.31,3.32,3.33,3.33,3.32,3.33,3.29,79.4,0.0,1.0,0.0,1.0,1.0,5558444
1765224063519,0.0,0.0,2.0,25.0,0.0,0.0,0.0,0.0,0.0,0.0,-0.014395999999999999,0.00671,0.993934,-0.77,0.49000000000000005,0.0,3.32,3.32,3.32,3.3,3.29,3.29,3.29,3.29,3.32,3.32,3.32,3.32,3.29,3.29,3.29,3.29,3.32,3.32,3.32,3.31,3.32,3.33,3.33,3.32,3.33,3.29,79.4,0.0,1.0,0.0,1.0,1.0,5558493
1765224063619,0.0,0.0,2.0,25.0,0.0,0.0,0.0,0.0,0.0,0.0,-0.01525,0.0053679999999999995,0.995398,-0.77,0.49000000000000005,0.0,3.32,3.32,3.32,3.3,3.29,3.29,3.29,3.29,3.32,3.32,3.32,3.32,3.29,3.29,3.29,3.29,3.32,3.32,3.32,3.31,3.32,3.33,3.33,3.32,3.33,3.29,79.4,0.0,1.0,0.0,1.0,1.0,5558593
1765224063637,0.0,0.0,2.0,25.0,0.0,0.0,0.0,0.0,0.0,0.0,-0.01525,0.0053679999999999995,0.995398,-0.77,0.49000000000000005,-0.14,3.32,3.32,3.32,3.3,3.29,3.29,3.29,3.29,3.32,3.32,3.32,3.32,3.29,3.29,3.29,3.29,3.32,3.32,3.32,3.31,3.32,3.33,3.33,3.32,3.33,3.29,79.4,0.0,1.0,0.0,1.0,1.0,5558611
1765224063670,0.0,0.0,2.0,25.0,0.0,0.0,0.0,0.0,0.0,0.0,-0.01525,0.0053679999999999995,0.995398,-0.77,0.49000000000000005,-0.14,3.32,3.32,3.32,3.3,3.29,3.29,3.29,3.29,3.32,3.32,3.32,3.32,3.29,3.29,3.29,3.29,3.32,3.32,3.32,3.31,3.32,3.33,3.33,3.32,3.33,3.29,79.4,0.0,1.0,0.0,1.0,1.0,5558644
1765224063687,0.0,0.0,2.0,25.0,0.0,0.0,0.0,0.0,0.0,0.0,-0.01525,0.0053679999999999995,0.995398,-0.77,0.49000000000000005,-0.14,3.32,3.32,3.32,3.3,3.29,3.29,3.29,3.29,3.32,3.32,3.32,3.32,3.29,3.29,3.29,3.29,3.32,3.32,3.32,3.31,3.32,3.33,3.33,3.32,3.33,3.29,79.4,0.0,1.0,0.0,1.0,1.0,5558661
1765224063704,0.0,0.0,2.0,25.0,0.0,0.0,0.0,0.0,0.0,0.0,-0.01525,0.0053679999999999995,0.995398,-0.77,0.49000000000000005,-0.14,3.32,3.32,3.32,3.3,3.29,3.29,3.29,3.29,3.32,3.32,3.32,3.32,3.29,3.29,3.29,3.29,3.32,3.32,3.32,3.31,3.32,3.33,3.33,3.32,3.33,3.29,79.4,0.0,1.0,0.0,1.0,1.0,5558678
1765224063720,0.0,0.0,2.0,25.0,0.0,0.0,0.0,0.0,0.0,0.0,-0.01525,0.0053679999999999995,0.995398,-0.77,0.49000000000000005,-0.14,3.32,3.32,3.32,3.3,3.29,3.29,3.29,3.29,3.32,3.32,3.32,3.32,3.29,3.29,3.29,3.29,3.32,3.32,3.32,3.31,3.32,3.33,3.33,3.32,3.33,3.29,79.4,0.0,1.0,0.0,1.0,1.0,5558694
1765224063737,0.0,0.0,2.0,25.0,0.0,0.0,0.0,0.0,0.0,0.0,-0.01525,0.0053679999999999995,0.995398,-0.77,0.49000000000000005,-0.14,3.32,3.32,3.32,3.3,3.29,3.29,3.29,3.29,3.32,3.32,3.32,3.32,3.29,3.29,3.29,3.29,3.32,3.32,3.32,3.31,3.32,3.33,3.33,3.32,3.33,3.29,79.4,0.0,1.0,0.0,1.0,1.0,5558711
1765224063804,0.0,0.0,2.0,25.0,0.0,0.0,0.0,0.0,0.0,0.0,-0.01159,0.0060999999999999995,0.993324,-0.77,0.49000000000000005,-0.14,3.32,3.32,3.32,3.3,3.29,3.29,3.29,3.29,3.32,3.32,3.32,3.32,3.29,3.29,3.29,3.29,3.32,3.32,3.32,3.31,3.32,3.33,3.33,3.32,3.33,3.29,79.4,0.0,1.0,0.0,1.0,1.0,5558778
1765224063821,0.0,0.0,2.0,25.0,0.0,0.0,0.0,0.0,0.0,0.0,-0.01159,0.0060999999999999995,0.993324,-0.77,0.49000000000000005,-0.14,3.32,3.32,3.32,3.3,3.29,3.29,3.29,3.29,3.32,3.32,3.32,3.32,3.29,3.29,3.29,3.29,3.32,3.32,3.32,3.31,3.32,3.33,3.33,3.32,3.33,3.29,79.4,0.0,1.0,0.0,1.0,1.0,5558795
1765224063854,0.0,0.0,2.0,25.0,0.0,0.0,0.0,0.0,0.0,0.0,-0.01159,0.0060999999999999995,0.993324,-0.77,0.49000000000000005,-0.14,3.32,3.32,3.32,3.3,3.29,3.29,3.29,3.29,3.32,3.32,3.32,3.32,3.29,3.29,3.29,3.29,3.32,3.32,3.32,3.31,3.32,3.33,3.33,3.32,3.33,3.29,79.4,0.0,1.0,0.0,1.0,1.0,5558828
1765224063887,0.0,0.0,2.0,25.0,0.0,0.0,0.0,0.0,0.0,0.0,-0.01159,0.0060999999999999995,0.993324,-0.77,0.49000000000000005,-0.14,3.32,3.32,3.32,3.3,3.29,3.29,3.29,3.29,3.32,3.32,3.32,3.32,3.29,3.29,3.29,3.29,3.32,3.32,3.32,3.31,3.32,3.33,3.33,3.32,3.33,3.29,79.4,0.0,1.0,0.0,1.0,1.0,5558861
1765224063938,0.0,0.0,2.0,25.0,0.0,0.0,0.0,0.0,0.0,0.0,-0.01159,0.0060999999999999995,0.993324,-0.77,0.49000000000000005,-0.14,3.32,3.32,3.32,3.3,3.29,3.29,3.29,3.29,3.32,3.32,3.32,3.32,3.29,3.29,3.29,3.29,3.32,3.32,3.32,3.31,3.32,3.33,3.33,3.32,3.33,3.29,79.4,0.0,1.0,0.0,1.0,1.0,5558912
1765224063987,0.0,0.0,2.0,25.0,0.0,0.0,0.0,0.0,0.0,0.0,-0.011956,0.013542,0.994788,-0.77,0.49000000000000005,-0.14,3.32,3.32,3.32,3.3,3.29,3.29,3.29,3.29,3.32,3.32,3.32,3.32,3.29,3.29,3.29,3.29,3.32,3.32,3.32,3.31,3.32,3.33,3.33,3.32,3.33,3.29,79.4,0.0,1.0,0.0,1.0,1.0,5558961
1765224064019,0.0,0.0,2.0,25.0,0.0,0.0,0.0,0.0,0.0,0.0,-0.011956,0.013542,0.994788,-0.8400000000000001,0.49000000000000005,0.0,3.32,3.32,3.32,3.3,3.29,3.29,3.29,3.29,3.32,3.32,3.32,3.32,3.29,3.29,3.29,3.29,3.32,3.32,3.32,3.31,3.32,3.33,3.33,3.32,3.33,3.29,79.4,0.0,1.0,0.0,1.0,1.0,5558993
1765224064053,0.0,0.0,2.0,25.0,0.0,0.0,0.0,0.0,0.0,0.0,-0.014152,0.004392,0.99247,-0.8400000000000001,0.49000000000000005,0.0,3.32,3.32,3.32,3.3,3.29,3.29,3.29,3.29,3.32,3.32,3.32,3.32,3.29,3.29,3.29,3.29,3.32,3.32,3.32,3.31,3.32,3.33,3.33,3.32,3.33,3.29,79.4,0.0,1.0,0.0,1.0,1.0,5559027
1765224064087,0.0,0.0,2.0,25.0,0.0,0.0,0.0,0.0,0.0,0.0,-0.014152,0.004392,0.99247,-0.7000000000000001,0.35000000000000003,-0.14,3.32,3.32,3.32,3.3,3.29,3.29,3.29,3.29,3.32,3.32,3.32,3.32,3.29,3.29,3.29,3.29,3.32,3.32,3.32,3.31,3.32,3.33,3.33,3.32,3.33,3.29,79.4,0.0,1.0,0.0,1.0,1.0,5559061
1765224064104,0.0,0.0,2.0,25.0,0.0,0.0,0.0,0.0,0.0,0.0,-0.014152,0.004392,0.99247,-0.7000000000000001,0.35000000000000003,-0.14,3.32,3.32,3.32,3.3,3.29,3.29,3.29,3.29,3.32,3.32,3.32,3.32,3.29,3.29,3.29,3.29,3.32,3.32,3.32,3.31,3.32,3.33,3.33,3.32,3.33,3.29,79.4,0.0,1.0,0.0,1.0,1.0,5559078
1765224064120,0.0,0.0,2.0,25.0,0.0,0.0,0.0,0.0,0.0,0.0,-0.014152,0.004392,0.99247,-0.7000000000000001,0.35000000000000003,-0.14,3.32,3.32,3.32,3.3,3.29,3.29,3.29,3.29,3.32,3.32,3.32,3.32,3.29,3.29,3.29,3.29,3.32,3.32,3.32,3.31,3.32,3.33,3.33,3.32,3.33,3.29,79.4,0.0,1.0,0.0,1.0,1.0,5559094
1765224064137,0.0,0.0,2.0,25.0,0.0,0.0,0.0,0.0,0.0,0.0,-0.014152,0.004392,0.99247,-0.7000000000000001,0.35000000000000003,-0.14,3.32,3.32,3.32,3.3,3.29,3.29,3.29,3.29,3.32,3.32,3.32,3.32,3.29,3.29,3.29,3.29,3.32,3.32,3.32,3.31,3.32,3.33,3.33,3.32,3.33,3.29,79.4,0.0,1.0,0.0,1.0,1.0,5559111
1765224064171,0.0,0.0,2.0,25.0,0.0,0.0,0.0,0.0,0.0,0.0,-0.014152,0.004392,0.99247,-0.7000000000000001,0.35000000000000003,-0.14,3.32,3.32,3.32,3.3,3.29,3.29,3.29,3.29,3.32,3.32,3.32,3.32,3.29,3.29,3.29,3.29,3.32,3.32,3.32,3.31,3.32,3.33,3.33,3.32,3.33,3.29,79.4,0.0,1.0,0.0,1.0,1.0,5559145
1765224064220,0.0,0.0,2.0,25.0,0.0,0.0,0.0,0.0,0.0,0.0,-0.014152,0.004392,0.99247,-0.7000000000000001,0.35000000000000003,-0.14,3.32,3.32,3.32,3.3,3.29,3.29,3.29,3.29,3.32,3.32,3.32,3.32,3.29,3.29,3.29,3.29,3.32,3.32,3.32,3.31,3.32,3.33,3.33,3.32,3.33,3.29,79.4,0.0,1.0,0.0,1.0,1.0,5559194
1765224064238,0.0,0.0,2.0,25.0,0.0,0.0,0.0,0.0,0.0,0.0,-0.014152,0.004392,0.99247,-0.7000000000000001,0.35000000000000003,-0.14,3.32,3.32,3.32,3.3,3.29,3.29,3.29,3.29,3.32,3.32,3.32,3.32,3.29,3.29,3.29,3.29,3.32,3.32,3.32,3.31,3.32,3.33,3.33,3.32,3.33,3.29,79.4,0.0,1.0,0.0,1.0,1.0,5559212
1765224064304,0.0,0.0,2.0,25.0,0.0,0.0,0.0,0.0,0.0,0.0,-0.014152,0.004392,0.99247,-0.7000000000000001,0.35000000000000003,-0.14,3.32,3.32,3.32,3.3,3.29,3.29,3.29,3.29,3.32,3.32,3.32,3.32,3.29,3.29,3.29,3.29,3.32,3.32,3.32,3.31,3.32,3.33,3.33,3.32,3.33,3.29,79.4,0.0,1.0,0.0,1.0,1.0,5559278
1765224064338,0.0,0.0,2.0,25.0,0.0,0.0,0.0,0.0,0.0,0.0,-0.014029999999999999,0.0017079999999999999,0.988932,-0.7000000000000001,0.35000000000000003,-0.14,3.32,3.32,3.32,3.3,3.29,3.29,3.29,3.29,3.32,3.32,3.32,3.32,3.29,3.29,3.29,3.29,3.32,3.32,3.32,3.31,3.32,3.33,3.33,3.32,3.33,3.29,79.4,0.0,1.0,0.0,1.0,1.0,5559312
1765224064355,0.0,0.0,2.0,25.0,0.0,0.0,0.0,0.0,0.0,0.0,-0.014029999999999999,0.0017079999999999999,0.988932,-0.77,0.56,0.0,3.32,3.32,3.32,3.3,3.29,3.29,3.29,3.29,3.32,3.32,3.32,3.32,3.29,3.29,3.29,3.29,3.32,3.32,3.32,3.31,3.32,3.33,3.33,3.32,3.33,3.29,79.4,0.0,1.0,0.0,1.0,1.0,5559329
1765224064403,0.0,0.0,2.0,25.0,0.0,0.0,0.0,0.0,0.0,0.0,-0.014029999999999999,0.0017079999999999999,0.988932,-0.77,0.56,0.0,3.32,3.32,3.32,3.3,3.29,3.29,3.29,3.29,3.32,3.32,3.32,3.32,3.29,3.29,3.29,3.29,3.32,3.32,3.32,3.31,3.32,3.33,3.33,3.32,3.33,3.29,79.4,0.0,1.0,0.0,1.0,1.0,5559377
1765224064420,0.0,0.0,2.0,25.0,0.0,0.0,0.0,0.0,0.0,0.0,-0.014029999999999999,0.0017079999999999999,0.988932,-0.77,0.56,0.0,3.32,3.32,3.32,3.3,3.29,3.29,3.29,3.29,3.32,3.32,3.32,3.32,3.29,3.29,3.29,3.29,3.32,3.32,3.32,3.31,3.32,3.33,3.33,3.32,3.33,3.29,79.4,0.0,1.0,0.0,1.0,1.0,5559394
1765224064437,0.0,0.0,2.0,25.0,0.0,0.0,0.0,0.0,0.0,0.0,-0.014029999999999999,0.0017079999999999999,0.988932,-0.77,0.56,0.0,3.32,3.32,3.32,3.3,3.29,3.29,3.29,3.29,3.32,3.32,3.32,3.32,3.29,3.29,3.29,3.29,3.32,3.32,3.32,3.31,3.32,3.33,3.33,3.32,3.33,3.29,79.4,1.0,1.0,0.0,1.0,1.0,5559411
1765224064454,0.0,0.0,2.0,25.0,0.0,0.0,0.0,0.0,0.0,0.0,-0.014029999999999999,0.0017079999999999999,0.988932,-0.77,0.56,0.0,3.32,3.32,3.32,3.3,3.29,3.29,3.29,3.29,3.32,3.32,3.32,3.32,3.29,3.29,3.29,3.29,3.32,3.32,3.32,3.31,3.32,3.33,3.33,3.32,3.33,3.29,79.4,1.0,1.0,0.0,1.0,1.0,5559428
1765224064487,0.0,0.0,2.0,25.0,0.0,0.0,0.0,0.0,0.0,0.0,-0.01586,0.007808,0.995764,-0.77,0.56,0.0,3.32,3.32,3.32,3.3,3.29,3.29,3.29,3.29,3.32,3.32,3.32,3.32,3.29,3.29,3.29,3.29,3.32,3.32,3.32,3.31,3.32,3.33,3.33,3.32,3.33,3.29,79.4,1.0,1.0,0.0,1.0,1.0,5559461
1765224064504,0.0,0.0,2.0,25.0,0.0,0.0,0.0,0.0,0.0,0.0,-0.01586,0.007808,0.995764,-0.8400000000000001,0.49000000000000005,-0.07,3.32,3.32,3.32,3.3,3.29,3.29,3.29,3.29,3.32,3.32,3.32,3.32,3.29,3.29,3.29,3.29,3.32,3.32,3.32,3.31,3.32,3.33,3.33,3.32,3.33,3.29,79.4,1.0,1.0,0.0,1.0,1.0,5559478
1765224064554,0.0,0.0,2.0,25.0,0.0,0.0,0.0,0.0,0.0,0.0,-0.01586,0.007808,0.995764,-0.8400000000000001,0.49000000000000005,-0.07,3.32,3.32,3.32,3.3,3.29,3.29,3.29,3.29,3.32,3.32,3.32,3.32,3.29,3.29,3.29,3.29,3.32,3.32,3.32,3.31,3.32,3.33,3.33,3.32,3.33,3.29,79.4,1.0,1.0,0.0,1.0,1.0,5559528
1765224064571,0.0,0.0,2.0,25.0,0.0,0.0,0.0,0.0,0.0,0.0,-0.01586,0.007808,0.995764,-0.8400000000000001,0.49000000000000005,-0.07,3.32,3.32,3.32,3.3,3.29,3.29,3.29,3.29,3.32,3.32,3.32,3.32,3.29,3.29,3.29,3.29,3.32,3.32,3.32,3.31,3.32,3.33,3.33,3.32,3.33,3.29,79.4,1.0,1.0,0.0,1.0,1.0,5559545
1765224064587,0.0,0.0,2.0,25.0,0.0,0.0,0.0,0.0,0.0,0.0,-0.01586,0.007808,0.995764,-0.8400000000000001,0.49000000000000005,-0.07,3.32,3.32,3.32,3.3,3.29,3.29,3.29,3.29,3.32,3.32,3.32,3.32,3.29,3.29,3.29,3.29,3.32,3.32,3.32,3.31,3.32,3.33,3.33,3.32,3.33,3.29,79.4,1.0,1.0,0.0,1.0,1.0,5559561
1765224064620,0.0,0.0,2.0,25.0,0.0,0.0,0.0,0.0,0.0,0.0,-0.01586,0.007808,0.995764,-0.8400000000000001,0.49000000000000005,-0.07,3.32,3.32,3.32,3.3,3.29,3.29,3.29,3.29,3.32,3.32,3.32,3.32,3.29,3.29,3.29,3.29,3.32,3.32,3.32,3.31,3.32,3.33,3.33,3.32,3.33,3.29,79.4,1.0,1.0,0.0,1.0,1.0,5559594
1765224064637,0.0,0.0,2.0,25.0,0.0,0.0,0.0,0.0,0.0,0.0,-0.01525,0.005612,0.99491,-0.8400000000000001,0.49000000000000005,-0.07,3.32,3.32,3.32,3.3,3.29,3.29,3.29,3.29,3.32,3.32,3.32,3.32,3.29,3.29,3.29,3.29,3.32,3.32,3.32,3.31,3.32,3.33,3.33,3.32,3.33,3.29,79.4,1.0,1.0,0.0,1.0,1.0,5559611
1765224064670,0.0,0.0,2.0,25.0,0.0,0.0,0.0,0.0,0.0,0.0,-0.01525,0.005612,0.99491,-0.8400000000000001,0.49000000000000005,-0.07,3.32,3.32,3.32,3.3,3.29,3.29,3.29,3.29,3.32,3.32,3.32,3.32,3.29,3.29,3.29,3.29,3.32,3.32,3.32,3.31,3.32,3.33,3.33,3.32,3.33,3.29,79.4,1.0,1.0,0.0,1.0,1.0,5559644
1765224064687,0.0,0.0,2.0,25.0,0.0,0.0,0.0,0.0,0.0,0.0,-0.01525,0.005612,0.99491,-0.77,0.49000000000000005,-0.21000000000000002,3.32,3.32,3.32,3.3,3.29,3.29,3.29,3.29,3.32,3.32,3.32,3.32,3.29,3.29,3.29,3.29,3.32,3.32,3.32,3.31,3.32,3.33,3.33,3.32,3.33,3.29,79.4,1.0,1.0,0.0,1.0,1.0,5559661
1765224064787,0.0,0.0,2.0,25.0,0.0,0.0,0.0,0.0,0.0,0.0,-0.018543999999999998,0.0030499999999999998,0.99186,-0.77,0.56,0.07,3.32,3.32,3.32,3.3,3.29,3.29,3.29,3.29,3.32,3.32,3.32,3.32,3.29,3.29,3.29,3.29,3.32,3.32,3.32,3.31,3.32,3.33,3.33,3.32,3.33,3.29,79.4,1.0,1.0,0.0,1.0,1.0,5559761
1765224064837,0.0,0.0,2.0,25.0,0.0,0.0,0.0,0.0,0.0,0.0,-0.018543999999999998,0.0030499999999999998,0.99186,-0.77,0.56,0.07,3.32,3.32,3.32,3.3,3.29,3.29,3.29,3.29,3.32,3.32,3.32,3.32,3.29,3.29,3.29,3.29,3.32,3.32,3.32,3.31,3.32,3.33,3.33,3.32,3.33,3.29,79.4,1.0,1.0,0.0,1.0,1.0,5559811
1765224064854,0.0,0.0,2.0,25.0,0.0,0.0,0.0,0.0,0.0,0.0,-0.018543999999999998,0.0030499999999999998,0.99186,-0.77,0.56,0.07,3.32,3.32,3.32,3.3,3.29,3.29,3.29,3.29,3.32,3.32,3.32,3.32,3.29,3.29,3.29,3.29,3.32,3.32,3.32,3.31,3.32,3.33,3.33,3.32,3.33,3.29,79.4,1.0,1.0,0.0,1.0,1.0,5559828
1765224064887,0.0,0.0,2.0,25.0,0.0,0.0,0.0,0.0,0.0,0.0,-0.018543999999999998,0.0030499999999999998,0.99186,-0.77,0.56,0.07,3.32,3.32,3.32,3.3,3.29,3.29,3.29,3.29,3.32,3.32,3.32,3.32,3.29,3.29,3.29,3.29,3.32,3.32,3.32,3.31,3.32,3.33,3.33,3.32,3.33,3.29,79.4,1.0,1.0,0.0,1.0,1.0,5559861
1765224064905,0.0,0.0,2.0,25.0,0.0,0.0,0.0,0.0,0.0,0.0,-0.018543999999999998,0.0030499999999999998,0.99186,-0.77,0.56,0.07,3.32,3.32,3.32,3.3,3.29,3.29,3.29,3.29,3.32,3.32,3.32,3.32,3.29,3.29,3.29,3.29,3.32,3.32,3.32,3.31,3.32,3.33,3.33,3.32,3.33,3.29,79.4,1.0,1.0,0.0,1.0,1.0,5559879
1765224064954,0.0,0.0,2.0,25.0,0.0,0.0,0.0,0.0,0.0,0.0,-0.018543999999999998,0.0030499999999999998,0.99186,-0.77,0.56,0.07,3.32,3.32,3.32,3.3,3.29,3.29,3.29,3.29,3.32,3.32,3.32,3.32,3.29,3.29,3.29,3.29,3.32,3.32,3.32,3.31,3.32,3.33,3.33,3.32,3.33,3.29,79.4,1.0,1.0,0.0,1.0,1.0,5559928
1765224064971,0.0,0.0,2.0,25.0,0.0,0.0,0.0,0.0,0.0,0.0,-0.012199999999999999,0.0060999999999999995,0.996252,-0.77,0.56,0.07,3.32,3.32,3.32,3.3,3.29,3.29,3.29,3.29,3.32,3.32,3.32,3.32,3.29,3.29,3.29,3.29,3.32,3.32,3.32,3.31,3.32,3.33,3.33,3.32,3.33,3.29,79.4,1.0,1.0,0.0,1.0,1.0,5559945
1765224065004,0.0,0.0,2.0,25.0,0.0,0.0,0.0,0.0,0.0,0.0,-0.012199999999999999,0.0060999999999999995,0.996252,-0.77,0.56,0.07,3.32,3.32,3.32,3.3,3.29,3.29,3.29,3.29,3.32,3.32,3.32,3.32,3.29,3.29,3.29,3.29,3.32,3.32,3.32,3.31,3.32,3.33,3.33,3.32,3.33,3.29,79.4,1.0,1.0,0.0,1.0,1.0,5559978
1765224065037,0.0,0.0,2.0,25.0,0.0,0.0,0.0,0.0,0.0,0.0,-0.012199999999999999,0.0060999999999999995,0.996252,-0.77,0.56,0.07,3.32,3.32,3.32,3.3,3.29,3.29,3.29,3.29,3.32,3.32,3.32,3.32,3.29,3.29,3.29,3.29,3.32,3.32,3.32,3.31,3.32,3.33,3.33,3.32,3.33,3.29,79.4,1.0,1.0,0.0,1.0,1.0,5560011
1765224065054,0.0,0.0,2.0,25.0,0.0,0.0,0.0,0.0,0.0,0.0,-0.012199999999999999,0.0060999999999999995,0.996252,-0.77,0.56,0.07,3.32,3.32,3.32,3.3,3.29,3.29,3.29,3.29,3.32,3.32,3.32,3.32,3.29,3.29,3.29,3.29,3.32,3.32,3.32,3.31,3.32,3.33,3.33,3.32,3.33,3.29,79.4,1.0,1.0,0.0,1.0,1.0,5560028
1765224065087,0.0,0.0,2.0,25.0,0.0,0.0,0.0,0.0,0.0,0.0,-0.012199999999999999,0.0060999999999999995,0.996252,-0.77,0.56,0.07,3.32,3.32,3.32,3.3,3.29,3.29,3.29,3.29,3.32,3.32,3.32,3.32,3.29,3.29,3.29,3.29,3.32,3.32,3.32,3.31,3.32,3.33,3.33,3.32,3.33,3.29,79.4,1.0,1.0,0.0,1.0,1.0,5560061
1765224065137,0.0,0.0,2.0,25.0,0.0,0.0,0.0,0.0,0.0,0.0,-0.014029999999999999,0.005124,0.993568,-0.77,0.56,0.07,3.32,3.32,3.32,3.3,3.29,3.29,3.29,3.29,3.32,3.32,3.32,3.32,3.29,3.29,3.29,3.29,3.32,3.32,3.32,3.31,3.32,3.33,3.33,3.32,3.33,3.29,79.4,1.0,1.0,0.0,1.0,1.0,5560111
1765224065170,0.0,0.0,2.0,25.0,0.0,0.0,0.0,0.0,0.0,0.0,-0.014029999999999999,0.005124,0.993568,-0.77,0.56,0.07,3.32,3.32,3.32,3.3,3.29,3.29,3.29,3.29,3.32,3.32,3.32,3.32,3.29,3.29,3.29,3.29,3.32,3.32,3.32,3.31,3.32,3.33,3.33,3.32,3.33,3.29,79.4,1.0,1.0,0.0,1.0,1.0,5560144
1765224065187,0.0,0.0,2.0,25.0,0.0,0.0,0.0,0.0,0.0,0.0,-0.014029999999999999,0.005124,0.993568,-0.77,0.49000000000000005,-0.07,3.32,3.32,3.32,3.3,3.29,3.29,3.29,3.29,3.32,3.32,3.32,3.32,3.29,3.29,3.29,3.29,3.32,3.32,3.32,3.31,3.32,3.33,3.33,3.32,3.33,3.29,79.4,1.0,1.0,0.0,1.0,1.0,5560161
1765224065203,0.0,0.0,2.0,25.0,0.0,0.0,0.0,0.0,0.0,0.0,-0.014029999999999999,0.005124,0.993568,-0.77,0.49000000000000005,-0.07,3.32,3.32,3.32,3.3,3.29,3.29,3.29,3.29,3.32,3.32,3.32,3.32,3.29,3.29,3.29,3.29,3.32,3.32,3.32,3.31,3.32,3.33,3.33,3.32,3.33,3.29,79.4,1.0,1.0,0.0,1.0,1.0,5560177
1765224065221,0.0,0.0,2.0,25.0,0.0,0.0,0.0,0.0,0.0,0.0,-0.014029999999999999,0.005124,0.993568,-0.77,0.49000000000000005,-0.07,3.32,3.32,3.32,3.3,3.29,3.29,3.29,3.29,3.32,3.32,3.32,3.32,3.29,3.29,3.29,3.29,3.32,3.32,3.32,3.31,3.32,3.33,3.33,3.32,3.33,3.29,79.4,1.0,1.0,0.0,1.0,1.0,5560195
1765224065238,0.0,0.0,2.0,25.0,0.0,0.0,0.0,0.0,0.0,0.0,-0.014029999999999999,0.005124,0.993568,-0.77,0.49000000000000005,-0.07,3.32,3.32,3.32,3.3,3.29,3.29,3.29,3.29,3.32,3.32,3.32,3.32,3.29,3.29,3.29,3.29,3.32,3.32,3.32,3.31,3.32,3.33,3.33,3.32,3.33,3.29,79.4,1.0,1.0,0.0,1.0,1.0,5560212
1765224065286,0.0,0.0,2.0,25.0,0.0,0.0,0.0,0.0,0.0,0.0,-0.014029999999999999,0.005124,0.993568,-0.77,0.49000000000000005,-0.07,3.32,3.32,3.32,3.3,3.29,3.29,3.29,3.29,3.32,3.32,3.32,3.32,3.29,3.29,3.29,3.29,3.32,3.32,3.32,3.31,3.32,3.33,3.33,3.32,3.33,3.29,79.4,1.0,1.0,0.0,1.0,1.0,5560260
1765224065302,0.0,0.0,2.0,25.0,0.0,0.0,0.0,0.0,0.0,0.0,-0.014029999999999999,0.005124,0.993568,-0.77,0.49000000000000005,-0.07,3.32,3.32,3.32,3.3,3.29,3.29,3.29,3.29,3.32,3.32,3.32,3.32,3.29,3.29,3.29,3.29,3.32,3.32,3.32,3.31,3.32,3.33,3.33,3.32,3.33,3.29,79.4,1.0,1.0,0.0,1.0,1.0,5560276
1765224065319,0.0,0.0,2.0,25.0,0.0,0.0,0.0,0.0,0.0,0.0,-0.014029999999999999,0.005124,0.993568,-0.77,0.49000000000000005,-0.07,3.32,3.32,3.32,3.3,3.29,3.29,3.29,3.29,3.32,3.32,3.32,3.32,3.29,3.29,3.29,3.29,3.32,3.32,3.32,3.31,3.32,3.33,3.33,3.32,3.33,3.29,79.4,1.0,1.0,0.0,1.0,1.0,5560293
1765224065353,0.0,0.0,2.0,25.0,0.0,0.0,0.0,0.0,0.0,0.0,-0.014029999999999999,0.005124,0.993568,-0.77,0.49000000000000005,-0.07,3.32,3.32,3.32,3.3,3.29,3.29,3.29,3.29,3.32,3.32,3.32,3.32,3.29,3.29,3.29,3.29,3.32,3.32,3.32,3.31,3.32,3.33,3.33,3.32,3.33,3.29,79.4,1.0,1.0,0.0,1.0,1.0,5560327
1765224065388,0.0,0.0,2.0,25.0,0.0,0.0,0.0,0.0,0.0,0.0,-0.017446,0.0053679999999999995,0.9943,-0.77,0.49000000000000005,-0.07,3.32,3.32,3.32,3.3,3.29,3.29,3.29,3.29,3.32,3.32,3.32,3.32,3.29,3.29,3.29,3.29,3.32,3.32,3.32,3.31,3.32,3.33,3.33,3.32,3.33,3.29,79.4,1.0,1.0,0.0,1.0,1.0,5560362
1765224065420,0.0,0.0,2.0,25.0,0.0,0.0,0.0,0.0,0.0,0.0,-0.017446,0.0053679999999999995,0.9943,-0.77,0.49000000000000005,-0.07,3.32,3.32,3.32,3.3,3.29,3.29,3.29,3.29,3.32,3.32,3.32,3.32,3.29,3.29,3.29,3.29,3.32,3.32,3.32,3.31,3.32,3.33,3.33,3.32,3.33,3.29,79.4,1.0,1.0,0.0,1.0,1.0,5560394
1765224065436,0.0,0.0,2.0,25.0,0.0,0.0,0.0,0.0,0.0,0.0,-0.017446,0.0053679999999999995,0.9943,-0.7000000000000001,0.56,-0.07,3.32,3.32,3.32,3.3,3.29,3.29,3.29,3.29,3.32,3.32,3.32,3.32,3.29,3.29,3.29,3.29,3.32,3.32,3.32,3.31,3.32,3.33,3.33,3.32,3.33,3.29,79.4,1.0,1.0,0.0,1.0,1.0,5560410
1765224065520,0.0,0.0,2.0,25.0,0.0,0.0,0.0,0.0,0.0,0.0,-0.013176,0.0064659999999999995,0.99552,-0.7000000000000001,0.56,-0.07,3.32,3.32,3.32,3.3,3.29,3.29,3.29,3.29,3.32,3.32,3.32,3.32,3.29,3.29,3.29,3.29,3.32,3.32,3.32,3.31,3.32,3.33,3.33,3.32,3.33,3.29,79.4,1.0,1.0,0.0,1.0,1.0,5560494
1765224065537,0.0,0.0,2.0,25.0,0.0,0.0,0.0,0.0,0.0,0.0,-0.013176,0.0064659999999999995,0.99552,-0.8400000000000001,0.49000000000000005,0.0,3.32,3.32,3.32,3.3,3.29,3.29,3.29,3.29,3.32,3.32,3.32,3.32,3.29,3.29,3.29,3.29,3.32,3.32,3.32,3.31,3.32,3.33,3.33,3.32,3.33,3.29,79.4,1.0,1.0,0.0,1.0,1.0,5560511
1765224065571,0.0,0.0,2.0,25.0,0.0,0.0,0.0,0.0,0.0,0.0,-0.013176,0.0064659999999999995,0.99552,-0.8400000000000001,0.49000000000000005,0.0,3.32,3.32,3.32,3.3,3.29,3.29,3.29,3.29,3.32,3.32,3.32,3.32,3.29,3.29,3.29,3.29,3.32,3.32,3.32,3.31,3.32,3.33,3.33,3.32,3.33,3.29,79.4,1.0,1.0,0.0,1.0,1.0,5560545
1765224065587,0.0,0.0,2.0,25.0,0.0,0.0,0.0,0.0,0.0,0.0,-0.013176,0.0064659999999999995,0.99552,-0.8400000000000001,0.49000000000000005,0.0,3.32,3.32,3.32,3.3,3.29,3.29,3.29,3.29,3.32,3.32,3.32,3.32,3.29,3.29,3.29,3.29,3.32,3.32,3.32,3.31,3.32,3.33,3.33,3.32,3.33,3.29,79.4,1.0,1.0,0.0,1.0,1.0,5560561
1765224065604,0.0,0.0,2.0,25.0,0.0,0.0,0.0,0.0,0.0,0.0,-0.013176,0.0064659999999999995,0.99552,-0.8400000000000001,0.49000000000000005,0.0,3.32,3.32,3.32,3.3,3.29,3.29,3.29,3.29,3.32,3.32,3.32,3.32,3.29,3.29,3.29,3.29,3.32,3.32,3.32,3.31,3.32,3.33,3.33,3.32,3.33,3.29,79.4,1.0,1.0,0.0,1.0,1.0,5560578
1765224065637,0.0,0.0,2.0,25.0,0.0,0.0,0.0,0.0,0.0,0.0,-0.013176,0.0064659999999999995,0.99552,-0.8400000000000001,0.49000000000000005,0.0,3.32,3.32,3.32,3.3,3.29,3.29,3.29,3.29,3.32,3.32,3.32,3.32,3.29,3.29,3.29,3.29,3.32,3.32,3.32,3.31,3.32,3.33,3.33,3.32,3.33,3.29,79.4,1.0,1.0,0.0,1.0,1.0,5560611
1765224065703,0.0,0.0,2.0,25.0,0.0,0.0,0.0,0.0,0.0,0.0,-0.01159,0.0057339999999999995,0.993934,-0.8400000000000001,0.49000000000000005,0.0,3.32,3.32,3.32,3.3,3.29,3.29,3.29,3.29,3.32,3.32,3.32,3.32,3.29,3.29,3.29,3.29,3.32,3.32,3.32,3.31,3.32,3.33,3.33,3.32,3.33,3.29,79.4,1.0,1.0,0.0,1.0,1.0,5560677
1765224065720,0.0,0.0,2.0,25.0,0.0,0.0,0.0,0.0,0.0,0.0,-0.01159,0.0057339999999999995,0.993934,-0.8400000000000001,0.49000000000000005,0.0,3.32,3.32,3.32,3.3,3.29,3.29,3.29,3.29,3.32,3.32,3.32,3.32,3.29,3.29,3.29,3.29,3.32,3.32,3.32,3.31,3.32,3.33,3.33,3.32,3.33,3.29,79.4,1.0,1.0,0.0,1.0,1.0,5560694
1765224065737,0.0,0.0,2.0,25.0,0.0,0.0,0.0,0.0,0.0,0.0,-0.01159,0.0057339999999999995,0.993934,-0.8400000000000001,0.49000000000000005,0.0,3.32,3.32,3.32,3.3,3.29,3.29,3.29,3.29,3.32,3.32,3.32,3.32,3.29,3.29,3.29,3.29,3.32,3.32,3.32,3.31,3.32,3.33,3.33,3.32,3.33,3.29,79.4,1.0,1.0,0.0,1.0,1.0,5560711
1765224065754,0.0,0.0,2.0,25.0,0.0,0.0,0.0,0.0,0.0,0.0,-0.01159,0.0057339999999999995,0.993934,-0.77,0.56,-0.07,3.32,3.32,3.32,3.3,3.29,3.29,3.29,3.29,3.32,3.32,3.32,3.32,3.29,3.29,3.29,3.29,3.32,3.32,3.32,3.31,3.32,3.33,3.33,3.32,3.33,3.29,79.4,1.0,1.0,0.0,1.0,1.0,5560728
1765224065771,0.0,0.0,2.0,25.0,0.0,0.0,0.0,0.0,0.0,0.0,-0.01159,0.0057339999999999995,0.993934,-0.77,0.56,-0.07,3.32,3.32,3.32,3.3,3.29,3.29,3.29,3.29,3.32,3.32,3.32,3.32,3.29,3.29,3.29,3.29,3.32,3.32,3.32,3.31,3.32,3.33,3.33,3.32,3.33,3.29,79.4,1.0,1.0,0.0,1.0,1.0,5560745
1765224065837,0.0,0.0,2.0,25.0,0.0,0.0,0.0,0.0,0.0,0.0,-0.01159,0.0057339999999999995,0.993934,-0.77,0.56,-0.07,3.32,3.32,3.32,3.3,3.29,3.29,3.29,3.29,3.32,3.32,3.32,3.32,3.29,3.29,3.29,3.29,3.32,3.32,3.32,3.31,3.32,3.33,3.33,3.32,3.33,3.29,79.4,1.0,1.0,0.0,1.0,1.0,5560811
1765224065903,0.0,0.0,2.0,25.0,0.0,0.0,0.0,0.0,0.0,0.0,-0.011833999999999999,0.00671,0.993812,-0.77,0.56,-0.07,3.32,3.32,3.32,3.3,3.29,3.29,3.29,3.29,3.32,3.32,3.32,3.32,3.29,3.29,3.29,3.29,3.32,3.32,3.32,3.31,3.32,3.33,3.33,3.32,3.33,3.29,79.4,1.0,1.0,0.0,1.0,1.0,5560877
1765224065937,0.0,0.0,2.0,25.0,0.0,0.0,0.0,0.0,0.0,0.0,-0.011833999999999999,0.00671,0.993812,-0.8400000000000001,0.6300000000000001,0.0,3.32,3.32,3.32,3.3,3.29,3.29,3.29,3.29,3.32,3.32,3.32,3.32,3.29,3.29,3.29,3.29,3.32,3.32,3.32,3.31,3.32,3.33,3.33,3.32,3.33,3.29,79.4,1.0,1.0,0.0,1.0,1.0,5560911
1765224065954,0.0,0.0,2.0,25.0,0.0,0.0,0.0,0.0,0.0,0.0,-0.011833999999999999,0.00671,0.993812,-0.8400000000000001,0.6300000000000001,0.0,3.32,3.32,3.32,3.3,3.29,3.29,3.29,3.29,3.32,3.32,3.32,3.32,3.29,3.29,3.29,3.29,3.32,3.32,3.32,3.31,3.32,3.33,3.33,3.32,3.33,3.29,79.4,0.0,1.0,0.0,1.0,1.0,5560928
1765224065986,0.0,0.0,2.0,25.0,0.0,0.0,0.0,0.0,0.0,0.0,-0.011833999999999999,0.00671,0.993812,-0.8400000000000001,0.6300000000000001,0.0,3.32,3.32,3.32,3.3,3.29,3.29,3.29,3.29,3.32,3.32,3.32,3.32,3.29,3.29,3.29,3.29,3.32,3.32,3.32,3.31,3.32,3.33,3.33,3.32,3.33,3.29,79.4,0.0,1.0,0.0,1.0,1.0,5560960
1765224066020,0.0,0.0,2.0,25.0,0.0,0.0,0.0,0.0,0.0,0.0,-0.011833999999999999,0.00671,0.993812,-0.8400000000000001,0.6300000000000001,0.0,3.32,3.32,3.32,3.3,3.29,3.29,3.29,3.29,3.32,3.32,3.32,3.32,3.29,3.29,3.29,3.29,3.32,3.32,3.32,3.31,3.32,3.33,3.33,3.32,3.33,3.29,79.4,0.0,1.0,0.0,1.0,1.0,5560994
1765224066037,0.0,0.0,2.0,25.0,0.0,0.0,0.0,0.0,0.0,0.0,-0.011833999999999999,0.00671,0.993812,-0.8400000000000001,0.6300000000000001,0.0,3.32,3.32,3.32,3.3,3.29,3.29,3.29,3.29,3.32,3.32,3.32,3.32,3.29,3.29,3.29,3.29,3.32,3.32,3.32,3.31,3.32,3.33,3.33,3.32,3.33,3.29,79.4,0.0,1.0,0.0,1.0,1.0,5561011
1765224066054,0.0,0.0,2.0,25.0,0.0,0.0,0.0,0.0,0.0,0.0,-0.011833999999999999,0.00671,0.993812,-0.8400000000000001,0.6300000000000001,0.0,3.32,3.32,3.32,3.3,3.29,3.29,3.29,3.29,3.32,3.32,3.32,3.32,3.29,3.29,3.29,3.29,3.32,3.32,3.32,3.31,3.32,3.33,3.33,3.32,3.33,3.29,79.4,0.0,1.0,0.0,1.0,1.0,5561028
1765224066087,0.0,0.0,2.0,25.0,0.0,0.0,0.0,0.0,0.0,0.0,-0.011833999999999999,0.00671,0.993812,-0.8400000000000001,0.6300000000000001,0.0,3.32,3.32,3.32,3.3,3.29,3.29,3.29,3.29,3.32,3.32,3.32,3.32,3.29,3.29,3.29,3.29,3.32,3.32,3.32,3.31,3.32,3.33,3.33,3.32,3.33,3.29,79.4,0.0,1.0,0.0,1.0,1.0,5561061
1765224066104,0.0,0.0,2.0,25.0,0.0,0.0,0.0,0.0,0.0,0.0,-0.013786,0.0057339999999999995,0.995032,-0.8400000000000001,0.6300000000000001,0.0,3.32,3.32,3.32,3.3,3.29,3.29,3.29,3.29,3.32,3.32,3.32,3.32,3.29,3.29,3.29,3.29,3.32,3.32,3.32,3.31,3.32,3.33,3.33,3.32,3.33,3.29,79.4,0.0,1.0,0.0,1.0,1.0,5561078
1765224066154,0.0,0.0,2.0,25.0,0.0,0.0,0.0,0.0,0.0,0.0,-0.013786,0.0057339999999999995,0.995032,-0.8400000000000001,0.6300000000000001,-0.14,3.32,3.32,3.32,3.3,3.29,3.29,3.29,3.29,3.32,3.32,3.32,3.32,3.29,3.29,3.29,3.29,3.32,3.32,3.32,3.31,3.32,3.33,3.33,3.32,3.33,3.29,79.4,0.0,1.0,0.0,1.0,1.0,5561128
1765224066254,0.0,0.0,2.0,25.0,0.0,0.0,0.0,0.0,0.0,0.0,-0.014884,0.00488,0.992104,-0.8400000000000001,0.6300000000000001,-0.14,3.32,3.32,3.32,3.3,3.29,3.29,3.29,3.29,3.32,3.32,3.32,3.32,3.29,3.29,3.29,3.29,3.32,3.32,3.32,3.31,3.32,3.33,3.33,3.32,3.33,3.29,79.4,0.0,1.0,0.0,1.0,1.0,5561228
1765224066270,0.0,0.0,2.0,25.0,0.0,0.0,0.0,0.0,0.0,0.0,-0.014884,0.00488,0.992104,-0.77,0.56,-0.14,3.32,3.32,3.32,3.3,3.29,3.29,3.29,3.29,3.32,3.32,3.32,3.32,3.29,3.29,3.29,3.29,3.32,3.32,3.32,3.31,3.32,3.33,3.33,3.32,3.33,3.29,79.4,0.0,1.0,0.0,1.0,1.0,5561244
1765224066287,0.0,0.0,2.0,25.0,0.0,0.0,0.0,0.0,0.0,0.0,-0.014884,0.00488,0.992104,-0.77,0.56,-0.14,3.32,3.32,3.32,3.3,3.29,3.29,3.29,3.29,3.32,3.32,3.32,3.32,3.29,3.29,3.29,3.29,3.32,3.32,3.32,3.31,3.32,3.33,3.33,3.32,3.33,3.29,79.4,0.0,1.0,0.0,1.0,1.0,5561261
1765224066304,0.0,0.0,2.0,25.0,0.0,0.0,0.0,0.0,0.0,0.0,-0.011346,0.0053679999999999995,0.993324,-0.77,0.56,-0.14,3.32,3.32,3.32,3.3,3.29,3.29,3.29,3.29,3.32,3.32,3.32,3.32,3.29,3.29,3.29,3.29,3.32,3.32,3.32,3.31,3.32,3.33,3.33,3.32,3.33,3.29,79.4,0.0,1.0,0.0,1.0,1.0,5561278
1765224066354,0.0,0.0,2.0,25.0,0.0,0.0,0.0,0.0,0.0,0.0,-0.011346,0.0053679999999999995,0.993324,-0.77,0.42000000000000004,-0.07,3.32,3.32,3.32,3.3,3.29,3.29,3.29,3.29,3.32,3.32,3.32,3.32,3.29,3.29,3.29,3.29,3.32,3.32,3.32,3.31,3.32,3.33,3.33,3.32,3.33,3.29,79.4,0.0,1.0,0.0,1.0,1.0,5561328
1765224066403,0.0,0.0,2.0,25.0,0.0,0.0,0.0,0.0,0.0,0.0,-0.01342,0.0050019999999999995,0.995398,-0.77,0.42000000000000004,-0.07,3.32,3.32,3.32,3.3,3.29,3.29,3.29,3.29,3.32,3.32,3.32,3.32,3.29,3.29,3.29,3.29,3.32,3.32,3.32,3.31,3.32,3.33,3.33,3.32,3.33,3.29,79.4,0.0,1.0,0.0,1.0,1.0,5561377
1765224066420,0.0,0.0,2.0,25.0,0.0,0.0,0.0,0.0,0.0,0.0,-0.01342,0.0050019999999999995,0.995398,-0.77,0.56,-0.07,3.32,3.32,3.32,3.3,3.29,3.29,3.29,3.29,3.32,3.32,3.32,3.32,3.29,3.29,3.29,3.29,3.32,3.32,3.32,3.31,3.32,3.33,3.33,3.32,3.33,3.29,79.4,0.0,1.0,0.0,1.0,1.0,5561394
