timestamp,THROTTLE,BRAKE,ECU_MODE_ID,TORQUE_GAIN,TORQUE_REF_LEFT_MOTOR,TORQUE_REF_RIGHT_MOTOR,LEFT_MOTOR_SPEED,RIGHT_MOTOR_SPEED,REAR_LEFT_WHEEL_SPEED,REAR_RIGHT_WHEEL_SPEED,ACCEL_LONGITUDINAL,ACCEL_LATERAL,ACCEL_NORMAL,VEL_ANGULAR_YAW,VEL_ANGULAR_PITCH,VEL_ANGULAR_ROLL,STACK_1_CELL_1,STACK_1_CELL_2,STACK_1_CELL_3,STACK_1_CELL_4,STACK_2_CELL_1,STACK_2_CELL_2,STACK_2_CELL_3,STACK_2_CELL_4,STACK_3_CELL_1,STACK_3_CELL_2,STACK_3_CELL_3,STACK_3_CELL_4,STACK_4_CELL_1,STACK_4_CELL_2,STACK_4_CELL_3,STACK_4_CELL_4,STACK_5_CELL_1,STACK_5_CELL_2,STACK_5_CELL_3,STACK_5_CELL_4,STACK_6_CELL_1,STACK_6_CELL_2,STACK_6_CELL_3,STACK_6_CELL_4,MAX_VOLTAGE,MIN_VOLTAGE,TOTAL_VOLTAGE,SHUNT_CURRENT,BMS_MODE_ID,BMS_ERROR_ID,AIR_P,AIR_N,t,LEFT_MOTOR_RPM,RIGHT_MOTOR_RPM
1765226450009,0.0,0.0,0.0,0.0,0.0,0.0,34.87576615714286,32.325496457142854,34.87576615714286,32.325496457142854,-0.18287799999999999,0.08064199999999999,0.87596,-0.56,0.28,0.0,3.27,3.31,3.26,3.26,3.27,3.28,3.27,3.27,3.3,3.3,3.3,3.29,3.27,3.27,3.27,3.29,3.28,3.28,3.28,3.27,3.3,3.31,3.3,3.29,3.31,3.26,78.7,-45.0,1.0,2.0,0.0,0.0,7944983,3159.0,2928.0
1765226450057,0.0,0.0,0.0,0.0,0.0,0.0,34.87576615714286,0.0,34.87576615714286,32.325496457142854,-0.18287799999999999,0.08064199999999999,0.87596,-0.56,0.28,0.0,3.27,3.31,3.26,3.26,3.27,3.28,3.27,3.27,3.3,3.3,3.3,3.29,3.27,3.27,3.27,3.29,3.28,3.28,3.28,3.27,3.3,3.31,3.3,3.29,3.31,3.26,78.7,-45.0,1.0,2.0,0.0,0.0,7945031,3159.0,0.0
1765226450157,0.0,0.0,0.0,0.0,0.0,0.0,34.87576615714286,0.0,34.87576615714286,32.325496457142854,-0.017811999999999998,0.00488,0.9928359999999999,-0.56,0.28,0.0,3.28,3.31,3.28,3.28,3.27,3.28,3.27,3.27,3.3,3.3,3.3,3.29,3.27,3.27,3.27,3.29,3.28,3.28,3.28,3.27,3.3,3.31,3.3,3.29,3.31,3.26,78.7,-45.0,1.0,2.0,0.0,0.0,7945131,3159.0,0.0
1765226450174,0.0,0.0,0.0,0.0,0.0,0.0,34.87576615714286,0.0,34.87576615714286,32.325496457142854,-0.017811999999999998,0.00488,0.9928359999999999,-0.56,0.28,0.0,3.28,3.31,3.28,3.28,3.28,3.28,3.28,3.28,3.3,3.3,3.3,3.29,3.27,3.27,3.27,3.29,3.28,3.28,3.28,3.27,3.3,3.31,3.3,3.29,3.31,3.26,78.7,-45.0,1.0,2.0,0.0,0.0,7945148,3159.0,0.0
1765226450194,0.0,0.0,0.0,0.0,0.0,0.0,34.87576615714286,0.0,34.87576615714286,32.325496457142854,-0.017811999999999998,0.00488,0.9928359999999999,-0.56,0.28,0.0,3.28,3.31,3.28,3.28,3.28,3.28,3.28,3.28,3.31,3.31,3.31,3.3,3.27,3.27,3.27,3.29,3.28,3.28,3.28,3.27,3.3,3.31,3.3,3.29,3.31,3.26,78.7,-45.0,1.0,2.0,0.0,0.0,7945168,3159.0,0.0
1765226450208,0.0,0.0,0.0,0.0,0.0,0.0,34.87576615714286,0.0,34.87576615714286,32.325496457142854,-0.017811999999999998,0.00488,0.9928359999999999,-0.56,0.28,0.0,3.28,3.31,3.28,3.28,3.28,3.28,3.28,3.28,3.31,3.31,3.31,3.3,3.28,3.28,3.28,3.29,3.28,3.28,3.28,3.27,3.3,3.31,3.3,3.29,3.31,3.26,78.7,-45.0,1.0,2.0,0.0,0.0,7945182,3159.0,0.0
1765226450226,0.0,0.0,0.0,0.0,0.0,0.0,34.87576615714286,0.0,34.87576615714286,32.325496457142854,-0.017811999999999998,0.00488,0.9928359999999999,-0.56,0.28,0.0,3.28,3.31,3.28,3.28,3.28,3.28,3.28,3.28,3.31,3.31,3.31,3.3,3.28,3.28,3.28,3.29,3.28,3.29,3.29,3.28,3.31,3.31,3.31,3.3,3.31,3.26,78.7,-45.0,1.0,2.0,0.0,0.0,7945200,3159.0,0.0
1765226450240,0.0,0.0,0.0,0.0,0.0,0.0,34.87576615714286,0.0,34.87576615714286,32.325496457142854,-0.017811999999999998,0.00488,0.9928359999999999,-0.56,0.28,-0.07,3.28,3.31,3.28,3.28,3.28,3.28,3.28,3.28,3.31,3.31,3.31,3.3,3.28,3.28,3.28,3.29,3.28,3.29,3.29,3.28,3.31,3.31,3.31,3.3,3.31,3.26,78.7,-45.0,1.0,2.0,0.0,0.0,7945214,3159.0,0.0
1765226450275,0.0,0.0,2.0,20.0,0.0,0.0,34.87576615714286,0.0,34.87576615714286,32.325496457142854,-0.017811999999999998,0.00488,0.9928359999999999,-0.56,0.28,-0.07,3.28,3.31,3.28,3.28,3.28,3.28,3.28,3.28,3.31,3.31,3.31,3.3,3.28,3.28,3.28,3.29,3.28,3.29,3.29,3.28,3.31,3.31,3.31,3.3,3.31,3.26,78.7,-45.0,1.0,2.0,0.0,0.0,7945249,3159.0,0.0
1765226450293,0.0,0.0,2.0,20.0,0.0,0.0,34.87576615714286,0.0,34.87576615714286,32.325496457142854,-0.017811999999999998,0.00488,0.9928359999999999,-0.56,0.28,-0.07,3.28,3.31,3.28,3.28,3.28,3.28,3.28,3.28,3.31,3.31,3.31,3.3,3.28,3.28,3.28,3.29,3.28,3.29,3.29,3.28,3.31,3.31,3.31,3.3,3.31,3.26,78.7,-45.0,1.0,2.0,0.0,0.0,7945267,3159.0,0.0
1765226450307,0.0,0.0,2.0,20.0,0.0,0.0,34.87576615714286,0.0,0.0,0.0,-0.017811999999999998,0.00488,0.9928359999999999,-0.56,0.28,-0.07,3.28,3.31,3.28,3.28,3.28,3.28,3.28,3.28,3.31,3.31,3.31,3.3,3.28,3.28,3.28,3.29,3.28,3.29,3.29,3.28,3.31,3.31,3.31,3.3,3.31,3.26,78.7,-45.0,1.0,2.0,0.0,0.0,7945281,3159.0,0.0
1765226450342,0.0,0.0,2.0,20.0,0.0,0.0,0.0,0.0,0.0,0.0,-0.017811999999999998,0.00488,0.9928359999999999,-0.56,0.28,-0.07,3.28,3.31,3.28,3.28,3.28,3.28,3.28,3.28,3.31,3.31,3.31,3.3,3.28,3.28,3.28,3.29,3.28,3.29,3.29,3.28,3.31,3.31,3.31,3.3,3.31,3.26,78.7,-45.0,1.0,2.0,0.0,0.0,7945316,0.0,0.0
1765226450408,0.0,0.0,2.0,20.0,0.0,0.0,0.0,0.0,0.0,0.0,-0.017811999999999998,0.00488,0.9928359999999999,-0.56,0.28,-0.07,3.28,3.31,3.28,3.28,3.28,3.28,3.28,3.28,3.31,3.31,3.31,3.3,3.28,3.28,3.28,3.29,3.28,3.29,3.29,3.28,3.31,3.31,3.31,3.3,3.31,3.26,78.7,-45.0,1.0,2.0,0.0,0.0,7945382,0.0,0.0
1765226450473,0.0,0.0,2.0,20.0,0.0,0.0,0.0,0.0,0.0,0.0,-0.025254,-0.004148,0.985394,-0.7000000000000001,0.35000000000000003,-0.14,3.28,3.31,3.28,3.28,3.28,3.28,3.28,3.28,3.31,3.31,3.31,3.3,3.28,3.28,3.28,3.29,3.28,3.29,3.29,3.28,3.31,3.31,3.31,3.3,3.31,3.26,78.7,-45.0,1.0,2.0,0.0,0.0,7945447,0.0,0.0
1765226450540,0.0,0.0,2.0,20.0,0.0,0.0,0.0,0.0,0.0,0.0,-0.025254,-0.004148,0.985394,-0.7000000000000001,0.35000000000000003,-0.14,3.28,3.31,3.28,3.28,3.28,3.28,3.28,3.28,3.31,3.31,3.31,3.3,3.28,3.28,3.28,3.29,3.28,3.29,3.29,3.28,3.31,3.31,3.31,3.3,3.31,3.26,78.7,-45.0,1.0,2.0,0.0,0.0,7945514,0.0,0.0
1765226450609,0.0,0.0,2.0,20.0,0.0,0.0,0.0,0.0,0.0,0.0,-0.015127999999999999,0.0,0.993812,-0.7000000000000001,0.35000000000000003,-0.14,3.28,3.31,3.28,3.28,3.28,3.28,3.28,3.28,3.31,3.31,3.31,3.3,3.28,3.28,3.28,3.29,3.28,3.29,3.29,3.28,3.31,3.31,3.31,3.3,3.31,3.26,78.7,-45.0,1.0,2.0,0.0,0.0,7945583,0.0,0.0
1765226450625,0.0,0.0,2.0,20.0,0.0,0.0,0.0,0.0,0.0,0.0,-0.015127999999999999,0.0,0.993812,-0.6300000000000001,0.49000000000000005,-0.07,3.28,3.31,3.28,3.28,3.28,3.28,3.28,3.28,3.31,3.31,3.31,3.3,3.28,3.28,3.28,3.29,3.28,3.29,3.29,3.28,3.31,3.31,3.31,3.3,3.31,3.26,78.7,-45.0,1.0,2.0,0.0,0.0,7945599,0.0,0.0
1765226450676,0.0,0.0,2.0,20.0,0.0,0.0,0.0,0.0,0.0,0.0,-0.015127999999999999,0.0,0.993812,-0.6300000000000001,0.49000000000000005,-0.07,3.28,3.31,3.28,3.28,3.28,3.28,3.28,3.28,3.31,3.31,3.31,3.3,3.28,3.28,3.28,3.29,3.28,3.29,3.29,3.28,3.31,3.31,3.31,3.3,3.31,3.26,78.7,-45.0,1.0,2.0,0.0,0.0,7945650,0.0,0.0
1765226450709,0.0,0.0,2.0,20.0,0.0,0.0,0.0,0.0,0.0,0.0,-0.015127999999999999,0.0,0.993812,-0.6300000000000001,0.49000000000000005,-0.07,3.28,3.31,3.28,3.28,3.28,3.28,3.28,3.28,3.31,3.31,3.31,3.3,3.28,3.28,3.28,3.29,3.28,3.29,3.29,3.28,3.31,3.31,3.31,3.3,3.31,3.26,78.7,-45.0,1.0,2.0,0.0,0.0,7945683,0.0,0.0
1765226450725,0.0,0.0,2.0,20.0,0.0,0.0,0.0,0.0,0.0,0.0,-0.015127999999999999,0.0,0.993812,-0.6300000000000001,0.49000000000000005,-0.07,3.28,3.31,3.28,3.28,3.28,3.28,3.28,3.28,3.31,3.31,3.31,3.3,3.28,3.28,3.28,3.29,3.28,3.29,3.29,3.28,3.31,3.31,3.31,3.3,3.31,3.26,78.7,-45.0,1.0,2.0,0.0,0.0,7945699,0.0,0.0
1765226450742,0.0,0.0,2.0,20.0,0.0,0.0,0.0,0.0,0.0,0.0,-0.015127999999999999,0.0,0.993812,-0.6300000000000001,0.49000000000000005,-0.07,3.28,3.31,3.28,3.28,3.28,3.28,3.28,3.28,3.31,3.31,3.31,3.3,3.28,3.28,3.28,3.29,3.28,3.29,3.29,3.28,3.31,3.31,3.31,3.3,3.31,3.26,78.7,-45.0,1.0,2.0,0.0,0.0,7945716,0.0,0.0
1765226450758,0.0,0.0,2.0,20.0,0.0,0.0,0.0,0.0,0.0,0.0,-0.020496,-0.000366,0.997838,-0.6300000000000001,0.49000000000000005,-0.07,3.28,3.31,3.28,3.28,3.28,3.28,3.28,3.28,3.31,3.31,3.31,3.3,3.28,3.28,3.28,3.29,3.28,3.29,3.29,3.28,3.31,3.31,3.31,3.3,3.31,3.26,78.7,-45.0,1.0,2.0,0.0,0.0,7945732,0.0,0.0
1765226450807,0.0,0.0,2.0,20.0,0.0,0.0,0.0,0.0,0.0,0.0,-0.020496,-0.000366,0.997838,-0.6300000000000001,0.42000000000000004,-0.07,3.28,3.31,3.28,3.28,3.28,3.28,3.28,3.28,3.31,3.31,3.31,3.3,3.28,3.28,3.28,3.29,3.28,3.29,3.29,3.28,3.31,3.31,3.31,3.3,3.31,3.26,78.7,-45.0,1.0,2.0,0.0,0.0,7945781,0.0,0.0
1765226450825,0.0,0.0,2.0,20.0,0.0,0.0,0.0,0.0,0.0,0.0,-0.020496,-0.000366,0.997838,-0.6300000000000001,0.42000000000000004,-0.07,3.28,3.31,3.28,3.28,3.28,3.28,3.28,3.28,3.31,3.31,3.31,3.3,3.28,3.28,3.28,3.29,3.28,3.29,3.29,3.28,3.31,3.31,3.31,3.3,3.31,3.26,78.7,-45.0,1.0,2.0,0.0,0.0,7945799,0.0,0.0
1765226450907,0.0,0.0,2.0,20.0,0.0,0.0,0.0,0.0,0.0,0.0,-0.02135,0.0030499999999999998,0.989298,-0.6300000000000001,0.42000000000000004,-0.07,3.28,3.31,3.28,3.28,3.28,3.28,3.28,3.28,3.31,3.31,3.31,3.3,3.28,3.28,3.28,3.29,3.28,3.29,3.29,3.28,3.31,3.31,3.31,3.3,3.31,3.26,78.7,-45.0,1.0,2.0,0.0,0.0,7945881,0.0,0.0
1765226450926,0.0,0.0,2.0,20.0,0.0,0.0,0.0,0.0,0.0,0.0,-0.02135,0.0030499999999999998,0.989298,-0.56,0.49000000000000005,0.0,3.28,3.31,3.28,3.28,3.28,3.28,3.28,3.28,3.31,3.31,3.31,3.3,3.28,3.28,3.28,3.29,3.28,3.29,3.29,3.28,3.31,3.31,3.31,3.3,3.31,3.26,78.7,-45.0,1.0,2.0,0.0,0.0,7945900,0.0,0.0
1765226450973,0.0,0.0,2.0,20.0,0.0,0.0,0.0,0.0,0.0,0.0,-0.02135,0.0030499999999999998,0.989298,-0.56,0.49000000000000005,0.0,3.28,3.31,3.28,3.28,3.28,3.28,3.28,3.28,3.31,3.31,3.31,3.3,3.28,3.28,3.28,3.29,3.28,3.29,3.29,3.28,3.31,3.31,3.31,3.3,3.31,3.26,78.7,-45.0,1.0,2.0,0.0,0.0,7945947,0.0,0.0
1765226451008,0.0,0.0,2.0,20.0,0.0,0.0,0.0,0.0,0.0,0.0,-0.02135,0.0030499999999999998,0.989298,-0.56,0.49000000000000005,0.0,3.28,3.31,3.28,3.28,3.28,3.28,3.28,3.28,3.31,3.31,3.31,3.3,3.28,3.28,3.28,3.29,3.28,3.29,3.29,3.28,3.31,3.31,3.31,3.3,3.31,3.27,79.0,-1.0,1.0,2.0,0.0,0.0,7945982,0.0,0.0
1765226451023,0.0,0.0,2.0,20.0,0.0,0.0,0.0,0.0,0.0,0.0,-0.02135,0.0030499999999999998,0.989298,-0.56,0.49000000000000005,0.0,3.28,3.31,3.28,3.28,3.28,3.28,3.28,3.28,3.31,3.31,3.31,3.3,3.28,3.28,3.28,3.29,3.28,3.29,3.29,3.28,3.31,3.31,3.31,3.3,3.31,3.27,79.0,-1.0,1.0,2.0,0.0,0.0,7945997,0.0,0.0
1765226451041,0.0,0.0,2.0,20.0,0.0,0.0,0.0,0.0,0.0,0.0,-0.02135,0.0030499999999999998,0.989298,-0.56,0.49000000000000005,0.0,3.28,3.31,3.28,3.28,3.28,3.28,3.28,3.28,3.31,3.31,3.31,3.3,3.28,3.28,3.28,3.29,3.28,3.29,3.29,3.28,3.31,3.31,3.31,3.3,3.31,3.27,79.0,-1.0,1.0,2.0,0.0,0.0,7946015,0.0,0.0
1765226451075,0.0,0.0,2.0,20.0,0.0,0.0,0.0,0.0,0.0,0.0,-0.02135,0.0030499999999999998,0.989298,-0.56,0.49000000000000005,0.0,3.28,3.31,3.28,3.28,3.28,3.28,3.28,3.28,3.31,3.31,3.31,3.3,3.28,3.28,3.28,3.29,3.28,3.29,3.29,3.28,3.31,3.31,3.31,3.3,3.31,3.27,79.0,-1.0,1.0,2.0,0.0,0.0,7946049,0.0,0.0
1765226451107,0.0,0.0,2.0,20.0,0.0,0.0,0.0,0.0,0.0,0.0,-0.02135,0.0030499999999999998,0.989298,-0.56,0.49000000000000005,0.0,3.28,3.31,3.28,3.28,3.28,3.28,3.28,3.28,3.31,3.31,3.31,3.3,3.28,3.28,3.28,3.29,3.28,3.29,3.29,3.28,3.31,3.31,3.31,3.3,3.31,3.27,79.0,-1.0,1.0,2.0,0.0,0.0,7946081,0.0,0.0
1765226451156,0.0,0.0,2.0,20.0,0.0,0.0,0.0,0.0,0.0,0.0,-0.02135,0.0030499999999999998,0.989298,-0.56,0.49000000000000005,0.0,3.28,3.31,3.28,3.28,3.28,3.28,3.28,3.28,3.31,3.31,3.31,3.3,3.28,3.28,3.28,3.29,3.28,3.29,3.29,3.28,3.31,3.31,3.31,3.3,3.31,3.27,79.0,-1.0,1.0,2.0,0.0,0.0,7946130,0.0,0.0
1765226451208,0.0,0.0,2.0,20.0,0.0,0.0,0.0,0.0,0.0,0.0,-0.02135,0.0030499999999999998,0.989298,-0.56,0.49000000000000005,0.0,3.28,3.31,3.28,3.28,3.28,3.28,3.28,3.28,3.31,3.31,3.31,3.3,3.28,3.28,3.28,3.29,3.28,3.29,3.29,3.28,3.31,3.31,3.31,3.3,3.31,3.28,79.0,-1.0,1.0,2.0,0.0,0.0,7946182,0.0,0.0
1765226451240,0.0,0.0,2.0,20.0,0.0,0.0,0.0,0.0,0.0,0.0,-0.02135,0.0030499999999999998,0.989298,-0.56,0.49000000000000005,0.0,3.28,3.31,3.28,3.28,3.28,3.28,3.28,3.28,3.31,3.31,3.31,3.3,3.28,3.28,3.28,3.29,3.28,3.29,3.29,3.28,3.31,3.31,3.31,3.3,3.31,3.28,79.0,-1.0,1.0,2.0,0.0,0.0,7946214,0.0,0.0
1765226451309,0.0,0.0,2.0,20.0,0.0,0.0,0.0,0.0,0.0,0.0,-0.021716,0.00122,0.992592,-0.56,0.49000000000000005,0.0,3.28,3.31,3.28,3.28,3.28,3.28,3.28,3.28,3.31,3.31,3.31,3.3,3.28,3.28,3.28,3.29,3.28,3.29,3.29,3.28,3.31,3.31,3.31,3.3,3.31,3.28,79.0,-1.0,1.0,2.0,0.0,0.0,7946283,0.0,0.0
1765226451323,0.0,0.0,2.0,20.0,0.0,0.0,0.0,0.0,0.0,0.0,-0.021716,0.00122,0.992592,-0.6300000000000001,0.35000000000000003,-0.14,3.28,3.31,3.28,3.28,3.28,3.28,3.28,3.28,3.31,3.31,3.31,3.3,3.28,3.28,3.28,3.29,3.28,3.29,3.29,3.28,3.31,3.31,3.31,3.3,3.31,3.28,79.0,-1.0,1.0,2.0,0.0,0.0,7946297,0.0,0.0
1765226451390,0.0,0.0,2.0,20.0,0.0,0.0,0.0,0.0,0.0,0.0,-0.022082,-0.000366,0.992104,-0.6300000000000001,0.35000000000000003,-0.14,3.28,3.31,3.28,3.28,3.28,3.28,3.28,3.28,3.31,3.31,3.31,3.3,3.28,3.28,3.28,3.29,3.28,3.29,3.29,3.28,3.31,3.31,3.31,3.3,3.31,3.28,79.0,-1.0,1.0,2.0,0.0,0.0,7946364,0.0,0.0
1765226451406,0.0,0.0,2.0,20.0,0.0,0.0,0.0,0.0,0.0,0.0,-0.022082,-0.000366,0.992104,-0.6300000000000001,0.35000000000000003,-0.14,3.28,3.31,3.28,3.28,3.28,3.28,3.28,3.28,3.31,3.31,3.31,3.3,3.28,3.28,3.28,3.29,3.28,3.29,3.29,3.28,3.31,3.31,3.31,3.3,3.31,3.28,79.0,-1.0,1.0,2.0,0.0,0.0,7946380,0.0,0.0
1765226451425,0.0,0.0,2.0,20.0,0.0,0.0,0.0,0.0,0.0,0.0,-0.022082,-0.000366,0.992104,-0.6300000000000001,0.35000000000000003,-0.14,3.28,3.31,3.28,3.28,3.28,3.28,3.28,3.28,3.31,3.31,3.31,3.3,3.28,3.28,3.28,3.29,3.28,3.29,3.29,3.28,3.31,3.31,3.31,3.3,3.31,3.28,79.0,-1.0,1.0,2.0,0.0,0.0,7946399,0.0,0.0
1765226451456,0.0,0.0,2.0,20.0,0.0,0.0,0.0,0.0,0.0,0.0,-0.022082,-0.000366,0.992104,-0.77,0.35000000000000003,0.07,3.28,3.31,3.28,3.28,3.28,3.28,3.28,3.28,3.31,3.31,3.31,3.3,3.28,3.28,3.28,3.29,3.28,3.29,3.29,3.28,3.31,3.31,3.31,3.3,3.31,3.28,79.0,-1.0,1.0,2.0,0.0,0.0,7946430,0.0,0.0
1765226451473,0.0,0.0,2.0,20.0,0.0,0.0,0.0,0.0,0.0,0.0,-0.022082,-0.000366,0.992104,-0.77,0.35000000000000003,0.07,3.28,3.31,3.28,3.28,3.28,3.28,3.28,3.28,3.31,3.31,3.31,3.3,3.28,3.28,3.28,3.29,3.28,3.29,3.29,3.28,3.31,3.31,3.31,3.3,3.31,3.28,79.0,-1.0,1.0,2.0,0.0,0.0,7946447,0.0,0.0
1765226451543,0.0,0.0,2.0,20.0,0.0,0.0,0.0,0.0,0.0,0.0,-0.022082,-0.000366,0.992104,-0.77,0.35000000000000003,0.07,3.28,3.31,3.28,3.28,3.28,3.28,3.28,3.28,3.31,3.31,3.31,3.3,3.28,3.28,3.28,3.29,3.28,3.29,3.29,3.28,3.31,3.31,3.31,3.3,3.31,3.28,79.0,-1.0,1.0,2.0,0.0,0.0,7946517,0.0,0.0
1765226451607,0.0,0.0,2.0,20.0,0.0,0.0,0.0,0.0,0.0,0.0,-0.021471999999999998,0.0023179999999999997,0.993812,-0.77,0.35000000000000003,0.07,3.28,3.31,3.28,3.28,3.28,3.28,3.28,3.28,3.31,3.31,3.31,3.3,3.28,3.28,3.28,3.29,3.28,3.29,3.29,3.28,3.31,3.31,3.31,3.3,3.31,3.28,79.0,-1.0,1.0,2.0,0.0,0.0,7946581,0.0,0.0
1765226451624,0.0,0.0,2.0,20.0,0.0,0.0,0.0,0.0,0.0,0.0,-0.021471999999999998,0.0023179999999999997,0.993812,-0.7000000000000001,0.28,0.0,3.28,3.31,3.28,3.28,3.28,3.28,3.28,3.28,3.31,3.31,3.31,3.3,3.28,3.28,3.28,3.29,3.28,3.29,3.29,3.28,3.31,3.31,3.31,3.3,3.31,3.28,79.0,-1.0,1.0,2.0,0.0,0.0,7946598,0.0,0.0
1765226451673,0.0,0.0,2.0,20.0,0.0,0.0,0.0,0.0,0.0,0.0,-0.021471999999999998,0.0023179999999999997,0.993812,-0.7000000000000001,0.28,0.0,3.28,3.31,3.28,3.28,3.28,3.28,3.28,3.28,3.31,3.31,3.31,3.3,3.28,3.28,3.28,3.29,3.28,3.29,3.29,3.28,3.31,3.31,3.31,3.3,3.31,3.28,79.0,-1.0,1.0,2.0,0.0,0.0,7946647,0.0,0.0
1765226451690,0.0,0.0,2.0,20.0,0.0,0.0,0.0,0.0,0.0,0.0,-0.021471999999999998,0.0023179999999999997,0.993812,-0.7000000000000001,0.28,0.0,3.28,3.31,3.28,3.28,3.28,3.28,3.28,3.28,3.31,3.31,3.31,3.3,3.28,3.28,3.28,3.29,3.28,3.29,3.29,3.28,3.31,3.31,3.31,3.3,3.31,3.28,79.0,-1.0,1.0,2.0,0.0,0.0,7946664,0.0,0.0
1765226451707,0.0,0.0,2.0,20.0,0.0,0.0,0.0,0.0,0.0,0.0,-0.021471999999999998,0.0023179999999999997,0.993812,-0.7000000000000001,0.28,0.0,3.28,3.31,3.28,3.28,3.28,3.28,3.28,3.28,3.31,3.31,3.31,3.3,3.28,3.28,3.28,3.29,3.28,3.29,3.29,3.28,3.31,3.31,3.31,3.3,3.31,3.28,79.0,-1.0,1.0,2.0,0.0,0.0,7946681,0.0,0.0
1765226451708,0.0,0.0,2.0,20.0,0.0,0.0,0.0,0.0,0.0,0.0,-0.021471999999999998,0.0023179999999999997,0.993812,-0.7000000000000001,0.28,0.0,3.28,3.31,3.28,3.27,3.28,3.28,3.28,3.28,3.31,3.31,3.31,3.3,3.28,3.28,3.28,3.29,3.28,3.29,3.29,3.28,3.31,3.31,3.31,3.3,3.31,3.28,79.0,-1.0,1.0,2.0,0.0,0.0,7946682,0.0,0.0
1765226451725,0.0,0.0,2.0,20.0,0.0,0.0,0.0,0.0,0.0,0.0,-0.021471999999999998,0.0023179999999999997,0.993812,-0.7000000000000001,0.28,0.0,3.28,3.31,3.28,3.27,3.28,3.28,3.28,3.28,3.31,3.31,3.31,3.3,3.28,3.28,3.28,3.29,3.28,3.29,3.29,3.28,3.31,3.31,3.31,3.3,3.31,3.28,79.0,-1.0,1.0,2.0,0.0,0.0,7946699,0.0,0.0
1765226451742,0.0,0.0,2.0,20.0,0.0,0.0,0.0,0.0,0.0,0.0,-0.021471999999999998,0.0023179999999999997,0.993812,-0.7000000000000001,0.28,0.0,3.28,3.31,3.28,3.27,3.28,3.28,3.28,3.28,3.31,3.31,3.31,3.3,3.28,3.28,3.28,3.29,3.28,3.29,3.29,3.28,3.31,3.31,3.31,3.3,3.31,3.28,79.0,-1.0,1.0,2.0,0.0,0.0,7946716,0.0,0.0
1765226451759,0.0,0.0,2.0,20.0,0.0,0.0,0.0,0.0,0.0,0.0,-0.021471999999999998,0.0023179999999999997,0.993812,-0.7000000000000001,0.28,0.0,3.28,3.31,3.28,3.27,3.28,3.28,3.28,3.28,3.31,3.31,3.31,3.3,3.28,3.28,3.28,3.29,3.28,3.29,3.29,3.28,3.31,3.31,3.31,3.3,3.31,3.28,79.0,-1.0,1.0,2.0,0.0,0.0,7946733,0.0,0.0
1765226451806,0.0,0.0,2.0,20.0,0.0,0.0,0.0,0.0,0.0,0.0,-0.021471999999999998,0.0023179999999999997,0.993812,-0.7000000000000001,0.28,0.0,3.28,3.31,3.28,3.27,3.28,3.28,3.28,3.28,3.31,3.31,3.31,3.3,3.28,3.28,3.28,3.29,3.28,3.29,3.29,3.28,3.31,3.31,3.31,3.3,3.31,3.28,79.0,-1.0,1.0,2.0,0.0,0.0,7946780,0.0,0.0
1765226451841,0.0,0.0,2.0,20.0,0.0,0.0,0.0,0.0,0.0,0.0,-0.021471999999999998,0.0023179999999999997,0.993812,-0.7000000000000001,0.28,0.0,3.28,3.31,3.28,3.27,3.28,3.28,3.28,3.28,3.31,3.31,3.31,3.3,3.28,3.28,3.28,3.29,3.28,3.29,3.29,3.28,3.31,3.31,3.31,3.3,3.31,3.28,79.0,-1.0,1.0,2.0,0.0,0.0,7946815,0.0,0.0
1765226451876,0.0,0.0,2.0,20.0,0.0,0.0,0.0,0.0,0.0,0.0,-0.021471999999999998,0.0023179999999999997,0.993812,-0.7000000000000001,0.28,0.0,3.28,3.31,3.28,3.27,3.28,3.28,3.28,3.28,3.31,3.31,3.31,3.3,3.28,3.28,3.28,3.29,3.28,3.29,3.29,3.28,3.31,3.31,3.31,3.3,3.31,3.28,79.0,-1.0,1.0,2.0,0.0,0.0,7946850,0.0,0.0
1765226451906,0.0,0.0,2.0,20.0,0.0,0.0,0.0,0.0,0.0,0.0,-0.021471999999999998,0.0023179999999999997,0.993812,-0.7000000000000001,0.28,0.0,3.28,3.31,3.28,3.28,3.28,3.28,3.28,3.28,3.31,3.31,3.31,3.3,3.28,3.28,3.28,3.29,3.28,3.29,3.29,3.28,3.31,3.31,3.31,3.3,3.31,3.28,79.0,-1.0,1.0,2.0,0.0,0.0,7946880,0.0,0.0
1765226451925,0.0,0.0,2.0,20.0,0.0,0.0,0.0,0.0,0.0,0.0,-0.021471999999999998,0.0023179999999999997,0.993812,-0.7000000000000001,0.28,0.0,3.28,3.31,3.28,3.28,3.28,3.28,3.28,3.28,3.31,3.31,3.31,3.3,3.28,3.28,3.28,3.29,3.28,3.29,3.29,3.28,3.31,3.31,3.31,3.3,3.31,3.28,79.0,-1.0,1.0,2.0,0.0,0.0,7946899,0.0,0.0
1765226451940,0.0,0.0,2.0,20.0,0.0,0.0,0.0,0.0,0.0,0.0,-0.021471999999999998,0.0023179999999999997,0.993812,-0.7000000000000001,0.28,0.0,3.28,3.31,3.28,3.28,3.28,3.28,3.28,3.28,3.31,3.31,3.31,3.3,3.28,3.28,3.28,3.29,3.28,3.29,3.29,3.28,3.31,3.31,3.31,3.3,3.31,3.28,79.0,-1.0,1.0,2.0,0.0,0.0,7946914,0.0,0.0
1765226451956,0.0,0.0,2.0,20.0,0.0,0.0,0.0,0.0,0.0,0.0,-0.021471999999999998,0.0023179999999999997,0.993812,-0.7000000000000001,0.28,0.0,3.28,3.31,3.28,3.28,3.28,3.28,3.28,3.28,3.31,3.31,3.31,3.3,3.28,3.28,3.28,3.29,3.28,3.29,3.29,3.28,3.31,3.31,3.31,3.3,3.31,3.28,79.0,-1.0,1.0,2.0,0.0,0.0,7946930,0.0,0.0
1765226451973,0.0,0.0,2.0,20.0,0.0,0.0,0.0,0.0,0.0,0.0,-0.021471999999999998,0.0023179999999999997,0.993812,-0.7000000000000001,0.28,0.0,3.28,3.31,3.28,3.28,3.28,3.28,3.28,3.28,3.31,3.31,3.31,3.3,3.28,3.28,3.28,3.29,3.28,3.29,3.29,3.28,3.31,3.31,3.31,3.3,3.31,3.28,79.0,-1.0,1.0,2.0,0.0,0.0,7946947,0.0,0.0
1765226452007,0.0,0.0,2.0,20.0,0.0,0.0,0.0,0.0,0.0,0.0,-0.021471999999999998,0.0023179999999999997,0.993812,-0.7000000000000001,0.28,0.0,3.28,3.31,3.28,3.28,3.28,3.28,3.28,3.28,3.31,3.31,3.31,3.3,3.28,3.28,3.28,3.29,3.28,3.29,3.29,3.28,3.31,3.31,3.31,3.3,3.31,3.28,79.0,-1.0,1.0,2.0,0.0,0.0,7946981,0.0,0.0
1765226452024,0.0,0.0,2.0,20.0,0.0,0.0,0.0,0.0,0.0,0.0,-0.021471999999999998,0.0023179999999999997,0.993812,-0.7000000000000001,0.28,0.0,3.28,3.31,3.28,3.28,3.28,3.28,3.28,3.28,3.31,3.31,3.31,3.3,3.28,3.28,3.28,3.29,3.28,3.29,3.29,3.28,3.31,3.31,3.31,3.3,3.31,3.28,79.0,-1.0,1.0,2.0,0.0,0.0,7946998,0.0,0.0
1765226452059,0.0,0.0,2.0,20.0,0.0,0.0,0.0,0.0,0.0,0.0,-0.019275999999999998,0.000122,0.9910059999999999,-0.7000000000000001,0.28,0.0,3.28,3.31,3.28,3.28,3.28,3.28,3.28,3.28,3.31,3.31,3.31,3.3,3.28,3.28,3.28,3.29,3.28,3.29,3.29,3.28,3.31,3.31,3.31,3.3,3.31,3.28,79.0,-1.0,1.0,2.0,0.0,0.0,7947033,0.0,0.0
1765226452075,0.0,0.0,2.0,20.0,0.0,0.0,0.0,0.0,0.0,0.0,-0.019275999999999998,0.000122,0.9910059999999999,-0.56,0.42000000000000004,0.0,3.28,3.31,3.28,3.28,3.28,3.28,3.28,3.28,3.31,3.31,3.31,3.3,3.28,3.28,3.28,3.29,3.28,3.29,3.29,3.28,3.31,3.31,3.31,3.3,3.31,3.28,79.0,-1.0,1.0,2.0,0.0,0.0,7947049,0.0,0.0
1765226452126,0.0,0.0,2.0,20.0,0.0,0.0,0.0,0.0,0.0,0.0,-0.019275999999999998,0.000122,0.9910059999999999,-0.56,0.42000000000000004,0.0,3.28,3.31,3.28,3.28,3.28,3.28,3.28,3.28,3.31,3.31,3.31,3.3,3.28,3.28,3.28,3.29,3.28,3.29,3.29,3.28,3.31,3.31,3.31,3.3,3.31,3.28,79.0,-1.0,1.0,2.0,0.0,0.0,7947100,0.0,0.0
1765226452142,0.0,0.0,2.0,20.0,0.0,0.0,0.0,0.0,0.0,0.0,-0.016836,0.0034159999999999998,0.9943,-0.56,0.42000000000000004,0.0,3.28,3.31,3.28,3.28,3.28,3.28,3.28,3.28,3.31,3.31,3.31,3.3,3.28,3.28,3.28,3.29,3.28,3.29,3.29,3.28,3.31,3.31,3.31,3.3,3.31,3.28,79.0,-1.0,1.0,2.0,0.0,0.0,7947116,0.0,0.0
1765226452159,0.0,0.0,2.0,20.0,0.0,0.0,0.0,0.0,0.0,0.0,-0.016836,0.0034159999999999998,0.9943,-0.56,0.42000000000000004,0.0,3.28,3.31,3.28,3.28,3.28,3.28,3.28,3.28,3.31,3.31,3.31,3.3,3.28,3.28,3.28,3.29,3.28,3.29,3.29,3.28,3.31,3.31,3.31,3.3,3.31,3.28,79.0,-1.0,1.0,2.0,0.0,0.0,7947133,0.0,0.0
1765226452174,0.0,0.0,2.0,20.0,0.0,0.0,0.0,0.0,0.0,0.0,-0.016836,0.0034159999999999998,0.9943,-0.56,0.42000000000000004,0.0,3.28,3.31,3.28,3.28,3.28,3.28,3.28,3.28,3.31,3.31,3.31,3.3,3.28,3.28,3.28,3.29,3.28,3.29,3.29,3.28,3.31,3.31,3.31,3.3,3.31,3.28,79.0,-1.0,1.0,2.0,0.0,0.0,7947148,0.0,0.0
1765226452210,0.0,0.0,2.0,20.0,0.0,0.0,0.0,0.0,0.0,0.0,-0.016836,0.0034159999999999998,0.9943,-0.6300000000000001,0.42000000000000004,-0.14,3.28,3.31,3.28,3.28,3.28,3.28,3.28,3.28,3.31,3.31,3.31,3.3,3.28,3.28,3.28,3.29,3.28,3.29,3.29,3.28,3.31,3.31,3.31,3.3,3.31,3.28,79.0,-1.0,1.0,2.0,0.0,0.0,7947184,0.0,0.0
1765226452273,0.0,0.0,2.0,20.0,0.0,0.0,0.0,0.0,0.0,0.0,-0.016836,0.0034159999999999998,0.9943,-0.6300000000000001,0.42000000000000004,-0.14,3.28,3.31,3.28,3.28,3.28,3.28,3.28,3.28,3.31,3.31,3.31,3.3,3.28,3.28,3.28,3.29,3.28,3.29,3.29,3.28,3.31,3.31,3.31,3.3,3.31,3.28,79.0,-1.0,1.0,2.0,0.0,0.0,7947247,0.0,0.0
1765226452356,0.0,0.0,2.0,20.0,0.0,0.0,0.0,0.0,0.0,0.0,-0.017811999999999998,0.000488,0.993324,-0.6300000000000001,0.42000000000000004,-0.14,3.28,3.31,3.28,3.28,3.28,3.28,3.28,3.28,3.31,3.31,3.31,3.3,3.28,3.28,3.28,3.29,3.28,3.29,3.29,3.28,3.31,3.31,3.31,3.3,3.31,3.28,79.0,-1.0,1.0,2.0,0.0,0.0,7947330,0.0,0.0
1765226452391,0.0,0.0,2.0,20.0,0.0,0.0,0.0,0.0,0.0,0.0,-0.017811999999999998,0.000488,0.993324,-0.6300000000000001,0.42000000000000004,-0.14,3.28,3.31,3.28,3.28,3.28,3.28,3.28,3.28,3.31,3.31,3.31,3.3,3.28,3.28,3.28,3.29,3.28,3.29,3.29,3.28,3.31,3.31,3.31,3.3,3.31,3.28,79.0,-1.0,1.0,2.0,0.0,0.0,7947365,0.0,0.0
1765226452408,0.0,0.0,2.0,20.0,0.0,0.0,0.0,0.0,0.0,0.0,-0.017811999999999998,0.000488,0.993324,-0.6300000000000001,0.42000000000000004,0.0,3.28,3.31,3.28,3.28,3.28,3.28,3.28,3.28,3.31,3.31,3.31,3.3,3.28,3.28,3.28,3.29,3.28,3.29,3.29,3.28,3.31,3.31,3.31,3.3,3.31,3.28,79.0,-1.0,1.0,2.0,0.0,0.0,7947382,0.0,0.0
1765226452507,0.0,0.0,2.0,20.0,0.0,0.0,0.0,0.0,0.0,0.0,-0.02013,0.000122,0.99247,-0.6300000000000001,0.42000000000000004,0.07,3.28,3.31,3.28,3.28,3.28,3.28,3.28,3.28,3.31,3.31,3.31,3.3,3.28,3.28,3.28,3.29,3.28,3.29,3.29,3.28,3.31,3.31,3.31,3.3,3.31,3.28,79.0,-1.0,1.0,2.0,0.0,0.0,7947481,0.0,0.0
1765226452556,0.0,0.0,2.0,20.0,0.0,0.0,0.0,0.0,0.0,0.0,-0.02013,0.000122,0.99247,-0.6300000000000001,0.42000000000000004,0.07,3.28,3.31,3.28,3.28,3.28,3.28,3.28,3.28,3.31,3.31,3.31,3.3,3.28,3.28,3.28,3.29,3.28,3.29,3.29,3.28,3.31,3.31,3.31,3.3,3.31,3.28,79.0,-1.0,1.0,2.0,0.0,0.0,7947530,0.0,0.0
1765226452573,0.0,0.0,2.0,20.0,0.0,0.0,0.0,0.0,0.0,0.0,-0.02013,0.000122,0.99247,-0.6300000000000001,0.42000000000000004,0.07,3.28,3.31,3.28,3.28,3.28,3.28,3.28,3.28,3.31,3.31,3.31,3.3,3.28,3.28,3.28,3.29,3.28,3.29,3.29,3.28,3.31,3.31,3.31,3.3,3.31,3.28,79.0,-1.0,1.0,2.0,0.0,0.0,7947547,0.0,0.0
1765226452589,0.0,0.0,2.0,20.0,0.0,0.0,0.0,0.0,0.0,0.0,-0.02013,0.000122,0.99247,-0.6300000000000001,0.42000000000000004,0.07,3.28,3.31,3.28,3.28,3.28,3.28,3.28,3.28,3.31,3.31,3.31,3.3,3.28,3.28,3.28,3.29,3.28,3.29,3.29,3.28,3.31,3.31,3.31,3.3,3.31,3.28,79.0,-1.0,1.0,2.0,0.0,0.0,7947563,0.0,0.0
1765226452623,0.0,0.0,2.0,20.0,0.0,0.0,0.0,0.0,0.0,0.0,-0.02013,0.000122,0.99247,-0.6300000000000001,0.42000000000000004,0.07,3.28,3.31,3.28,3.28,3.28,3.28,3.28,3.28,3.31,3.31,3.31,3.3,3.28,3.28,3.28,3.29,3.28,3.29,3.29,3.28,3.31,3.31,3.31,3.3,3.31,3.28,79.0,-1.0,1.0,2.0,0.0,0.0,7947597,0.0,0.0
1765226452675,0.0,0.0,2.0,20.0,0.0,0.0,0.0,0.0,0.0,0.0,-0.02013,0.000122,0.99247,-0.6300000000000001,0.42000000000000004,0.07,3.28,3.31,3.28,3.28,3.28,3.28,3.28,3.28,3.31,3.31,3.31,3.3,3.28,3.28,3.28,3.29,3.28,3.29,3.29,3.28,3.31,3.31,3.31,3.3,3.31,3.28,79.0,-1.0,1.0,2.0,0.0,0.0,7947649,0.0,0.0
1765226452708,0.0,0.0,2.0,20.0,0.0,0.0,0.0,0.0,0.0,0.0,-0.020007999999999998,0.002196,0.9928359999999999,-0.6300000000000001,0.42000000000000004,0.07,3.28,3.31,3.28,3.28,3.28,3.28,3.28,3.28,3.31,3.31,3.31,3.3,3.28,3.28,3.28,3.29,3.28,3.29,3.29,3.28,3.31,3.31,3.31,3.3,3.31,3.28,79.0,-1.0,1.0,2.0,0.0,0.0,7947682,0.0,0.0
1765226452761,0.0,0.0,2.0,20.0,0.0,0.0,0.0,0.0,0.0,0.0,-0.020007999999999998,0.002196,0.9928359999999999,-0.6300000000000001,0.28,-0.07,3.28,3.31,3.28,3.28,3.28,3.28,3.28,3.28,3.31,3.31,3.31,3.3,3.28,3.28,3.28,3.29,3.28,3.29,3.29,3.28,3.31,3.31,3.31,3.3,3.31,3.28,79.0,-1.0,1.0,2.0,0.0,0.0,7947735,0.0,0.0
1765226452773,0.0,0.0,2.0,20.0,0.0,0.0,0.0,0.0,0.0,0.0,-0.020007999999999998,0.002196,0.9928359999999999,-0.6300000000000001,0.28,-0.07,3.28,3.31,3.28,3.28,3.28,3.28,3.28,3.28,3.31,3.31,3.31,3.3,3.28,3.28,3.28,3.29,3.28,3.29,3.29,3.28,3.31,3.31,3.31,3.3,3.31,3.27,79.0,-1.0,1.0,2.0,0.0,0.0,7947747,0.0,0.0
1765226452823,0.0,0.0,2.0,20.0,0.0,0.0,0.0,0.0,0.0,0.0,-0.020007999999999998,0.002196,0.9928359999999999,-0.6300000000000001,0.28,-0.07,3.28,3.31,3.28,3.28,3.28,3.28,3.28,3.28,3.31,3.31,3.31,3.3,3.28,3.28,3.28,3.29,3.28,3.29,3.29,3.28,3.31,3.31,3.31,3.3,3.31,3.27,79.0,-1.0,1.0,0.0,1.0,1.0,7947797,0.0,0.0
1765226452840,0.0,0.0,2.0,20.0,0.0,0.0,0.0,0.0,0.0,0.0,-0.019275999999999998,0.00122,0.992348,-0.6300000000000001,0.28,-0.07,3.28,3.31,3.28,3.28,3.28,3.28,3.28,3.28,3.31,3.31,3.31,3.3,3.28,3.28,3.28,3.29,3.28,3.29,3.29,3.28,3.31,3.31,3.31,3.3,3.31,3.27,79.0,-1.0,1.0,0.0,1.0,1.0,7947814,0.0,0.0
1765226452857,0.0,0.0,2.0,20.0,0.0,0.0,0.0,0.0,0.0,0.0,-0.019275999999999998,0.00122,0.992348,-0.6300000000000001,0.28,-0.07,3.28,3.31,3.28,3.28,3.28,3.28,3.28,3.28,3.31,3.31,3.31,3.3,3.28,3.28,3.28,3.29,3.28,3.29,3.29,3.28,3.31,3.31,3.31,3.3,3.31,3.27,79.0,-1.0,1.0,0.0,1.0,1.0,7947831,0.0,0.0
1765226452879,0.0,0.0,2.0,20.0,0.0,0.0,0.0,0.0,0.0,0.0,-0.019275999999999998,0.00122,0.992348,-0.6300000000000001,0.28,-0.07,3.28,3.31,3.28,3.28,3.28,3.28,3.28,3.28,3.31,3.31,3.31,3.3,3.28,3.28,3.28,3.29,3.28,3.29,3.29,3.28,3.31,3.31,3.31,3.3,3.31,3.27,79.0,-1.0,1.0,0.0,1.0,1.0,7947853,0.0,0.0
1765226452889,0.0,0.0,2.0,20.0,0.0,0.0,0.0,0.0,0.0,0.0,-0.019275999999999998,0.00122,0.992348,-0.7000000000000001,0.49000000000000005,-0.07,3.28,3.31,3.28,3.28,3.28,3.28,3.28,3.28,3.31,3.31,3.31,3.3,3.28,3.28,3.28,3.29,3.28,3.29,3.29,3.28,3.31,3.31,3.31,3.3,3.31,3.27,79.0,-1.0,1.0,0.0,1.0,1.0,7947863,0.0,0.0
1765226452907,0.0,0.0,2.0,20.0,0.0,0.0,0.0,0.0,0.0,0.0,-0.019275999999999998,0.00122,0.992348,-0.7000000000000001,0.49000000000000005,-0.07,3.28,3.31,3.28,3.28,3.28,3.28,3.28,3.28,3.31,3.31,3.31,3.3,3.28,3.28,3.28,3.29,3.28,3.29,3.29,3.28,3.31,3.31,3.31,3.3,3.31,3.27,79.0,-1.0,1.0,0.0,1.0,1.0,7947881,0.0,0.0
1765226452925,0.0,0.0,2.0,20.0,0.0,0.0,0.0,0.0,0.0,0.0,-0.019275999999999998,0.00122,0.992348,-0.7000000000000001,0.49000000000000005,-0.07,3.28,3.31,3.28,3.28,3.28,3.28,3.28,3.28,3.31,3.31,3.31,3.3,3.28,3.28,3.28,3.29,3.28,3.29,3.29,3.28,3.31,3.31,3.31,3.3,3.31,3.27,79.0,-1.0,1.0,0.0,1.0,1.0,7947899,0.0,0.0
1765226452957,0.0,0.0,2.0,20.0,0.0,0.0,0.0,0.0,0.0,0.0,-0.019275999999999998,0.00122,0.992348,-0.7000000000000001,0.49000000000000005,-0.07,3.28,3.31,3.28,3.28,3.28,3.28,3.28,3.28,3.31,3.31,3.31,3.3,3.28,3.28,3.28,3.29,3.28,3.29,3.29,3.28,3.31,3.31,3.31,3.3,3.31,3.27,79.0,-1.0,1.0,0.0,1.0,1.0,7947931,0.0,0.0
1765226452992,0.0,0.0,2.0,20.0,0.0,0.0,0.0,0.0,0.0,0.0,-0.019275999999999998,0.00122,0.992348,-0.7000000000000001,0.49000000000000005,-0.07,3.28,3.31,3.28,3.28,3.28,3.28,3.28,3.28,3.31,3.31,3.31,3.3,3.28,3.28,3.28,3.29,3.28,3.29,3.29,3.28,3.31,3.31,3.31,3.3,3.31,3.27,79.0,-1.0,1.0,0.0,1.0,1.0,7947966,0.0,0.0
1765226453010,0.0,0.0,2.0,20.0,0.0,0.0,0.0,0.0,0.0,0.0,-0.019275999999999998,0.00122,0.992348,-0.7000000000000001,0.49000000000000005,-0.07,3.28,3.31,3.28,3.28,3.28,3.28,3.28,3.28,3.31,3.31,3.31,3.3,3.28,3.28,3.28,3.29,3.28,3.29,3.29,3.28,3.31,3.31,3.31,3.3,3.31,3.27,79.0,-1.0,1.0,0.0,1.0,1.0,7947984,0.0,0.0
1765226453023,0.0,0.0,2.0,20.0,0.0,0.0,0.0,0.0,0.0,0.0,-0.019275999999999998,0.00122,0.992348,-0.7000000000000001,0.49000000000000005,-0.07,3.28,3.31,3.28,3.28,3.28,3.28,3.28,3.28,3.31,3.31,3.31,3.3,3.28,3.28,3.28,3.29,3.28,3.29,3.29,3.28,3.31,3.31,3.31,3.3,3.31,3.27,79.0,-1.0,1.0,0.0,1.0,1.0,7947997,0.0,0.0
1765226453042,0.0,0.0,2.0,20.0,0.0,0.0,0.0,0.0,0.0,0.0,-0.017568,0.00122,0.993934,-0.7000000000000001,0.49000000000000005,-0.07,3.28,3.31,3.28,3.28,3.28,3.28,3.28,3.28,3.31,3.31,3.31,3.3,3.28,3.28,3.28,3.29,3.28,3.29,3.29,3.28,3.31,3.31,3.31,3.3,3.31,3.27,79.0,-1.0,1.0,0.0,1.0,1.0,7948016,0.0,0.0
1765226453074,0.0,0.0,2.0,20.0,0.0,0.0,0.0,0.0,0.0,0.0,-0.017568,0.00122,0.993934,-0.7000000000000001,0.49000000000000005,-0.07,3.28,3.31,3.28,3.28,3.28,3.28,3.28,3.28,3.31,3.31,3.31,3.3,3.28,3.28,3.28,3.29,3.28,3.29,3.29,3.28,3.31,3.31,3.31,3.3,3.31,3.27,79.0,-1.0,1.0,0.0,1.0,1.0,7948048,0.0,0.0
1765226453092,0.0,0.0,2.0,20.0,0.0,0.0,0.0,0.0,0.0,0.0,-0.017568,0.00122,0.993934,-0.56,0.42000000000000004,0.0,3.28,3.31,3.28,3.28,3.28,3.28,3.28,3.28,3.31,3.31,3.31,3.3,3.28,3.28,3.28,3.29,3.28,3.29,3.29,3.28,3.31,3.31,3.31,3.3,3.31,3.27,79.0,-1.0,1.0,0.0,1.0,1.0,7948066,0.0,0.0
1765226453140,0.0,0.0,2.0,20.0,0.0,0.0,0.0,0.0,0.0,0.0,-0.017568,0.00122,0.993934,-0.56,0.42000000000000004,0.0,3.28,3.31,3.28,3.28,3.28,3.28,3.28,3.28,3.31,3.31,3.31,3.3,3.28,3.28,3.28,3.29,3.28,3.29,3.29,3.28,3.31,3.31,3.31,3.3,3.31,3.27,79.0,-1.0,1.0,0.0,1.0,1.0,7948114,0.0,0.0
1765226453224,0.0,0.0,2.0,20.0,0.0,0.0,0.0,0.0,0.0,0.0,-0.018788,0.0017079999999999999,0.993324,-0.56,0.42000000000000004,0.0,3.28,3.31,3.28,3.28,3.28,3.28,3.28,3.28,3.31,3.31,3.31,3.3,3.28,3.28,3.28,3.29,3.28,3.29,3.29,3.28,3.31,3.31,3.31,3.3,3.31,3.27,79.0,-1.0,1.0,0.0,1.0,1.0,7948198,0.0,0.0
1765226453242,0.0,0.0,2.0,20.0,0.0,0.0,0.0,0.0,0.0,0.0,-0.018788,0.0017079999999999999,0.993324,-0.6300000000000001,0.42000000000000004,0.0,3.28,3.31,3.28,3.28,3.28,3.28,3.28,3.28,3.31,3.31,3.31,3.3,3.28,3.28,3.28,3.29,3.28,3.29,3.29,3.28,3.31,3.31,3.31,3.3,3.31,3.27,79.0,-1.0,1.0,0.0,1.0,1.0,7948216,0.0,0.0
1765226453290,0.0,0.0,2.0,20.0,0.0,0.0,0.0,0.0,0.0,0.0,-0.018788,0.0017079999999999999,0.993324,-0.6300000000000001,0.42000000000000004,0.0,3.28,3.31,3.28,3.28,3.28,3.28,3.28,3.28,3.31,3.31,3.31,3.3,3.28,3.28,3.28,3.29,3.28,3.29,3.29,3.28,3.31,3.31,3.31,3.3,3.31,3.27,79.0,-1.0,1.0,0.0,1.0,1.0,7948264,0.0,0.0
1765226453308,0.0,0.0,2.0,20.0,0.0,0.0,0.0,0.0,0.0,0.0,-0.018788,0.0017079999999999999,0.993324,-0.6300000000000001,0.42000000000000004,0.0,3.28,3.31,3.28,3.28,3.28,3.28,3.28,3.28,3.31,3.31,3.31,3.3,3.28,3.28,3.28,3.29,3.28,3.29,3.29,3.28,3.31,3.31,3.31,3.3,3.31,3.27,79.0,-1.0,1.0,0.0,1.0,1.0,7948282,0.0,0.0
1765226453323,0.0,0.0,2.0,20.0,0.0,0.0,0.0,0.0,0.0,0.0,-0.018788,0.0017079999999999999,0.993324,-0.6300000000000001,0.42000000000000004,0.0,3.28,3.31,3.28,3.28,3.28,3.28,3.28,3.28,3.31,3.31,3.31,3.3,3.28,3.28,3.28,3.29,3.28,3.29,3.29,3.28,3.31,3.31,3.31,3.3,3.31,3.27,79.0,-1.0,1.0,0.0,1.0,1.0,7948297,0.0,0.0
1765226453356,0.0,0.0,2.0,20.0,0.0,0.0,0.0,0.0,0.0,0.0,-0.018788,0.0017079999999999999,0.993324,-0.6300000000000001,0.42000000000000004,0.0,3.28,3.31,3.28,3.28,3.28,3.28,3.28,3.28,3.31,3.31,3.31,3.3,3.28,3.28,3.28,3.29,3.28,3.29,3.29,3.28,3.31,3.31,3.31,3.3,3.31,3.27,79.0,-1.0,1.0,0.0,1.0,1.0,7948330,0.0,0.0
1765226453373,0.0,0.0,2.0,20.0,0.0,0.0,0.0,0.0,0.0,0.0,-0.021716,0.005124,0.993812,-0.6300000000000001,0.42000000000000004,0.0,3.28,3.31,3.28,3.28,3.28,3.28,3.28,3.28,3.31,3.31,3.31,3.3,3.28,3.28,3.28,3.29,3.28,3.29,3.29,3.28,3.31,3.31,3.31,3.3,3.31,3.27,79.0,-1.0,1.0,0.0,1.0,1.0,7948347,0.0,0.0
1765226453409,0.0,0.0,2.0,20.0,0.0,0.0,0.0,0.0,0.0,0.0,-0.021716,0.005124,0.993812,-0.6300000000000001,0.42000000000000004,0.0,3.28,3.31,3.28,3.28,3.28,3.28,3.28,3.28,3.31,3.31,3.31,3.3,3.28,3.28,3.28,3.29,3.28,3.29,3.29,3.28,3.31,3.31,3.31,3.3,3.31,3.27,79.0,-1.0,1.0,0.0,1.0,1.0,7948383,0.0,0.0
1765226453441,0.0,0.0,2.0,20.0,0.0,0.0,0.0,0.0,0.0,0.0,-0.021716,0.005124,0.993812,-0.56,0.42000000000000004,0.0,3.28,3.31,3.28,3.28,3.28,3.28,3.28,3.28,3.31,3.31,3.31,3.3,3.28,3.28,3.28,3.29,3.28,3.29,3.29,3.28,3.31,3.31,3.31,3.3,3.31,3.27,79.0,-1.0,1.0,0.0,1.0,1.0,7948415,0.0,0.0
1765226453506,0.0,0.0,2.0,20.0,0.0,0.0,0.0,0.0,0.0,0.0,-0.021716,0.005124,0.993812,-0.56,0.42000000000000004,0.0,3.28,3.31,3.28,3.27,3.28,3.28,3.28,3.28,3.31,3.31,3.31,3.3,3.28,3.28,3.28,3.29,3.28,3.29,3.29,3.28,3.31,3.31,3.31,3.3,3.31,3.27,79.0,-1.0,1.0,0.0,1.0,1.0,7948480,0.0,0.0
1765226453524,0.0,0.0,2.0,20.0,0.0,0.0,0.0,0.0,0.0,0.0,-0.021716,0.005124,0.993812,-0.56,0.42000000000000004,0.0,3.28,3.31,3.28,3.27,3.28,3.28,3.28,3.28,3.31,3.31,3.31,3.3,3.28,3.28,3.28,3.29,3.28,3.29,3.29,3.28,3.31,3.31,3.31,3.3,3.31,3.27,79.0,-1.0,1.0,0.0,1.0,1.0,7948498,0.0,0.0
1765226453541,0.0,0.0,2.0,20.0,0.0,0.0,0.0,0.0,0.0,0.0,-0.021716,0.005124,0.993812,-0.56,0.42000000000000004,0.0,3.28,3.31,3.28,3.27,3.28,3.28,3.28,3.28,3.31,3.31,3.31,3.3,3.28,3.28,3.28,3.29,3.28,3.29,3.29,3.28,3.31,3.31,3.31,3.3,3.31,3.27,79.0,-1.0,1.0,0.0,1.0,1.0,7948515,0.0,0.0
1765226453557,0.0,0.0,2.0,20.0,0.0,0.0,0.0,0.0,0.0,0.0,-0.021716,0.005124,0.993812,-0.56,0.42000000000000004,0.0,3.28,3.31,3.28,3.27,3.28,3.28,3.28,3.28,3.31,3.31,3.31,3.3,3.28,3.28,3.28,3.29,3.28,3.29,3.29,3.28,3.31,3.31,3.31,3.3,3.31,3.27,79.0,-1.0,1.0,0.0,1.0,1.0,7948531,0.0,0.0
1765226453589,0.0,0.0,2.0,20.0,0.0,0.0,0.0,0.0,0.0,0.0,-0.015616,-0.00061,0.994788,-0.56,0.42000000000000004,0.0,3.28,3.31,3.28,3.27,3.28,3.28,3.28,3.28,3.31,3.31,3.31,3.3,3.28,3.28,3.28,3.29,3.28,3.29,3.29,3.28,3.31,3.31,3.31,3.3,3.31,3.27,79.0,-1.0,1.0,0.0,1.0,1.0,7948563,0.0,0.0
1765226453624,0.0,0.0,2.0,20.0,0.0,0.0,0.0,0.0,0.0,0.0,-0.015616,-0.00061,0.994788,-0.56,0.56,-0.07,3.28,3.31,3.28,3.27,3.28,3.28,3.28,3.28,3.31,3.31,3.31,3.3,3.28,3.28,3.28,3.29,3.28,3.29,3.29,3.28,3.31,3.31,3.31,3.3,3.31,3.27,79.0,-1.0,1.0,0.0,1.0,1.0,7948598,0.0,0.0
1765226453659,0.0,0.0,2.0,20.0,0.0,0.0,0.0,0.0,0.0,0.0,-0.015616,-0.00061,0.994788,-0.56,0.56,-0.07,3.28,3.31,3.28,3.27,3.28,3.28,3.28,3.28,3.31,3.31,3.31,3.3,3.28,3.28,3.28,3.29,3.28,3.29,3.29,3.28,3.31,3.31,3.31,3.3,3.31,3.27,79.0,-1.0,1.0,0.0,1.0,1.0,7948633,0.0,0.0
1765226453676,0.0,0.0,2.0,20.0,0.0,0.0,0.0,0.0,0.0,0.0,-0.015616,-0.00061,0.994788,-0.56,0.56,-0.07,3.28,3.31,3.28,3.27,3.28,3.28,3.28,3.28,3.31,3.31,3.31,3.3,3.28,3.28,3.28,3.29,3.28,3.29,3.29,3.28,3.31,3.31,3.31,3.3,3.31,3.27,79.0,-1.0,1.0,0.0,1.0,1.0,7948650,0.0,0.0
1765226453692,0.0,0.0,2.0,20.0,0.0,0.0,0.0,0.0,0.0,0.0,-0.015616,-0.00061,0.994788,-0.56,0.56,-0.07,3.28,3.31,3.28,3.27,3.28,3.28,3.28,3.28,3.31,3.31,3.31,3.3,3.28,3.28,3.28,3.29,3.28,3.29,3.29,3.28,3.31,3.31,3.31,3.3,3.31,3.27,79.0,-1.0,1.0,0.0,1.0,1.0,7948666,0.0,0.0
1765226453709,0.0,0.0,2.0,20.0,0.0,0.0,0.0,0.0,0.0,0.0,-0.015616,-0.00061,0.994788,-0.56,0.56,-0.07,3.28,3.31,3.28,3.27,3.28,3.28,3.28,3.28,3.31,3.31,3.31,3.3,3.28,3.28,3.28,3.29,3.28,3.29,3.29,3.28,3.31,3.31,3.31,3.3,3.31,3.27,79.0,-1.0,1.0,0.0,1.0,1.0,7948683,0.0,0.0
1765226453723,0.0,0.0,2.0,20.0,0.0,0.0,0.0,0.0,0.0,0.0,-0.015616,-0.00061,0.994788,-0.56,0.56,-0.07,3.28,3.31,3.28,3.27,3.28,3.28,3.28,3.28,3.31,3.31,3.31,3.3,3.28,3.28,3.28,3.29,3.28,3.29,3.29,3.28,3.31,3.31,3.31,3.3,3.31,3.27,79.0,-1.0,1.0,0.0,1.0,1.0,7948697,0.0,0.0
1765226453740,0.0,0.0,2.0,20.0,0.0,0.0,0.0,0.0,0.0,0.0,-0.015616,-0.00061,0.994788,-0.56,0.56,-0.07,3.28,3.31,3.28,3.27,3.28,3.28,3.28,3.28,3.31,3.31,3.31,3.3,3.28,3.28,3.28,3.29,3.28,3.29,3.29,3.28,3.31,3.31,3.31,3.3,3.31,3.27,79.0,-1.0,1.0,0.0,1.0,1.0,7948714,0.0,0.0
1765226453756,0.0,0.0,2.0,20.0,0.0,0.0,0.0,0.0,0.0,0.0,-0.015616,-0.00061,0.994788,-0.56,0.56,-0.07,3.28,3.31,3.28,3.27,3.28,3.28,3.28,3.28,3.31,3.31,3.31,3.3,3.28,3.28,3.28,3.29,3.28,3.29,3.29,3.28,3.31,3.31,3.31,3.3,3.31,3.27,79.0,-1.0,1.0,0.0,1.0,1.0,7948730,0.0,0.0
1765226453790,0.0,0.0,2.0,20.0,0.0,0.0,0.0,0.0,0.0,0.0,-0.015616,-0.00061,0.994788,-0.56,0.56,-0.07,3.28,3.31,3.28,3.27,3.28,3.28,3.28,3.28,3.31,3.31,3.31,3.3,3.28,3.28,3.28,3.29,3.28,3.29,3.29,3.28,3.31,3.31,3.31,3.3,3.31,3.27,79.0,-1.0,1.0,0.0,1.0,1.0,7948764,0.0,0.0
1765226453807,0.0,0.0,2.0,20.0,0.0,0.0,0.0,0.0,0.0,0.0,-0.015616,-0.00061,0.994788,-0.56,0.56,-0.07,3.28,3.31,3.28,3.27,3.28,3.28,3.28,3.28,3.31,3.31,3.31,3.3,3.28,3.28,3.28,3.29,3.28,3.29,3.29,3.28,3.31,3.31,3.31,3.3,3.31,3.27,79.0,-1.0,1.0,0.0,1.0,1.0,7948781,0.0,0.0
1765226453823,0.0,0.0,2.0,20.0,0.0,0.0,0.0,0.0,0.0,0.0,-0.018788,-0.00366,0.986858,-0.56,0.56,-0.07,3.28,3.31,3.28,3.27,3.28,3.28,3.28,3.28,3.31,3.31,3.31,3.3,3.28,3.28,3.28,3.29,3.28,3.29,3.29,3.28,3.31,3.31,3.31,3.3,3.31,3.27,79.0,-1.0,1.0,0.0,1.0,1.0,7948797,0.0,0.0
1765226453873,0.0,0.0,2.0,20.0,0.0,0.0,0.0,0.0,0.0,0.0,-0.018788,-0.00366,0.986858,-0.6300000000000001,0.28,0.0,3.28,3.31,3.28,3.27,3.28,3.28,3.28,3.28,3.31,3.31,3.31,3.3,3.28,3.28,3.28,3.29,3.28,3.29,3.29,3.28,3.31,3.31,3.31,3.3,3.31,3.27,79.0,-1.0,1.0,0.0,1.0,1.0,7948847,0.0,0.0
1765226453977,0.0,0.0,2.0,20.0,0.0,0.0,0.0,0.0,0.0,0.0,-0.02196,0.004026,0.9983259999999999,-0.6300000000000001,0.28,0.0,3.28,3.31,3.28,3.27,3.28,3.28,3.28,3.28,3.31,3.31,3.31,3.3,3.28,3.28,3.28,3.29,3.28,3.29,3.29,3.28,3.31,3.31,3.31,3.3,3.31,3.27,79.0,-1.0,1.0,0.0,1.0,1.0,7948951,0.0,0.0
1765226453993,0.0,0.0,2.0,20.0,0.0,0.0,0.0,0.0,0.0,0.0,-0.02196,0.004026,0.9983259999999999,-0.77,0.35000000000000003,0.0,3.28,3.31,3.28,3.27,3.28,3.28,3.28,3.28,3.31,3.31,3.31,3.3,3.28,3.28,3.28,3.29,3.28,3.29,3.29,3.28,3.31,3.31,3.31,3.3,3.31,3.27,79.0,-1.0,1.0,0.0,1.0,1.0,7948967,0.0,0.0
1765226454026,0.0,0.0,2.0,20.0,0.0,0.0,0.0,0.0,0.0,0.0,-0.02196,0.004026,0.9983259999999999,-0.77,0.35000000000000003,0.0,3.28,3.31,3.28,3.27,3.28,3.28,3.28,3.28,3.31,3.31,3.31,3.3,3.28,3.28,3.28,3.29,3.28,3.29,3.29,3.28,3.31,3.31,3.31,3.3,3.31,3.27,79.0,-1.0,1.0,0.0,1.0,1.0,7949000,0.0,0.0
1765226454039,0.0,0.0,2.0,20.0,0.0,0.0,0.0,0.0,0.0,0.0,-0.02196,0.004026,0.9983259999999999,-0.77,0.35000000000000003,0.0,3.28,3.31,3.28,3.27,3.28,3.28,3.28,3.28,3.31,3.31,3.31,3.3,3.28,3.28,3.28,3.29,3.28,3.29,3.29,3.28,3.31,3.31,3.31,3.3,3.31,3.27,79.0,-1.0,1.0,0.0,1.0,1.0,7949013,0.0,0.0
1765226454073,0.0,0.0,2.0,20.0,0.0,0.0,0.0,0.0,0.0,0.0,-0.02196,0.004026,0.9983259999999999,-0.77,0.35000000000000003,0.0,3.28,3.31,3.28,3.27,3.28,3.28,3.28,3.28,3.31,3.31,3.31,3.3,3.28,3.28,3.28,3.29,3.28,3.29,3.29,3.28,3.31,3.31,3.31,3.3,3.31,3.27,79.0,-1.0,1.0,0.0,1.0,1.0,7949047,0.0,0.0
1765226454089,0.0,0.0,2.0,20.0,0.0,0.0,0.0,0.0,0.0,0.0,-0.02196,0.004026,0.9983259999999999,-0.77,0.35000000000000003,0.0,3.28,3.31,3.28,3.27,3.28,3.28,3.28,3.28,3.31,3.31,3.31,3.3,3.28,3.28,3.28,3.29,3.28,3.29,3.29,3.28,3.31,3.31,3.31,3.3,3.31,3.27,79.0,-1.0,1.0,0.0,1.0,1.0,7949063,0.0,0.0
1765226454140,0.0,0.0,2.0,20.0,0.0,0.0,0.0,0.0,0.0,0.0,-0.02196,0.004026,0.9983259999999999,-0.77,0.35000000000000003,0.0,3.28,3.31,3.28,3.27,3.28,3.28,3.28,3.28,3.31,3.31,3.31,3.3,3.28,3.28,3.28,3.29,3.28,3.29,3.29,3.28,3.31,3.31,3.31,3.3,3.31,3.27,79.0,-1.0,1.0,0.0,1.0,1.0,7949114,0.0,0.0
1765226454158,0.0,0.0,2.0,20.0,0.0,0.0,0.0,0.0,0.0,0.0,-0.022692,0.001952,0.991372,-0.77,0.35000000000000003,0.0,3.28,3.31,3.28,3.27,3.28,3.28,3.28,3.28,3.31,3.31,3.31,3.3,3.28,3.28,3.28,3.29,3.28,3.29,3.29,3.28,3.31,3.31,3.31,3.3,3.31,3.27,79.0,-1.0,1.0,0.0,1.0,1.0,7949132,0.0,0.0
1765226454206,0.0,0.0,2.0,20.0,0.0,0.0,0.0,0.0,0.0,0.0,-0.022692,0.001952,0.991372,-0.6300000000000001,0.35000000000000003,0.0,3.28,3.31,3.28,3.27,3.28,3.28,3.28,3.28,3.31,3.31,3.31,3.3,3.28,3.28,3.28,3.29,3.28,3.29,3.29,3.28,3.31,3.31,3.31,3.3,3.31,3.27,79.0,-1.0,1.0,0.0,1.0,1.0,7949180,0.0,0.0
1765226454260,0.0,0.0,2.0,20.0,0.0,0.0,0.0,0.0,0.0,0.0,-0.022692,0.001952,0.991372,-0.6300000000000001,0.35000000000000003,0.0,3.28,3.31,3.28,3.27,3.28,3.28,3.28,3.28,3.31,3.31,3.31,3.3,3.28,3.28,3.28,3.29,3.28,3.29,3.29,3.28,3.31,3.31,3.31,3.3,3.31,3.27,79.0,-1.0,1.0,0.0,1.0,1.0,7949234,0.0,0.0
1765226454307,0.0,0.0,2.0,20.0,0.0,0.0,0.0,0.0,0.0,0.0,-0.019398,0.030255999999999998,0.9943,-0.6300000000000001,0.35000000000000003,0.0,3.28,3.31,3.28,3.27,3.28,3.28,3.28,3.28,3.31,3.31,3.31,3.3,3.28,3.28,3.28,3.29,3.28,3.29,3.29,3.28,3.31,3.31,3.31,3.3,3.31,3.27,79.0,-1.0,1.0,0.0,1.0,1.0,7949281,0.0,0.0
1765226454341,0.0,0.0,2.0,20.0,0.0,0.0,0.0,0.0,0.0,0.0,-0.019398,0.030255999999999998,0.9943,-0.56,0.42000000000000004,0.07,3.28,3.31,3.28,3.27,3.28,3.28,3.28,3.28,3.31,3.31,3.31,3.3,3.28,3.28,3.28,3.29,3.28,3.29,3.29,3.28,3.31,3.31,3.31,3.3,3.31,3.27,79.0,-1.0,1.0,0.0,1.0,1.0,7949315,0.0,0.0
1765226454392,0.0,0.0,2.0,20.0,0.0,0.0,0.0,0.0,0.0,0.0,-0.019398,0.004148,0.986004,-0.56,0.42000000000000004,0.07,3.28,3.31,3.28,3.27,3.28,3.28,3.28,3.28,3.31,3.31,3.31,3.3,3.28,3.28,3.28,3.29,3.28,3.29,3.29,3.28,3.31,3.31,3.31,3.3,3.31,3.27,79.0,-1.0,1.0,0.0,1.0,1.0,7949366,0.0,0.0
1765226454425,0.0,0.0,2.0,20.0,0.0,0.0,0.0,0.0,0.0,0.0,-0.019398,0.004148,0.986004,-0.56,0.42000000000000004,0.07,3.28,3.31,3.28,3.27,3.28,3.28,3.28,3.28,3.31,3.31,3.31,3.3,3.28,3.28,3.28,3.29,3.28,3.29,3.29,3.28,3.31,3.31,3.31,3.3,3.31,3.27,79.0,-1.0,1.0,0.0,1.0,1.0,7949399,0.0,0.0
1765226454446,0.0,0.0,2.0,20.0,0.0,0.0,0.0,0.0,0.0,0.0,-0.019398,0.004148,0.986004,-0.7000000000000001,0.49000000000000005,0.07,3.28,3.31,3.28,3.27,3.28,3.28,3.28,3.28,3.31,3.31,3.31,3.3,3.28,3.28,3.28,3.29,3.28,3.29,3.29,3.28,3.31,3.31,3.31,3.3,3.31,3.27,79.0,-1.0,1.0,0.0,1.0,1.0,7949420,0.0,0.0
1765226454457,0.0,0.0,2.0,20.0,0.0,0.0,0.0,0.0,0.0,0.0,-0.019398,0.004148,0.986004,-0.7000000000000001,0.49000000000000005,0.07,3.28,3.31,3.28,3.27,3.28,3.28,3.28,3.28,3.31,3.31,3.31,3.3,3.28,3.28,3.28,3.29,3.28,3.29,3.29,3.28,3.31,3.31,3.31,3.3,3.31,3.27,79.0,-1.0,1.0,0.0,1.0,1.0,7949431,0.0,0.0
1765226454506,0.0,0.0,2.0,20.0,0.0,0.0,0.0,0.0,0.0,0.0,-0.019398,0.004148,0.986004,-0.7000000000000001,0.49000000000000005,0.07,3.28,3.31,3.28,3.27,3.28,3.28,3.28,3.28,3.31,3.31,3.31,3.3,3.28,3.28,3.28,3.29,3.28,3.29,3.29,3.28,3.31,3.31,3.31,3.3,3.31,3.27,79.0,-1.0,1.0,0.0,1.0,1.0,7949480,0.0,0.0
1765226454575,0.0,0.0,2.0,20.0,0.0,0.0,0.0,0.0,0.0,0.0,-0.019398,0.004148,0.986004,-0.7000000000000001,0.49000000000000005,0.07,3.28,3.31,3.28,3.27,3.28,3.28,3.28,3.28,3.31,3.31,3.31,3.3,3.28,3.28,3.28,3.29,3.28,3.29,3.29,3.28,3.31,3.31,3.31,3.3,3.31,3.27,79.0,-1.0,1.0,0.0,1.0,1.0,7949549,0.0,0.0
1765226454641,0.0,0.0,2.0,20.0,0.0,0.0,0.0,0.0,0.0,0.0,-0.021716,0.002196,0.9964959999999999,-0.7000000000000001,0.49000000000000005,0.07,3.28,3.31,3.28,3.27,3.28,3.28,3.28,3.28,3.31,3.31,3.31,3.3,3.28,3.28,3.28,3.29,3.28,3.29,3.29,3.28,3.31,3.31,3.31,3.3,3.31,3.27,79.0,-1.0,1.0,0.0,1.0,1.0,7949615,0.0,0.0
1765226454656,0.0,0.0,2.0,20.0,0.0,0.0,0.0,0.0,0.0,0.0,-0.021716,0.002196,0.9964959999999999,-0.42000000000000004,0.42000000000000004,0.0,3.28,3.31,3.28,3.27,3.28,3.28,3.28,3.28,3.31,3.31,3.31,3.3,3.28,3.28,3.28,3.29,3.28,3.29,3.29,3.28,3.31,3.31,3.31,3.3,3.31,3.27,79.0,-1.0,1.0,0.0,1.0,1.0,7949630,0.0,0.0
1765226454709,0.0,0.0,2.0,20.0,0.0,0.0,0.0,0.0,0.0,0.0,-0.021716,0.002196,0.9964959999999999,-0.42000000000000004,0.42000000000000004,0.0,3.28,3.31,3.28,3.27,3.28,3.28,3.28,3.28,3.31,3.31,3.31,3.3,3.28,3.28,3.28,3.29,3.28,3.29,3.29,3.28,3.31,3.31,3.31,3.3,3.31,3.27,79.0,-1.0,1.0,0.0,1.0,1.0,7949683,0.0,0.0
1765226454726,0.0,0.0,2.0,20.0,0.0,0.0,0.0,0.0,0.0,0.0,-0.031354,-0.004026,0.997594,-0.42000000000000004,0.42000000000000004,0.0,3.28,3.31,3.28,3.27,3.28,3.28,3.28,3.28,3.31,3.31,3.31,3.3,3.28,3.28,3.28,3.29,3.28,3.29,3.29,3.28,3.31,3.31,3.31,3.3,3.31,3.27,79.0,-1.0,1.0,0.0,1.0,1.0,7949700,0.0,0.0
1765226454759,0.0,0.0,2.0,20.0,0.0,0.0,0.0,0.0,0.0,0.0,-0.031354,-0.004026,0.997594,-0.42000000000000004,0.42000000000000004,0.0,3.28,3.31,3.28,3.27,3.28,3.28,3.28,3.28,3.31,3.31,3.31,3.3,3.28,3.28,3.28,3.29,3.28,3.29,3.29,3.28,3.31,3.31,3.31,3.3,3.31,3.27,79.0,-1.0,1.0,0.0,1.0,1.0,7949733,0.0,0.0
1765226454789,0.0,0.0,2.0,20.0,0.0,0.0,0.0,0.0,0.0,0.0,-0.031354,-0.004026,0.997594,-1.05,0.7000000000000001,0.14,3.28,3.31,3.28,3.27,3.28,3.28,3.28,3.28,3.31,3.31,3.31,3.3,3.28,3.28,3.28,3.29,3.28,3.29,3.29,3.28,3.31,3.31,3.31,3.3,3.31,3.27,79.0,-1.0,1.0,0.0,1.0,1.0,7949763,0.0,0.0
1765226454806,0.0,0.0,2.0,20.0,0.0,0.0,0.0,0.0,0.0,0.0,-0.031354,-0.004026,0.997594,-1.05,0.7000000000000001,0.14,3.28,3.31,3.28,3.27,3.28,3.28,3.28,3.28,3.31,3.31,3.31,3.3,3.28,3.28,3.28,3.29,3.28,3.29,3.29,3.28,3.31,3.31,3.31,3.3,3.31,3.27,79.0,-1.0,1.0,0.0,1.0,1.0,7949780,0.0,0.0
1765226454857,0.0,0.0,2.0,20.0,0.0,0.0,0.0,0.0,0.0,0.0,-0.031354,-0.004026,0.997594,-1.05,0.7000000000000001,0.14,3.28,3.31,3.28,3.27,3.28,3.28,3.28,3.28,3.31,3.31,3.31,3.3,3.28,3.28,3.28,3.29,3.28,3.29,3.29,3.28,3.31,3.31,3.31,3.3,3.31,3.27,79.0,-1.0,1.0,0.0,1.0,1.0,7949831,0.0,0.0
1765226454893,0.0,0.0,2.0,20.0,0.0,0.0,0.0,0.0,0.0,0.0,-0.031354,-0.004026,0.997594,-1.05,0.7000000000000001,0.14,3.28,3.31,3.28,3.27,3.28,3.28,3.28,3.28,3.31,3.31,3.31,3.3,3.28,3.28,3.28,3.29,3.28,3.29,3.29,3.28,3.31,3.31,3.31,3.3,3.31,3.27,79.0,-1.0,1.0,0.0,1.0,1.0,7949867,0.0,0.0
1765226454910,0.0,0.0,2.0,20.0,0.0,0.0,0.0,0.0,0.0,0.0,-0.022203999999999998,-0.000732,0.9946659999999999,-1.05,0.7000000000000001,0.14,3.28,3.31,3.28,3.27,3.28,3.28,3.28,3.28,3.31,3.31,3.31,3.3,3.28,3.28,3.28,3.29,3.28,3.29,3.29,3.28,3.31,3.31,3.31,3.3,3.31,3.27,79.0,-1.0,1.0,0.0,1.0,1.0,7949884,0.0,0.0
1765226454975,0.0,0.0,2.0,20.0,0.0,0.0,0.0,0.0,0.0,0.0,-0.022203999999999998,-0.000732,0.9946659999999999,-0.7000000000000001,0.28,0.07,3.28,3.31,3.28,3.27,3.28,3.28,3.28,3.28,3.31,3.31,3.31,3.3,3.28,3.28,3.28,3.29,3.28,3.29,3.29,3.28,3.31,3.31,3.31,3.3,3.31,3.27,79.0,-1.0,1.0,0.0,1.0,1.0,7949949,0.0,0.0
1765226454993,0.0,0.0,2.0,20.0,0.0,0.0,0.0,0.0,0.0,0.0,-0.022203999999999998,-0.000732,0.9946659999999999,-0.7000000000000001,0.28,0.07,3.28,3.31,3.28,3.27,3.28,3.28,3.28,3.28,3.31,3.31,3.31,3.3,3.28,3.28,3.28,3.29,3.28,3.29,3.29,3.28,3.31,3.31,3.31,3.3,3.31,3.27,79.0,-1.0,1.0,0.0,1.0,1.0,7949967,0.0,0.0
1765226455074,0.0,0.0,2.0,20.0,0.0,0.0,0.0,0.0,0.0,0.0,-0.013663999999999999,0.0071979999999999995,0.994422,-0.7000000000000001,0.28,0.07,3.28,3.31,3.28,3.27,3.28,3.28,3.28,3.28,3.31,3.31,3.31,3.3,3.28,3.28,3.28,3.29,3.28,3.29,3.29,3.28,3.31,3.31,3.31,3.3,3.31,3.27,79.0,-1.0,1.0,0.0,1.0,1.0,7950048,0.0,0.0
1765226455091,0.0,0.0,2.0,20.0,0.0,0.0,0.0,0.0,0.0,0.0,-0.013663999999999999,0.0071979999999999995,0.994422,-0.6300000000000001,0.49000000000000005,0.0,3.28,3.31,3.28,3.27,3.28,3.28,3.28,3.28,3.31,3.31,3.31,3.3,3.28,3.28,3.28,3.29,3.28,3.29,3.29,3.28,3.31,3.31,3.31,3.3,3.31,3.27,79.0,-1.0,1.0,0.0,1.0,1.0,7950065,0.0,0.0
1765226455617,0.0,0.0,2.0,20.0,0.0,0.0,0.0,0.0,0.0,0.0,-0.016531,0.000305,0.99186,-0.6300000000000001,0.28,0.0,3.28,3.31,3.28,3.28,3.28,3.28,3.28,3.28,3.31,3.31,3.31,3.3,3.28,3.28,3.28,3.29,3.28,3.29,3.29,3.28,3.31,3.31,3.31,3.3,3.31,3.27,79.0,-1.0,1.0,0.0,1.0,1.0,7950591,0.0,0.0
1765226455624,0.0,0.0,2.0,20.0,0.0,0.0,0.0,0.0,0.0,0.0,-0.016531,0.000305,0.99186,-0.6300000000000001,0.28,0.0,3.28,3.31,3.28,3.28,3.28,3.28,3.28,3.28,3.31,3.31,3.31,3.3,3.28,3.28,3.28,3.29,3.28,3.29,3.29,3.28,3.31,3.31,3.31,3.3,3.31,3.27,79.0,-1.0,1.0,0.0,1.0,1.0,7950598,0.0,0.0
1765226455657,0.0,0.0,2.0,20.0,0.0,0.0,0.0,0.0,0.0,0.0,-0.016531,0.000305,0.99186,-0.6300000000000001,0.28,0.0,3.28,3.31,3.28,3.28,3.28,3.28,3.28,3.28,3.31,3.31,3.31,3.3,3.28,3.28,3.28,3.29,3.28,3.29,3.29,3.28,3.31,3.31,3.31,3.3,3.31,3.27,79.0,-1.0,1.0,0.0,1.0,1.0,7950631,0.0,0.0
1765226455673,0.0,0.0,2.0,20.0,0.0,0.0,0.0,0.0,0.0,0.0,-0.018788,0.00061,1.003694,-0.6300000000000001,0.28,0.0,3.28,3.31,3.28,3.28,3.28,3.28,3.28,3.28,3.31,3.31,3.31,3.3,3.28,3.28,3.28,3.29,3.28,3.29,3.29,3.28,3.31,3.31,3.31,3.3,3.31,3.27,79.0,-1.0,1.0,0.0,1.0,1.0,7950647,0.0,0.0
1765226455726,0.0,0.0,2.0,20.0,0.0,0.0,0.0,0.0,0.0,0.0,-0.018788,0.00061,1.003694,-0.6300000000000001,0.28,0.0,3.28,3.31,3.28,3.28,3.28,3.28,3.28,3.28,3.31,3.31,3.31,3.3,3.28,3.28,3.28,3.29,3.28,3.29,3.29,3.28,3.31,3.31,3.31,3.3,3.31,3.27,79.0,-1.0,1.0,0.0,1.0,1.0,7950700,0.0,0.0
1765226455743,0.0,0.0,2.0,20.0,0.0,0.0,0.0,0.0,0.0,0.0,-0.018788,0.00061,1.003694,-0.8400000000000001,0.35000000000000003,0.0,3.28,3.31,3.28,3.28,3.28,3.28,3.28,3.28,3.31,3.31,3.31,3.3,3.28,3.28,3.28,3.29,3.28,3.29,3.29,3.28,3.31,3.31,3.31,3.3,3.31,3.27,79.0,-1.0,1.0,0.0,1.0,1.0,7950717,0.0,0.0
1765226455823,0.0,0.0,2.0,20.0,0.0,0.0,0.0,0.0,0.0,0.0,-0.014395999999999999,0.004392,0.98454,-0.8400000000000001,0.35000000000000003,0.0,3.28,3.31,3.28,3.28,3.28,3.28,3.28,3.28,3.31,3.31,3.31,3.3,3.28,3.28,3.28,3.29,3.28,3.29,3.29,3.28,3.31,3.31,3.31,3.3,3.31,3.27,79.0,-1.0,1.0,0.0,1.0,1.0,7950797,0.0,0.0
1765226455841,0.0,0.0,2.0,20.0,0.0,0.0,0.0,0.0,0.0,0.0,-0.014395999999999999,0.004392,0.98454,-0.6300000000000001,0.56,0.07,3.28,3.31,3.28,3.28,3.28,3.28,3.28,3.28,3.31,3.31,3.31,3.3,3.28,3.28,3.28,3.29,3.28,3.29,3.29,3.28,3.31,3.31,3.31,3.3,3.31,3.27,79.0,-1.0,1.0,0.0,1.0,1.0,7950815,0.0,0.0
1765226455874,0.0,0.0,2.0,20.0,0.0,0.0,0.0,0.0,0.0,0.0,-0.014395999999999999,0.004392,0.98454,-0.6300000000000001,0.56,0.07,3.28,3.31,3.28,3.28,3.28,3.28,3.28,3.28,3.31,3.31,3.31,3.3,3.28,3.28,3.28,3.29,3.28,3.29,3.29,3.28,3.31,3.31,3.31,3.3,3.31,3.27,79.0,-1.0,1.0,0.0,1.0,1.0,7950848,0.0,0.0
1765226455891,0.0,0.0,2.0,20.0,0.0,0.0,0.0,0.0,0.0,0.0,-0.014395999999999999,0.004392,0.98454,-0.6300000000000001,0.56,0.07,3.28,3.31,3.28,3.28,3.28,3.28,3.28,3.28,3.31,3.31,3.31,3.3,3.28,3.28,3.28,3.29,3.28,3.29,3.29,3.28,3.31,3.31,3.31,3.3,3.31,3.27,79.0,-1.0,1.0,0.0,1.0,1.0,7950865,0.0,0.0
1765226455909,0.0,0.0,2.0,20.0,0.0,0.0,0.0,0.0,0.0,0.0,-0.014395999999999999,0.004392,0.98454,-0.6300000000000001,0.56,0.07,3.28,3.31,3.28,3.28,3.28,3.28,3.28,3.28,3.31,3.31,3.31,3.3,3.28,3.28,3.28,3.29,3.28,3.29,3.29,3.28,3.31,3.31,3.31,3.3,3.31,3.27,79.0,-1.0,1.0,0.0,1.0,1.0,7950883,0.0,0.0
1765226455924,0.0,0.0,2.0,20.0,0.0,0.0,0.0,0.0,0.0,0.0,-0.014395999999999999,0.004392,0.98454,-0.6300000000000001,0.56,0.07,3.28,3.31,3.28,3.28,3.28,3.28,3.28,3.28,3.31,3.31,3.31,3.3,3.28,3.28,3.28,3.29,3.28,3.29,3.29,3.28,3.31,3.31,3.31,3.3,3.31,3.27,79.0,-1.0,1.0,0.0,1.0,1.0,7950898,0.0,0.0
1765226455941,0.0,0.0,2.0,20.0,0.0,0.0,0.0,0.0,0.0,0.0,-0.014395999999999999,0.004392,0.98454,-0.6300000000000001,0.56,0.07,3.28,3.31,3.28,3.28,3.28,3.28,3.28,3.28,3.31,3.31,3.31,3.3,3.28,3.28,3.28,3.29,3.28,3.29,3.29,3.28,3.31,3.31,3.31,3.3,3.31,3.27,79.0,-1.0,1.0,0.0,1.0,1.0,7950915,0.0,0.0
1765226455996,0.0,0.0,2.0,20.0,0.0,0.0,0.0,0.0,0.0,0.0,-0.022692,0.001952,0.999058,-0.6300000000000001,0.56,0.07,3.28,3.31,3.28,3.28,3.28,3.28,3.28,3.28,3.31,3.31,3.31,3.3,3.28,3.28,3.28,3.29,3.28,3.29,3.29,3.28,3.31,3.31,3.31,3.3,3.31,3.27,79.0,-1.0,1.0,0.0,1.0,1.0,7950970,0.0,0.0
1765226456007,0.0,0.0,2.0,20.0,0.0,0.0,0.0,0.0,0.0,0.0,-0.022692,0.001952,0.999058,-0.6300000000000001,0.56,0.07,3.28,3.31,3.28,3.28,3.28,3.28,3.28,3.28,3.31,3.31,3.31,3.3,3.28,3.28,3.28,3.29,3.28,3.29,3.29,3.28,3.31,3.31,3.31,3.3,3.31,3.27,79.0,-1.0,1.0,0.0,1.0,1.0,7950981,0.0,0.0
1765226456076,0.0,0.0,2.0,20.0,0.0,0.0,0.0,0.0,0.0,0.0,-0.022692,0.001952,0.999058,-0.6300000000000001,0.35000000000000003,0.0,3.28,3.31,3.28,3.28,3.28,3.28,3.28,3.28,3.31,3.31,3.31,3.3,3.28,3.28,3.28,3.29,3.28,3.29,3.29,3.28,3.31,3.31,3.31,3.3,3.31,3.27,79.0,-1.0,1.0,0.0,1.0,1.0,7951050,0.0,0.0
1765226456140,0.0,0.0,2.0,20.0,0.0,0.0,0.0,0.0,0.0,0.0,-0.022692,0.001952,0.999058,-0.6300000000000001,0.35000000000000003,0.0,3.28,3.31,3.28,3.28,3.28,3.28,3.28,3.28,3.31,3.31,3.31,3.3,3.28,3.28,3.28,3.29,3.28,3.29,3.29,3.28,3.31,3.31,3.31,3.3,3.31,3.27,79.0,-1.0,1.0,0.0,1.0,1.0,7951114,0.0,0.0
1765226456175,0.0,0.0,2.0,20.0,0.0,0.0,0.0,0.0,0.0,0.0,-0.018788,0.000976,0.996984,-0.6300000000000001,0.35000000000000003,0.0,3.28,3.31,3.28,3.28,3.28,3.28,3.28,3.28,3.31,3.31,3.31,3.3,3.28,3.28,3.28,3.29,3.28,3.29,3.29,3.28,3.31,3.31,3.31,3.3,3.31,3.27,79.0,-1.0,1.0,0.0,1.0,1.0,7951149,0.0,0.0
1765226456223,0.0,0.0,2.0,20.0,0.0,0.0,0.0,0.0,0.0,0.0,-0.018788,0.000976,0.996984,-0.6300000000000001,0.35000000000000003,0.0,3.28,3.31,3.28,3.28,3.28,3.28,3.28,3.28,3.31,3.31,3.31,3.3,3.28,3.28,3.28,3.29,3.28,3.29,3.29,3.28,3.31,3.31,3.31,3.3,3.31,3.27,79.0,-1.0,1.0,0.0,1.0,1.0,7951197,0.0,0.0
1765226456261,0.0,0.0,2.0,20.0,0.0,0.0,0.0,0.0,0.0,0.0,-0.018788,0.000976,0.996984,-0.6300000000000001,0.35000000000000003,0.0,3.28,3.31,3.28,3.28,3.28,3.28,3.28,3.28,3.31,3.31,3.31,3.3,3.28,3.28,3.28,3.29,3.28,3.29,3.29,3.28,3.31,3.31,3.31,3.3,3.31,3.28,79.0,0.0,1.0,0.0,1.0,1.0,7951235,0.0,0.0
1765226456291,0.0,0.0,2.0,20.0,0.0,0.0,0.0,0.0,0.0,0.0,-0.01952,0.00183,0.9864919999999999,-0.6300000000000001,0.35000000000000003,0.0,3.28,3.31,3.28,3.28,3.28,3.28,3.28,3.28,3.31,3.31,3.31,3.3,3.28,3.28,3.28,3.29,3.28,3.29,3.29,3.28,3.31,3.31,3.31,3.3,3.31,3.28,79.0,0.0,1.0,0.0,1.0,1.0,7951265,0.0,0.0
1765226456323,0.0,0.0,2.0,20.0,0.0,0.0,0.0,0.0,0.0,0.0,-0.01952,0.00183,0.9864919999999999,-0.6300000000000001,0.35000000000000003,0.0,3.28,3.31,3.28,3.28,3.28,3.28,3.28,3.28,3.31,3.31,3.31,3.3,3.28,3.28,3.28,3.29,3.28,3.29,3.29,3.28,3.31,3.31,3.31,3.3,3.31,3.28,79.0,0.0,1.0,0.0,1.0,1.0,7951297,0.0,0.0
1765226456340,0.0,0.0,2.0,20.0,0.0,0.0,0.0,0.0,0.0,0.0,-0.01952,0.00183,0.9864919999999999,-0.6300000000000001,0.35000000000000003,0.0,3.28,3.31,3.28,3.28,3.28,3.28,3.28,3.28,3.31,3.31,3.31,3.3,3.28,3.28,3.28,3.29,3.28,3.29,3.29,3.28,3.31,3.31,3.31,3.3,3.31,3.28,79.0,0.0,1.0,0.0,1.0,1.0,7951314,0.0,0.0
1765226456357,0.0,0.0,2.0,20.0,0.0,0.0,0.0,0.0,0.0,0.0,-0.01952,0.00183,0.9864919999999999,-0.7000000000000001,0.28,0.0,3.28,3.31,3.28,3.28,3.28,3.28,3.28,3.28,3.31,3.31,3.31,3.3,3.28,3.28,3.28,3.29,3.28,3.29,3.29,3.28,3.31,3.31,3.31,3.3,3.31,3.28,79.0,0.0,1.0,0.0,1.0,1.0,7951331,0.0,0.0
1765226456375,0.0,0.0,2.0,20.0,0.0,0.0,0.0,0.0,0.0,0.0,-0.01952,0.00183,0.9864919999999999,-0.7000000000000001,0.28,0.0,3.28,3.31,3.28,3.28,3.28,3.28,3.28,3.28,3.31,3.31,3.31,3.3,3.28,3.28,3.28,3.29,3.28,3.29,3.29,3.28,3.31,3.31,3.31,3.3,3.31,3.28,79.0,0.0,1.0,0.0,1.0,1.0,7951349,0.0,0.0
1765226456391,0.0,0.0,2.0,20.0,0.0,0.0,0.0,0.0,0.0,0.0,-0.01952,0.00183,0.9864919999999999,-0.7000000000000001,0.28,0.0,3.28,3.31,3.28,3.28,3.28,3.28,3.28,3.28,3.31,3.31,3.31,3.3,3.28,3.28,3.28,3.29,3.28,3.29,3.29,3.28,3.31,3.31,3.31,3.3,3.31,3.28,79.0,0.0,1.0,0.0,1.0,1.0,7951365,0.0,0.0
1765226456458,0.0,0.0,2.0,20.0,0.0,0.0,0.0,0.0,0.0,0.0,-0.01952,0.00183,0.9864919999999999,-0.7000000000000001,0.28,0.0,3.28,3.31,3.28,3.28,3.28,3.28,3.28,3.28,3.31,3.31,3.31,3.3,3.28,3.28,3.28,3.29,3.28,3.29,3.29,3.28,3.31,3.31,3.31,3.3,3.31,3.28,79.0,0.0,1.0,0.0,1.0,1.0,7951432,0.0,0.0
1765226456540,0.0,0.0,2.0,20.0,0.0,0.0,0.0,0.0,0.0,0.0,-0.01891,0.0017079999999999999,0.997228,-0.7000000000000001,0.28,0.0,3.28,3.31,3.28,3.28,3.28,3.28,3.28,3.28,3.31,3.31,3.31,3.3,3.28,3.28,3.28,3.29,3.28,3.29,3.29,3.28,3.31,3.31,3.31,3.3,3.31,3.28,79.0,0.0,1.0,0.0,1.0,1.0,7951514,0.0,0.0
1765226456557,0.0,0.0,2.0,20.0,0.0,0.0,0.0,0.0,0.0,0.0,-0.01891,0.0017079999999999999,0.997228,-0.6300000000000001,0.42000000000000004,-0.07,3.28,3.31,3.28,3.28,3.28,3.28,3.28,3.28,3.31,3.31,3.31,3.3,3.28,3.28,3.28,3.29,3.28,3.29,3.29,3.28,3.31,3.31,3.31,3.3,3.31,3.28,79.0,0.0,1.0,0.0,1.0,1.0,7951531,0.0,0.0
1765226456607,0.0,0.0,2.0,20.0,0.0,0.0,0.0,0.0,0.0,0.0,-0.01891,0.0017079999999999999,0.997228,-0.6300000000000001,0.42000000000000004,-0.07,3.28,3.31,3.28,3.28,3.28,3.28,3.28,3.28,3.31,3.31,3.31,3.3,3.28,3.28,3.28,3.29,3.28,3.29,3.29,3.28,3.31,3.31,3.31,3.3,3.31,3.28,79.0,0.0,1.0,0.0,1.0,1.0,7951581,0.0,0.0
1765226456623,0.0,0.0,2.0,20.0,0.0,0.0,0.0,0.0,0.0,0.0,-0.01952,0.000122,0.992714,-0.6300000000000001,0.42000000000000004,-0.07,3.28,3.31,3.28,3.28,3.28,3.28,3.28,3.28,3.31,3.31,3.31,3.3,3.28,3.28,3.28,3.29,3.28,3.29,3.29,3.28,3.31,3.31,3.31,3.3,3.31,3.28,79.0,0.0,1.0,0.0,1.0,1.0,7951597,0.0,0.0
1765226456642,0.0,0.0,2.0,20.0,0.0,0.0,0.0,0.0,0.0,0.0,-0.01952,0.000122,0.992714,-0.6300000000000001,0.42000000000000004,-0.07,3.28,3.31,3.28,3.28,3.28,3.28,3.28,3.28,3.31,3.31,3.31,3.3,3.28,3.28,3.28,3.29,3.28,3.29,3.29,3.28,3.31,3.31,3.31,3.3,3.31,3.28,79.0,0.0,1.0,0.0,1.0,1.0,7951616,0.0,0.0
1765226456657,0.0,0.0,2.0,20.0,0.0,0.0,0.0,0.0,0.0,0.0,-0.01952,0.000122,0.992714,-0.6300000000000001,0.42000000000000004,-0.07,3.28,3.31,3.28,3.28,3.28,3.28,3.28,3.28,3.31,3.31,3.31,3.3,3.28,3.28,3.28,3.29,3.28,3.29,3.29,3.28,3.31,3.31,3.31,3.3,3.31,3.28,79.0,0.0,1.0,0.0,1.0,1.0,7951631,0.0,0.0
1765226456675,0.0,0.0,2.0,20.0,0.0,0.0,0.0,0.0,0.0,0.0,-0.01952,0.000122,0.992714,-0.6300000000000001,0.42000000000000004,-0.07,3.28,3.31,3.28,3.28,3.28,3.28,3.28,3.28,3.31,3.31,3.31,3.3,3.28,3.28,3.28,3.29,3.28,3.29,3.29,3.28,3.31,3.31,3.31,3.3,3.31,3.28,79.0,0.0,1.0,0.0,1.0,1.0,7951649,0.0,0.0
1765226456690,0.0,0.0,2.0,20.0,0.0,0.0,0.0,0.0,0.0,0.0,-0.01952,0.000122,0.992714,-0.56,0.35000000000000003,0.0,3.28,3.31,3.28,3.28,3.28,3.28,3.28,3.28,3.31,3.31,3.31,3.3,3.28,3.28,3.28,3.29,3.28,3.29,3.29,3.28,3.31,3.31,3.31,3.3,3.31,3.28,79.0,0.0,1.0,0.0,1.0,1.0,7951664,0.0,0.0
1765226456740,0.0,0.0,2.0,20.0,0.0,0.0,0.0,0.0,0.0,0.0,-0.01952,0.000122,0.992714,-0.56,0.35000000000000003,0.0,3.28,3.31,3.28,3.28,3.28,3.28,3.28,3.28,3.31,3.31,3.31,3.3,3.28,3.28,3.28,3.29,3.28,3.29,3.29,3.28,3.31,3.31,3.31,3.3,3.31,3.28,79.0,0.0,1.0,0.0,1.0,1.0,7951714,0.0,0.0
1765226456756,0.0,0.0,2.0,20.0,0.0,0.0,0.0,0.0,0.0,0.0,-0.01952,0.000122,0.992714,-0.56,0.35000000000000003,0.0,3.28,3.31,3.28,3.28,3.28,3.28,3.28,3.28,3.31,3.31,3.31,3.3,3.28,3.28,3.28,3.29,3.28,3.29,3.29,3.28,3.31,3.31,3.31,3.3,3.31,3.28,79.0,0.0,1.0,0.0,1.0,1.0,7951730,0.0,0.0
1765226456773,0.0,0.0,2.0,20.0,0.0,0.0,0.0,0.0,0.0,0.0,-0.01952,0.000122,0.992714,-0.56,0.35000000000000003,0.0,3.28,3.31,3.28,3.28,3.28,3.28,3.28,3.28,3.31,3.31,3.31,3.3,3.28,3.28,3.28,3.29,3.28,3.29,3.29,3.28,3.31,3.31,3.31,3.3,3.31,3.28,79.0,0.0,1.0,0.0,1.0,1.0,7951747,0.0,0.0
1765226456807,0.0,0.0,2.0,20.0,0.0,0.0,0.0,0.0,0.0,0.0,-0.019886,0.001464,0.992592,-0.56,0.35000000000000003,0.0,3.28,3.31,3.28,3.28,3.28,3.28,3.28,3.28,3.31,3.31,3.31,3.3,3.28,3.28,3.28,3.29,3.28,3.29,3.29,3.28,3.31,3.31,3.31,3.3,3.31,3.28,79.0,0.0,1.0,0.0,1.0,1.0,7951781,0.0,0.0
1765226456873,0.0,0.0,2.0,20.0,0.0,0.0,0.0,0.0,0.0,0.0,-0.019886,0.001464,0.992592,-0.7000000000000001,0.35000000000000003,0.0,3.28,3.31,3.28,3.28,3.28,3.28,3.28,3.28,3.31,3.31,3.31,3.3,3.28,3.28,3.28,3.29,3.28,3.29,3.29,3.28,3.31,3.31,3.31,3.3,3.31,3.28,79.0,0.0,1.0,0.0,1.0,1.0,7951847,0.0,0.0
1765226456974,0.0,0.0,2.0,20.0,0.0,0.0,0.0,0.0,0.0,0.0,-0.018788,0.001098,0.992104,-0.6300000000000001,0.35000000000000003,-0.07,3.28,3.31,3.28,3.28,3.28,3.28,3.28,3.28,3.31,3.31,3.31,3.3,3.28,3.28,3.28,3.29,3.28,3.29,3.29,3.28,3.31,3.31,3.31,3.3,3.31,3.28,79.0,0.0,1.0,0.0,1.0,1.0,7951948,0.0,0.0
1765226456993,0.0,0.0,2.0,20.0,0.0,0.0,0.0,0.0,0.0,0.0,-0.018788,0.001098,0.992104,-0.6300000000000001,0.35000000000000003,-0.07,3.28,3.31,3.28,3.27,3.28,3.28,3.28,3.28,3.31,3.31,3.31,3.3,3.28,3.28,3.28,3.29,3.28,3.29,3.29,3.28,3.31,3.31,3.31,3.3,3.31,3.28,79.0,0.0,1.0,0.0,1.0,1.0,7951967,0.0,0.0
1765226457006,0.0,0.0,2.0,20.0,0.0,0.0,0.0,0.0,0.0,0.0,-0.018788,0.001098,0.992104,-0.6300000000000001,0.35000000000000003,-0.07,3.28,3.31,3.28,3.27,3.28,3.28,3.28,3.28,3.31,3.31,3.31,3.3,3.28,3.28,3.28,3.29,3.28,3.29,3.29,3.28,3.31,3.31,3.31,3.3,3.31,3.28,79.0,0.0,1.0,0.0,1.0,1.0,7951980,0.0,0.0
