timestamp,THROTTLE,BRAKE,ECU_MODE_ID,TORQUE_GAIN,TORQUE_REF_LEFT_MOTOR,TORQUE_REF_RIGHT_MOTOR,LEFT_MOTOR_SPEED,RIGHT_MOTOR_SPEED,REAR_LEFT_WHEEL_SPEED,REAR_RIGHT_WHEEL_SPEED,ACCEL_LONGITUDINAL,ACCEL_LATERAL,ACCEL_NORMAL,VEL_ANGULAR_YAW,VEL_ANGULAR_PITCH,VEL_ANGULAR_ROLL,STACK_1_CELL_1,STACK_1_CELL_2,STACK_1_CELL_3,STACK_1_CELL_4,STACK_2_CELL_1,STACK_2_CELL_2,STACK_2_CELL_3,STACK_2_CELL_4,STACK_3_CELL_1,STACK_3_CELL_2,STACK_3_CELL_3,STACK_3_CELL_4,STACK_4_CELL_1,STACK_4_CELL_2,STACK_4_CELL_3,STACK_4_CELL_4,STACK_5_CELL_1,STACK_5_CELL_2,STACK_5_CELL_3,STACK_5_CELL_4,STACK_6_CELL_1,STACK_6_CELL_2,STACK_6_CELL_3,STACK_6_CELL_4,MAX_VOLTAGE,MIN_VOLTAGE,TOTAL_VOLTAGE,SHUNT_CURRENT,BMS_MODE_ID,BMS_ERROR_ID,AIR_P,AIR_N,t
1765224180002,0.0,0.0,1.0,10.0,0.0,0.0,24.498045300000005,23.670035657142858,24.498045300000005,23.670035657142858,-0.074054,0.049898,0.928542,1.2600000000000002,1.1900000000000002,0.8400000000000001,3.31,3.31,3.31,3.29,3.28,3.29,3.28,3.29,3.31,3.31,3.31,3.31,3.28,3.29,3.28,3.29,3.31,3.31,3.31,3.3,3.32,3.32,3.31,3.31,3.32,3.28,79.2,-45.0,1.0,2.0,0.0,0.0,5674976
1765224180018,0.0,0.0,1.0,10.0,0.0,0.0,24.498045300000005,23.670035657142858,24.498045300000005,23.670035657142858,-0.074054,0.049898,0.928542,1.2600000000000002,1.1900000000000002,0.8400000000000001,3.31,3.31,3.31,3.29,3.28,3.29,3.28,3.29,3.31,3.31,3.31,3.31,3.28,3.29,3.28,3.29,3.31,3.31,3.31,3.3,3.32,3.32,3.31,3.31,3.32,3.28,79.2,-45.0,1.0,2.0,0.0,0.0,5674992
1765224180035,0.0,0.0,1.0,10.0,0.0,0.0,24.498045300000005,23.670035657142858,0.0,0.0,-0.074054,0.049898,0.928542,-0.77,0.56,-0.07,3.31,3.31,3.31,3.29,3.28,3.29,3.28,3.29,3.31,3.31,3.31,3.31,3.28,3.29,3.28,3.29,3.31,3.31,3.31,3.3,3.32,3.32,3.31,3.31,3.32,3.28,79.2,-45.0,1.0,2.0,0.0,0.0,5675009
1765224180068,0.0,0.0,1.0,10.0,0.0,0.0,0.0,23.670035657142858,0.0,0.0,-0.074054,0.049898,0.928542,-0.77,0.56,-0.07,3.31,3.31,3.31,3.29,3.28,3.29,3.28,3.29,3.31,3.31,3.31,3.31,3.28,3.29,3.28,3.29,3.31,3.31,3.31,3.3,3.32,3.32,3.31,3.31,3.32,3.28,79.2,-45.0,1.0,2.0,0.0,0.0,5675042
1765224180102,0.0,0.0,1.0,10.0,0.0,0.0,0.0,23.670035657142858,0.0,0.0,-0.074054,0.049898,0.928542,-0.77,0.56,-0.07,3.32,3.32,3.32,3.31,3.28,3.29,3.28,3.29,3.31,3.31,3.31,3.31,3.28,3.29,3.28,3.29,3.31,3.31,3.31,3.3,3.32,3.32,3.31,3.31,3.32,3.28,79.2,-45.0,1.0,2.0,0.0,0.0,5675076
1765224180120,0.0,0.0,1.0,10.0,0.0,0.0,0.0,23.670035657142858,0.0,0.0,-0.074054,0.049898,0.928542,-0.77,0.56,-0.07,3.32,3.32,3.32,3.31,3.29,3.29,3.29,3.29,3.31,3.31,3.31,3.31,3.28,3.29,3.28,3.29,3.31,3.31,3.31,3.3,3.32,3.32,3.31,3.31,3.32,3.28,79.2,-45.0,1.0,2.0,0.0,0.0,5675094
1765224180154,0.0,0.0,1.0,10.0,0.0,0.0,0.0,0.0,0.0,0.0,-0.074054,0.049898,0.928542,-0.77,0.56,-0.07,3.32,3.32,3.32,3.31,3.29,3.29,3.29,3.29,3.32,3.32,3.32,3.32,3.28,3.29,3.28,3.29,3.31,3.31,3.31,3.3,3.32,3.32,3.31,3.31,3.32,3.28,79.2,-45.0,1.0,2.0,0.0,0.0,5675128
1765224180186,0.0,0.0,1.0,10.0,0.0,0.0,0.0,0.0,0.0,0.0,-0.074054,0.049898,0.928542,-0.77,0.56,-0.07,3.32,3.32,3.32,3.31,3.29,3.29,3.29,3.29,3.32,3.32,3.32,3.32,3.29,3.29,3.29,3.29,3.31,3.31,3.31,3.3,3.32,3.32,3.31,3.31,3.32,3.28,79.2,-45.0,1.0,2.0,0.0,0.0,5675160
1765224180219,0.0,0.0,1.0,10.0,0.0,0.0,0.0,0.0,0.0,0.0,-0.074054,0.049898,0.928542,-0.7000000000000001,0.49000000000000005,0.0,3.32,3.32,3.32,3.31,3.29,3.29,3.29,3.29,3.32,3.32,3.32,3.32,3.29,3.29,3.29,3.29,3.31,3.31,3.31,3.3,3.32,3.32,3.31,3.31,3.32,3.28,79.2,-45.0,1.0,2.0,0.0,0.0,5675193
1765224180236,0.0,0.0,1.0,10.0,0.0,0.0,0.0,0.0,0.0,0.0,-0.074054,0.049898,0.928542,-0.7000000000000001,0.49000000000000005,0.0,3.32,3.32,3.32,3.31,3.29,3.29,3.29,3.29,3.32,3.32,3.32,3.32,3.29,3.29,3.29,3.29,3.31,3.31,3.31,3.3,3.32,3.32,3.31,3.31,3.32,3.28,79.2,-45.0,1.0,2.0,0.0,0.0,5675210
1765224180269,0.0,0.0,1.0,10.0,0.0,0.0,0.0,0.0,0.0,0.0,-0.074054,0.049898,0.928542,-0.7000000000000001,0.49000000000000005,0.0,3.32,3.32,3.32,3.31,3.29,3.29,3.29,3.29,3.32,3.32,3.32,3.32,3.29,3.29,3.29,3.29,3.31,3.31,3.31,3.3,3.32,3.32,3.31,3.31,3.32,3.28,79.2,-45.0,1.0,2.0,0.0,0.0,5675243
1765224180319,0.0,0.0,1.0,10.0,0.0,0.0,0.0,0.0,0.0,0.0,-0.074054,0.049898,0.928542,-0.7000000000000001,0.49000000000000005,0.0,3.32,3.32,3.32,3.31,3.29,3.29,3.29,3.29,3.32,3.32,3.32,3.32,3.29,3.29,3.29,3.29,3.31,3.31,3.31,3.3,3.32,3.32,3.31,3.31,3.32,3.28,79.2,-45.0,1.0,2.0,0.0,0.0,5675293
1765224180336,0.0,0.0,1.0,10.0,0.0,0.0,0.0,0.0,0.0,0.0,-0.074054,0.049898,0.928542,-0.7000000000000001,0.49000000000000005,0.0,3.32,3.32,3.32,3.31,3.29,3.29,3.29,3.29,3.32,3.32,3.32,3.32,3.29,3.29,3.29,3.29,3.31,3.31,3.31,3.3,3.32,3.32,3.31,3.31,3.32,3.28,79.2,-45.0,1.0,2.0,0.0,0.0,5675310
1765224180353,0.0,0.0,1.0,10.0,0.0,0.0,0.0,0.0,0.0,0.0,-0.074054,0.049898,0.928542,-0.7000000000000001,0.49000000000000005,0.0,3.32,3.32,3.32,3.31,3.29,3.29,3.29,3.29,3.32,3.32,3.32,3.32,3.29,3.29,3.29,3.29,3.32,3.32,3.32,3.31,3.32,3.32,3.31,3.31,3.32,3.28,79.2,-45.0,1.0,2.0,0.0,0.0,5675327
1765224180370,0.0,0.0,1.0,10.0,0.0,0.0,0.0,0.0,0.0,0.0,-0.074054,0.049898,0.928542,-0.7000000000000001,0.49000000000000005,0.0,3.32,3.32,3.32,3.31,3.29,3.29,3.29,3.29,3.32,3.32,3.32,3.32,3.29,3.29,3.29,3.29,3.32,3.32,3.32,3.31,3.32,3.33,3.33,3.32,3.32,3.28,79.2,-45.0,1.0,2.0,0.0,0.0,5675344
1765224180403,0.0,0.0,1.0,10.0,0.0,0.0,0.0,0.0,0.0,0.0,-0.029646,0.002562,0.9922259999999999,-0.7000000000000001,0.49000000000000005,-0.07,3.32,3.32,3.32,3.31,3.29,3.29,3.29,3.29,3.32,3.32,3.32,3.32,3.29,3.29,3.29,3.29,3.32,3.32,3.32,3.31,3.32,3.33,3.33,3.32,3.32,3.28,79.2,-45.0,1.0,2.0,0.0,0.0,5675377
1765224180436,0.0,0.0,1.0,10.0,0.0,0.0,0.0,0.0,0.0,0.0,-0.029646,0.002562,0.9922259999999999,-0.7000000000000001,0.49000000000000005,-0.07,3.32,3.32,3.32,3.31,3.29,3.29,3.29,3.29,3.32,3.32,3.32,3.32,3.29,3.29,3.29,3.29,3.32,3.32,3.32,3.31,3.32,3.33,3.33,3.32,3.32,3.28,79.2,-45.0,1.0,2.0,0.0,0.0,5675410
1765224180453,0.0,0.0,1.0,10.0,0.0,0.0,0.0,0.0,0.0,0.0,-0.029646,0.002562,0.9922259999999999,-0.7000000000000001,0.49000000000000005,-0.07,3.32,3.32,3.32,3.31,3.29,3.29,3.29,3.29,3.32,3.32,3.32,3.32,3.29,3.29,3.29,3.29,3.32,3.32,3.32,3.31,3.32,3.33,3.33,3.32,3.32,3.28,79.2,-45.0,1.0,2.0,0.0,0.0,5675427
1765224180469,0.0,0.0,1.0,10.0,0.0,0.0,0.0,0.0,0.0,0.0,-0.029646,0.002562,0.9922259999999999,-0.7000000000000001,0.49000000000000005,-0.07,3.32,3.32,3.32,3.31,3.29,3.29,3.29,3.29,3.32,3.32,3.32,3.32,3.29,3.29,3.29,3.29,3.32,3.32,3.32,3.31,3.32,3.33,3.33,3.32,3.32,3.28,79.2,-45.0,1.0,2.0,0.0,0.0,5675443
1765224180519,0.0,0.0,1.0,10.0,0.0,0.0,0.0,0.0,0.0,0.0,-0.029646,0.002562,0.9922259999999999,-0.7000000000000001,0.49000000000000005,-0.07,3.32,3.32,3.32,3.31,3.29,3.29,3.29,3.29,3.32,3.32,3.32,3.32,3.29,3.29,3.29,3.29,3.32,3.32,3.32,3.31,3.32,3.33,3.33,3.32,3.32,3.28,79.2,-45.0,1.0,2.0,0.0,0.0,5675493
1765224180569,0.0,0.0,1.0,10.0,0.0,0.0,0.0,0.0,0.0,0.0,-0.029646,0.002562,0.9922259999999999,-0.7000000000000001,0.49000000000000005,-0.07,3.32,3.32,3.32,3.31,3.29,3.29,3.29,3.29,3.32,3.32,3.32,3.32,3.29,3.29,3.29,3.29,3.32,3.32,3.32,3.31,3.32,3.33,3.33,3.32,3.32,3.28,79.2,-45.0,1.0,2.0,0.0,0.0,5675543
1765224180636,0.0,0.0,1.0,10.0,0.0,0.0,0.0,0.0,0.0,0.0,-0.0305,0.002196,0.992714,-0.7000000000000001,0.49000000000000005,-0.07,3.32,3.32,3.32,3.31,3.29,3.29,3.29,3.29,3.32,3.32,3.32,3.32,3.29,3.29,3.29,3.29,3.32,3.32,3.32,3.31,3.32,3.33,3.33,3.32,3.32,3.28,79.2,-45.0,1.0,2.0,0.0,0.0,5675610
1765224180653,0.0,0.0,1.0,10.0,0.0,0.0,0.0,0.0,0.0,0.0,-0.0305,0.002196,0.992714,-0.77,0.49000000000000005,0.0,3.32,3.32,3.32,3.31,3.29,3.29,3.29,3.29,3.32,3.32,3.32,3.32,3.29,3.29,3.29,3.29,3.32,3.32,3.32,3.31,3.32,3.33,3.33,3.32,3.32,3.28,79.2,-45.0,1.0,2.0,0.0,0.0,5675627
1765224180702,0.0,0.0,1.0,10.0,0.0,0.0,0.0,0.0,0.0,0.0,-0.029768,0.005124,0.992104,-0.77,0.49000000000000005,0.0,3.32,3.32,3.32,3.31,3.29,3.29,3.29,3.29,3.32,3.32,3.32,3.32,3.29,3.29,3.29,3.29,3.32,3.32,3.32,3.31,3.32,3.33,3.33,3.32,3.32,3.28,79.2,-45.0,1.0,2.0,0.0,0.0,5675676
1765224180720,0.0,0.0,1.0,10.0,0.0,0.0,0.0,0.0,0.0,0.0,-0.029768,0.005124,0.992104,-0.77,0.49000000000000005,0.0,3.32,3.32,3.32,3.31,3.29,3.29,3.29,3.29,3.32,3.32,3.32,3.32,3.29,3.29,3.29,3.29,3.32,3.32,3.32,3.31,3.32,3.33,3.33,3.32,3.32,3.28,79.2,-45.0,1.0,2.0,0.0,0.0,5675694
1765224180753,0.0,0.0,1.0,10.0,0.0,0.0,0.0,0.0,0.0,0.0,-0.029768,0.005124,0.992104,-0.77,0.49000000000000005,0.0,3.32,3.32,3.32,3.31,3.29,3.29,3.29,3.29,3.32,3.32,3.32,3.32,3.29,3.29,3.29,3.29,3.32,3.32,3.32,3.31,3.32,3.33,3.33,3.32,3.32,3.28,79.2,-45.0,1.0,2.0,0.0,0.0,5675727
1765224180769,0.0,0.0,1.0,10.0,0.0,0.0,0.0,0.0,0.0,0.0,-0.029768,0.005124,0.992104,-0.77,0.56,0.0,3.32,3.32,3.32,3.31,3.29,3.29,3.29,3.29,3.32,3.32,3.32,3.32,3.29,3.29,3.29,3.29,3.32,3.32,3.32,3.31,3.32,3.33,3.33,3.32,3.32,3.28,79.2,-45.0,1.0,2.0,0.0,0.0,5675743
1765224180786,0.0,0.0,1.0,10.0,0.0,0.0,0.0,0.0,0.0,0.0,-0.029768,0.005124,0.992104,-0.77,0.56,0.0,3.32,3.32,3.32,3.31,3.29,3.29,3.29,3.29,3.32,3.32,3.32,3.32,3.29,3.29,3.29,3.29,3.32,3.32,3.32,3.31,3.32,3.33,3.33,3.32,3.32,3.28,79.2,-45.0,1.0,2.0,0.0,0.0,5675760
1765224180852,0.0,0.0,1.0,10.0,0.0,0.0,0.0,0.0,0.0,0.0,-0.029768,0.005124,0.992104,-0.77,0.56,0.0,3.32,3.32,3.32,3.31,3.29,3.29,3.29,3.29,3.32,3.32,3.32,3.32,3.29,3.29,3.29,3.29,3.32,3.32,3.32,3.31,3.32,3.33,3.33,3.32,3.32,3.28,79.2,-45.0,1.0,2.0,0.0,0.0,5675826
1765224180872,0.0,0.0,1.0,10.0,0.0,0.0,0.0,0.0,0.0,0.0,-0.029768,0.005124,0.992104,-0.77,0.56,0.0,3.32,3.32,3.32,3.31,3.29,3.29,3.29,3.29,3.32,3.32,3.32,3.32,3.29,3.29,3.29,3.29,3.32,3.32,3.32,3.31,3.32,3.33,3.33,3.32,3.32,3.28,79.2,-45.0,1.0,2.0,0.0,0.0,5675846
1765224180885,0.0,0.0,1.0,10.0,0.0,0.0,0.0,0.0,0.0,0.0,-0.029768,0.005124,0.992104,-0.77,0.56,0.0,3.32,3.32,3.32,3.31,3.29,3.29,3.29,3.29,3.32,3.32,3.32,3.32,3.29,3.29,3.29,3.29,3.32,3.32,3.32,3.31,3.32,3.33,3.33,3.32,3.32,3.28,79.2,-45.0,1.0,2.0,0.0,0.0,5675859
1765224180919,0.0,0.0,1.0,10.0,0.0,0.0,0.0,0.0,0.0,0.0,-0.030987999999999998,0.004148,0.9943,-0.77,0.56,0.0,3.32,3.32,3.32,3.31,3.29,3.29,3.29,3.29,3.32,3.32,3.32,3.32,3.29,3.29,3.29,3.29,3.32,3.32,3.32,3.31,3.32,3.33,3.33,3.32,3.32,3.28,79.2,-45.0,1.0,2.0,0.0,0.0,5675893
1765224180985,0.0,0.0,1.0,10.0,0.0,0.0,0.0,0.0,0.0,0.0,-0.030987999999999998,0.004148,0.9943,-0.77,0.49000000000000005,-0.14,3.32,3.32,3.32,3.31,3.29,3.29,3.29,3.29,3.32,3.32,3.32,3.32,3.29,3.29,3.29,3.29,3.32,3.32,3.32,3.31,3.32,3.33,3.33,3.32,3.32,3.28,79.2,-45.0,1.0,2.0,0.0,0.0,5675959
1765224181086,0.0,0.0,1.0,10.0,0.0,0.0,0.0,0.0,0.0,0.0,-0.030987999999999998,0.002196,0.992958,-0.77,0.49000000000000005,-0.14,3.32,3.32,3.32,3.31,3.29,3.29,3.29,3.29,3.32,3.32,3.32,3.32,3.29,3.29,3.29,3.29,3.32,3.32,3.32,3.31,3.32,3.33,3.33,3.32,3.33,3.29,79.4,0.0,1.0,2.0,0.0,0.0,5676060
1765224181103,0.0,0.0,1.0,10.0,0.0,0.0,0.0,0.0,0.0,0.0,-0.030987999999999998,0.002196,0.992958,-0.77,0.49000000000000005,-0.14,3.32,3.32,3.32,3.31,3.29,3.29,3.29,3.29,3.32,3.32,3.32,3.32,3.29,3.29,3.29,3.29,3.32,3.32,3.32,3.31,3.32,3.33,3.33,3.32,3.33,3.29,79.4,0.0,1.0,0.0,1.0,1.0,5676077
1765224181136,0.0,0.0,1.0,10.0,0.0,0.0,0.0,0.0,0.0,0.0,-0.030987999999999998,0.002196,0.992958,-0.77,0.42000000000000004,-0.07,3.32,3.32,3.32,3.31,3.29,3.29,3.29,3.29,3.32,3.32,3.32,3.32,3.29,3.29,3.29,3.29,3.32,3.32,3.32,3.31,3.32,3.33,3.33,3.32,3.33,3.29,79.4,0.0,1.0,0.0,1.0,1.0,5676110
1765224181170,0.0,0.0,1.0,10.0,0.0,0.0,0.0,0.0,0.0,0.0,-0.030987999999999998,0.002196,0.992958,-0.77,0.42000000000000004,-0.07,3.32,3.32,3.32,3.31,3.29,3.29,3.29,3.29,3.32,3.32,3.32,3.32,3.29,3.29,3.29,3.29,3.32,3.32,3.32,3.31,3.32,3.33,3.33,3.32,3.33,3.29,79.4,0.0,1.0,0.0,1.0,1.0,5676144
1765224181186,0.0,0.0,1.0,10.0,0.0,0.0,0.0,0.0,0.0,0.0,-0.030987999999999998,0.002196,0.992958,-0.77,0.42000000000000004,-0.07,3.32,3.32,3.32,3.31,3.29,3.29,3.29,3.29,3.32,3.32,3.32,3.32,3.29,3.29,3.29,3.29,3.32,3.32,3.32,3.31,3.32,3.33,3.33,3.32,3.33,3.29,79.4,0.0,1.0,0.0,1.0,1.0,5676160
1765224181202,0.0,0.0,1.0,10.0,0.0,0.0,0.0,0.0,0.0,0.0,-0.030987999999999998,0.002196,0.992958,-0.77,0.42000000000000004,-0.07,3.32,3.32,3.32,3.31,3.29,3.29,3.29,3.29,3.32,3.32,3.32,3.32,3.29,3.29,3.29,3.29,3.32,3.32,3.32,3.31,3.32,3.33,3.33,3.32,3.33,3.29,79.4,0.0,1.0,0.0,1.0,1.0,5676176
1765224181235,0.0,0.0,1.0,10.0,0.0,0.0,0.0,0.0,0.0,0.0,-0.030987999999999998,0.002196,0.992958,-0.77,0.42000000000000004,-0.07,3.32,3.32,3.32,3.31,3.29,3.29,3.29,3.29,3.32,3.32,3.32,3.32,3.29,3.29,3.29,3.29,3.32,3.32,3.32,3.31,3.32,3.33,3.33,3.32,3.33,3.29,79.4,0.0,1.0,0.0,1.0,1.0,5676209
1765224181286,0.0,0.0,1.0,10.0,0.0,0.0,0.0,0.0,0.0,0.0,-0.030987999999999998,0.002196,0.992958,-0.77,0.42000000000000004,-0.07,3.32,3.32,3.32,3.31,3.29,3.29,3.29,3.29,3.32,3.32,3.32,3.32,3.29,3.29,3.29,3.29,3.32,3.32,3.32,3.31,3.32,3.33,3.33,3.32,3.33,3.29,79.4,0.0,1.0,0.0,1.0,1.0,5676260
1765224181319,0.0,0.0,1.0,10.0,0.0,0.0,0.0,0.0,0.0,0.0,-0.029523999999999998,0.0030499999999999998,0.9928359999999999,-0.77,0.42000000000000004,-0.07,3.32,3.32,3.32,3.31,3.29,3.29,3.29,3.29,3.32,3.32,3.32,3.32,3.29,3.29,3.29,3.29,3.32,3.32,3.32,3.31,3.32,3.33,3.33,3.32,3.33,3.29,79.4,0.0,1.0,0.0,1.0,1.0,5676293
1765224181369,0.0,0.0,1.0,10.0,0.0,0.0,0.0,0.0,0.0,0.0,-0.029523999999999998,0.0030499999999999998,0.9928359999999999,-0.77,0.49000000000000005,0.0,3.32,3.32,3.32,3.31,3.29,3.29,3.29,3.29,3.32,3.32,3.32,3.32,3.29,3.29,3.29,3.29,3.32,3.32,3.32,3.31,3.32,3.33,3.33,3.32,3.33,3.29,79.4,0.0,1.0,0.0,1.0,1.0,5676343
1765224181402,0.0,0.0,1.0,10.0,0.0,0.0,0.0,0.0,0.0,0.0,-0.030744,0.00488,0.993568,-0.77,0.49000000000000005,0.0,3.32,3.32,3.32,3.31,3.29,3.29,3.29,3.29,3.32,3.32,3.32,3.32,3.29,3.29,3.29,3.29,3.32,3.32,3.32,3.31,3.32,3.33,3.33,3.32,3.33,3.29,79.4,0.0,1.0,0.0,1.0,1.0,5676376
1765224181487,0.0,0.0,1.0,10.0,0.0,0.0,0.0,0.0,0.0,0.0,-0.029523999999999998,0.004392,0.995398,-0.77,0.49000000000000005,0.0,3.32,3.32,3.32,3.31,3.29,3.29,3.29,3.29,3.32,3.32,3.32,3.32,3.29,3.29,3.29,3.29,3.32,3.32,3.32,3.31,3.32,3.33,3.33,3.32,3.33,3.29,79.4,0.0,1.0,0.0,1.0,1.0,5676461
1765224181503,0.0,0.0,1.0,10.0,0.0,0.0,0.0,0.0,0.0,0.0,-0.029523999999999998,0.004392,0.995398,-0.7000000000000001,0.49000000000000005,-0.07,3.32,3.32,3.32,3.31,3.29,3.29,3.29,3.29,3.32,3.32,3.32,3.32,3.29,3.29,3.29,3.29,3.32,3.32,3.32,3.31,3.32,3.33,3.33,3.32,3.33,3.29,79.4,0.0,1.0,0.0,1.0,1.0,5676477
1765224181553,0.0,0.0,1.0,10.0,0.0,0.0,0.0,0.0,0.0,0.0,-0.029523999999999998,0.004392,0.995398,-0.7000000000000001,0.49000000000000005,-0.07,3.32,3.32,3.32,3.31,3.29,3.29,3.29,3.29,3.32,3.32,3.32,3.32,3.29,3.29,3.29,3.29,3.32,3.32,3.32,3.31,3.32,3.33,3.33,3.32,3.33,3.29,79.4,0.0,1.0,0.0,1.0,1.0,5676527
1765224181570,0.0,0.0,1.0,10.0,0.0,0.0,0.0,0.0,0.0,0.0,-0.029523999999999998,0.004392,0.995398,-0.7000000000000001,0.49000000000000005,-0.07,3.32,3.32,3.32,3.31,3.29,3.29,3.29,3.29,3.32,3.32,3.32,3.32,3.29,3.29,3.29,3.29,3.32,3.32,3.32,3.31,3.32,3.33,3.33,3.32,3.33,3.29,79.4,0.0,1.0,0.0,1.0,1.0,5676544
1765224181585,0.0,0.0,1.0,10.0,0.0,0.0,0.0,0.0,0.0,0.0,-0.03233,0.005124,0.99064,-0.7000000000000001,0.49000000000000005,-0.07,3.32,3.32,3.32,3.31,3.29,3.29,3.29,3.29,3.32,3.32,3.32,3.32,3.29,3.29,3.29,3.29,3.32,3.32,3.32,3.31,3.32,3.33,3.33,3.32,3.33,3.29,79.4,0.0,1.0,0.0,1.0,1.0,5676559
1765224181603,0.0,0.0,1.0,10.0,0.0,0.0,0.0,0.0,0.0,0.0,-0.03233,0.005124,0.99064,-0.7000000000000001,0.49000000000000005,-0.07,3.32,3.32,3.32,3.31,3.29,3.29,3.29,3.29,3.32,3.32,3.32,3.32,3.29,3.29,3.29,3.29,3.32,3.32,3.32,3.31,3.32,3.33,3.33,3.32,3.33,3.29,79.4,0.0,1.0,0.0,1.0,1.0,5676577
1765224181636,0.0,0.0,1.0,10.0,0.0,0.0,0.0,0.0,0.0,0.0,-0.03233,0.005124,0.99064,-0.7000000000000001,0.49000000000000005,-0.07,3.32,3.32,3.32,3.31,3.29,3.29,3.29,3.29,3.32,3.32,3.32,3.32,3.29,3.29,3.29,3.29,3.32,3.32,3.32,3.31,3.32,3.33,3.33,3.32,3.33,3.29,79.4,0.0,1.0,0.0,1.0,1.0,5676610
1765224181652,0.0,0.0,1.0,10.0,0.0,0.0,0.0,0.0,0.0,0.0,-0.03233,0.005124,0.99064,-0.7000000000000001,0.35000000000000003,0.0,3.32,3.32,3.32,3.31,3.29,3.29,3.29,3.29,3.32,3.32,3.32,3.32,3.29,3.29,3.29,3.29,3.32,3.32,3.32,3.31,3.32,3.33,3.33,3.32,3.33,3.29,79.4,0.0,1.0,0.0,1.0,1.0,5676626
1765224181686,0.0,0.0,1.0,10.0,0.0,0.0,0.0,0.0,0.0,0.0,-0.03233,0.005124,0.99064,-0.7000000000000001,0.35000000000000003,0.0,3.32,3.32,3.32,3.31,3.29,3.29,3.29,3.29,3.32,3.32,3.32,3.32,3.29,3.29,3.29,3.29,3.32,3.32,3.32,3.31,3.32,3.33,3.33,3.32,3.33,3.29,79.4,0.0,1.0,0.0,1.0,1.0,5676660
1765224181770,0.0,0.0,1.0,10.0,0.0,0.0,0.0,0.0,0.0,0.0,-0.033672,0.001952,0.9940559999999999,-0.7000000000000001,0.35000000000000003,0.0,3.32,3.32,3.32,3.31,3.29,3.29,3.29,3.29,3.32,3.32,3.32,3.32,3.29,3.29,3.29,3.29,3.32,3.32,3.32,3.31,3.32,3.33,3.33,3.32,3.33,3.29,79.4,0.0,1.0,0.0,1.0,1.0,5676744
1765224181803,0.0,0.0,1.0,10.0,0.0,0.0,0.0,0.0,0.0,0.0,-0.033672,0.001952,0.9940559999999999,-0.7000000000000001,0.42000000000000004,-0.07,3.32,3.32,3.32,3.31,3.29,3.29,3.29,3.29,3.32,3.32,3.32,3.32,3.29,3.29,3.29,3.29,3.32,3.32,3.32,3.31,3.32,3.33,3.33,3.32,3.33,3.29,79.4,0.0,1.0,0.0,1.0,1.0,5676777
1765224181819,0.0,0.0,1.0,10.0,0.0,0.0,0.0,0.0,0.0,0.0,-0.033672,0.001952,0.9940559999999999,-0.7000000000000001,0.42000000000000004,-0.07,3.32,3.32,3.32,3.31,3.29,3.29,3.29,3.29,3.32,3.32,3.32,3.32,3.29,3.29,3.29,3.29,3.32,3.32,3.32,3.31,3.32,3.33,3.33,3.32,3.33,3.29,79.4,0.0,1.0,0.0,1.0,1.0,5676793
1765224181853,0.0,0.0,1.0,10.0,0.0,0.0,0.0,0.0,0.0,0.0,-0.033672,0.001952,0.9940559999999999,-0.7000000000000001,0.42000000000000004,-0.07,3.32,3.32,3.32,3.31,3.29,3.29,3.29,3.29,3.32,3.32,3.32,3.32,3.29,3.29,3.29,3.29,3.32,3.32,3.32,3.31,3.32,3.33,3.33,3.32,3.33,3.29,79.4,0.0,1.0,0.0,1.0,1.0,5676827
1765224181869,0.0,0.0,1.0,10.0,0.0,0.0,0.0,0.0,0.0,0.0,-0.033672,0.001952,0.9940559999999999,-0.7000000000000001,0.42000000000000004,-0.07,3.32,3.32,3.32,3.31,3.29,3.29,3.29,3.29,3.32,3.32,3.32,3.32,3.29,3.29,3.29,3.29,3.32,3.32,3.32,3.31,3.32,3.33,3.33,3.32,3.33,3.29,79.4,0.0,1.0,0.0,1.0,1.0,5676843
1765224181886,0.0,0.0,1.0,10.0,0.0,0.0,0.0,0.0,0.0,0.0,-0.033672,0.001952,0.9940559999999999,-0.7000000000000001,0.42000000000000004,-0.07,3.32,3.32,3.32,3.31,3.29,3.29,3.29,3.29,3.32,3.32,3.32,3.32,3.29,3.29,3.29,3.29,3.32,3.32,3.32,3.31,3.32,3.33,3.33,3.32,3.33,3.29,79.4,0.0,1.0,0.0,1.0,1.0,5676860
1765224181902,0.0,0.0,1.0,10.0,0.0,0.0,0.0,0.0,0.0,0.0,-0.033672,0.001952,0.9940559999999999,-0.7000000000000001,0.42000000000000004,-0.07,3.32,3.32,3.32,3.31,3.29,3.29,3.29,3.29,3.32,3.32,3.32,3.32,3.29,3.29,3.29,3.29,3.32,3.32,3.32,3.31,3.32,3.33,3.33,3.32,3.33,3.29,79.4,0.0,1.0,0.0,1.0,1.0,5676876
1765224181903,0.0,0.0,1.0,10.0,0.0,0.0,0.0,0.0,0.0,0.0,-0.033672,0.001952,0.9940559999999999,-0.7000000000000001,0.42000000000000004,-0.07,3.32,3.32,3.32,3.31,3.29,3.29,3.29,3.29,3.32,3.32,3.32,3.32,3.29,3.29,3.29,3.29,3.32,3.32,3.32,3.31,3.32,3.33,3.33,3.32,3.33,3.29,79.4,0.0,1.0,0.0,1.0,1.0,5676877
1765224181919,0.0,0.0,1.0,10.0,0.0,0.0,0.0,0.0,0.0,0.0,-0.033672,0.001952,0.9940559999999999,-0.7000000000000001,0.42000000000000004,-0.07,3.32,3.32,3.32,3.31,3.29,3.29,3.29,3.29,3.32,3.32,3.32,3.32,3.29,3.29,3.29,3.29,3.32,3.32,3.32,3.31,3.32,3.33,3.33,3.32,3.33,3.29,79.4,0.0,1.0,0.0,1.0,1.0,5676893
1765224181953,0.0,0.0,1.0,10.0,0.0,0.0,0.0,0.0,0.0,0.0,-0.033672,0.001952,0.9940559999999999,-0.7000000000000001,0.42000000000000004,-0.07,3.32,3.32,3.32,3.31,3.29,3.29,3.29,3.29,3.32,3.32,3.32,3.32,3.29,3.29,3.29,3.29,3.32,3.32,3.32,3.31,3.32,3.33,3.33,3.32,3.33,3.29,79.4,0.0,1.0,0.0,1.0,1.0,5676927
1765224181969,0.0,0.0,1.0,10.0,0.0,0.0,0.0,0.0,0.0,0.0,-0.033672,0.001952,0.9940559999999999,-0.7000000000000001,0.42000000000000004,-0.07,3.32,3.32,3.32,3.31,3.29,3.29,3.29,3.29,3.32,3.32,3.32,3.32,3.29,3.29,3.29,3.29,3.32,3.32,3.32,3.31,3.32,3.33,3.33,3.32,3.33,3.29,79.4,0.0,1.0,0.0,1.0,1.0,5676943
1765224182036,0.0,0.0,1.0,10.0,0.0,0.0,0.0,0.0,0.0,0.0,-0.033672,0.001952,0.9940559999999999,-0.7000000000000001,0.42000000000000004,-0.07,3.32,3.32,3.32,3.31,3.29,3.29,3.29,3.29,3.32,3.32,3.32,3.32,3.29,3.29,3.29,3.29,3.32,3.32,3.32,3.31,3.32,3.33,3.33,3.32,3.33,3.29,79.4,0.0,1.0,0.0,1.0,1.0,5677010
1765224182084,0.0,0.0,1.0,10.0,0.0,0.0,0.0,0.0,0.0,0.0,-0.033672,0.001952,0.9940559999999999,-0.7000000000000001,0.42000000000000004,-0.07,3.32,3.32,3.32,3.31,3.29,3.29,3.29,3.29,3.32,3.32,3.32,3.32,3.29,3.29,3.29,3.29,3.32,3.32,3.32,3.31,3.32,3.33,3.33,3.32,3.33,3.29,79.4,0.0,1.0,0.0,1.0,1.0,5677058
1765224182102,0.0,0.0,1.0,10.0,0.0,0.0,0.0,0.0,0.0,0.0,-0.033672,0.001952,0.9940559999999999,-0.7000000000000001,0.42000000000000004,-0.07,3.32,3.32,3.32,3.31,3.29,3.29,3.29,3.29,3.32,3.32,3.32,3.32,3.29,3.29,3.29,3.29,3.32,3.32,3.32,3.31,3.32,3.33,3.33,3.32,3.33,3.29,79.4,0.0,1.0,0.0,1.0,1.0,5677076
1765224182153,0.0,0.0,1.0,10.0,0.0,0.0,0.0,0.0,0.0,0.0,-0.033672,0.001952,0.9940559999999999,-0.7000000000000001,0.42000000000000004,-0.07,3.32,3.32,3.32,3.31,3.29,3.29,3.29,3.29,3.32,3.32,3.32,3.32,3.29,3.29,3.29,3.29,3.32,3.32,3.32,3.31,3.32,3.33,3.33,3.32,3.33,3.29,79.4,0.0,1.0,0.0,1.0,1.0,5677127
1765224182219,0.0,0.0,1.0,10.0,0.0,0.0,0.0,0.0,0.0,0.0,-0.029523999999999998,0.004026,0.995642,-0.7000000000000001,0.42000000000000004,-0.07,3.32,3.32,3.32,3.31,3.29,3.29,3.29,3.29,3.32,3.32,3.32,3.32,3.29,3.29,3.29,3.29,3.32,3.32,3.32,3.31,3.32,3.33,3.33,3.32,3.33,3.29,79.4,0.0,1.0,0.0,1.0,1.0,5677193
1765224182252,0.0,0.0,1.0,10.0,0.0,0.0,0.0,0.0,0.0,0.0,-0.029523999999999998,0.004026,0.995642,-0.7000000000000001,0.42000000000000004,-0.07,3.32,3.32,3.32,3.31,3.29,3.29,3.29,3.29,3.32,3.32,3.32,3.32,3.29,3.29,3.29,3.29,3.32,3.32,3.32,3.31,3.32,3.33,3.33,3.32,3.33,3.29,79.4,0.0,1.0,0.0,1.0,1.0,5677226
1765224182285,19.0,0.0,1.0,10.0,0.0,0.0,0.0,0.0,0.0,0.0,-0.029523999999999998,0.004026,0.995642,-0.7000000000000001,0.42000000000000004,-0.07,3.32,3.32,3.32,3.31,3.29,3.29,3.29,3.29,3.32,3.32,3.32,3.32,3.29,3.29,3.29,3.29,3.32,3.32,3.32,3.31,3.32,3.33,3.33,3.32,3.33,3.29,79.4,0.0,1.0,0.0,1.0,1.0,5677259
1765224182302,19.0,0.0,1.0,10.0,0.0,0.0,0.0,0.0,0.0,0.0,-0.029523999999999998,0.004026,0.995642,-0.7000000000000001,0.42000000000000004,-0.07,3.32,3.32,3.32,3.31,3.29,3.29,3.29,3.29,3.32,3.32,3.32,3.32,3.29,3.29,3.29,3.29,3.32,3.32,3.32,3.31,3.32,3.33,3.33,3.32,3.33,3.29,79.4,0.0,1.0,0.0,1.0,1.0,5677276
1765224182320,19.0,0.0,1.0,10.0,0.0,0.0,0.0,0.0,0.0,0.0,-0.029523999999999998,0.004026,0.995642,-0.7000000000000001,0.42000000000000004,-0.07,3.32,3.32,3.32,3.31,3.29,3.29,3.29,3.29,3.32,3.32,3.32,3.32,3.29,3.29,3.29,3.29,3.32,3.32,3.32,3.31,3.32,3.33,3.33,3.32,3.33,3.29,79.4,0.0,1.0,0.0,1.0,1.0,5677294
1765224182336,19.0,0.0,1.0,10.0,0.0,0.0,0.0,0.0,0.0,0.0,-0.029523999999999998,0.004026,0.995642,-0.7000000000000001,0.42000000000000004,-0.07,3.32,3.32,3.32,3.31,3.29,3.29,3.29,3.29,3.32,3.32,3.32,3.32,3.29,3.29,3.29,3.29,3.32,3.32,3.32,3.31,3.32,3.33,3.33,3.32,3.33,3.29,79.4,0.0,1.0,0.0,1.0,1.0,5677310
1765224182352,19.0,0.0,1.0,10.0,0.0,0.0,0.0,0.0,0.0,0.0,-0.026474,0.005246,0.990152,-0.7000000000000001,0.42000000000000004,-0.07,3.32,3.32,3.32,3.31,3.29,3.29,3.29,3.29,3.32,3.32,3.32,3.32,3.29,3.29,3.29,3.29,3.32,3.32,3.32,3.31,3.32,3.33,3.33,3.32,3.33,3.29,79.4,0.0,1.0,0.0,1.0,1.0,5677326
1765224182369,19.0,0.0,1.0,10.0,0.0,0.0,0.0,0.0,0.0,0.0,-0.026474,0.005246,0.990152,-0.7000000000000001,0.42000000000000004,-0.07,3.32,3.32,3.32,3.31,3.29,3.29,3.29,3.29,3.32,3.32,3.32,3.32,3.29,3.29,3.29,3.29,3.32,3.32,3.32,3.31,3.32,3.33,3.33,3.32,3.33,3.29,79.4,0.0,1.0,0.0,1.0,1.0,5677343
1765224182403,19.0,0.0,1.0,10.0,0.0,0.0,0.0,0.0,0.0,0.0,-0.026474,0.005246,0.990152,-0.7000000000000001,0.56,-0.07,3.32,3.32,3.32,3.31,3.29,3.29,3.29,3.29,3.32,3.32,3.32,3.32,3.29,3.29,3.29,3.29,3.32,3.32,3.32,3.31,3.32,3.33,3.33,3.32,3.33,3.29,79.4,0.0,1.0,0.0,1.0,1.0,5677377
1765224182436,19.0,0.0,1.0,10.0,0.0,0.0,0.0,0.0,0.0,0.0,-0.026474,0.005246,0.990152,-0.7000000000000001,0.56,-0.07,3.32,3.32,3.32,3.31,3.29,3.29,3.29,3.29,3.32,3.32,3.32,3.32,3.29,3.29,3.29,3.29,3.32,3.32,3.32,3.31,3.32,3.33,3.33,3.32,3.33,3.29,79.4,0.0,1.0,0.0,1.0,1.0,5677410
1765224182519,19.0,0.0,1.0,10.0,0.0,0.0,0.0,0.0,0.0,0.0,-0.030134,0.002074,0.99308,-0.7000000000000001,0.56,-0.07,3.32,3.32,3.32,3.31,3.29,3.29,3.29,3.29,3.32,3.32,3.32,3.32,3.29,3.29,3.29,3.29,3.32,3.32,3.32,3.31,3.32,3.33,3.33,3.32,3.33,3.29,79.4,0.0,1.0,0.0,1.0,1.0,5677493
1765224182536,19.0,0.0,1.0,10.0,0.0,0.0,0.0,0.0,0.0,0.0,-0.030134,0.002074,0.99308,-0.77,0.56,0.0,3.32,3.32,3.32,3.31,3.29,3.29,3.29,3.29,3.32,3.32,3.32,3.32,3.29,3.29,3.29,3.29,3.32,3.32,3.32,3.31,3.32,3.33,3.33,3.32,3.33,3.29,79.4,0.0,1.0,0.0,1.0,1.0,5677510
1765224182587,110.0,0.0,1.0,10.0,0.0,0.0,0.0,0.0,0.0,0.0,-0.030134,0.002074,0.99308,-0.77,0.56,0.0,3.32,3.32,3.32,3.31,3.29,3.29,3.29,3.29,3.32,3.32,3.32,3.32,3.29,3.29,3.29,3.29,3.32,3.32,3.32,3.31,3.32,3.33,3.33,3.32,3.33,3.29,79.4,0.0,1.0,0.0,1.0,1.0,5677561
1765224182603,110.0,0.0,1.0,10.0,0.0,0.0,0.0,0.0,0.0,0.0,-0.030134,0.002074,0.99308,-0.77,0.56,0.0,3.32,3.32,3.32,3.31,3.29,3.29,3.29,3.29,3.32,3.32,3.32,3.32,3.29,3.29,3.29,3.29,3.32,3.32,3.32,3.31,3.32,3.33,3.33,3.32,3.33,3.29,79.4,0.0,1.0,0.0,1.0,1.0,5677577
1765224182620,110.0,0.0,1.0,10.0,0.0,0.0,0.0,0.0,0.0,0.0,-0.030134,0.002074,0.99308,-0.77,0.56,0.0,3.32,3.32,3.32,3.31,3.29,3.29,3.29,3.29,3.32,3.32,3.32,3.32,3.29,3.29,3.29,3.29,3.32,3.32,3.32,3.31,3.32,3.33,3.33,3.32,3.33,3.29,79.4,0.0,1.0,0.0,1.0,1.0,5677594
1765224182652,110.0,0.0,1.0,10.0,0.0,0.0,0.0,0.0,0.0,0.0,-0.030134,0.002074,0.99308,-0.77,0.56,0.0,3.32,3.32,3.32,3.31,3.29,3.29,3.29,3.29,3.32,3.32,3.32,3.32,3.29,3.29,3.29,3.29,3.32,3.32,3.32,3.31,3.32,3.33,3.33,3.32,3.33,3.29,79.4,0.0,1.0,0.0,1.0,1.0,5677626
1765224182669,110.0,0.0,1.0,10.0,0.0,0.0,0.0,0.0,0.0,0.0,-0.030134,0.002074,0.99308,-0.77,0.56,0.0,3.32,3.32,3.32,3.31,3.29,3.29,3.29,3.29,3.32,3.32,3.32,3.32,3.29,3.29,3.29,3.29,3.32,3.32,3.32,3.31,3.32,3.33,3.33,3.32,3.33,3.29,79.4,1.0,1.0,0.0,1.0,1.0,5677643
1765224182719,110.0,0.0,1.0,10.0,0.0,0.0,0.0,0.0,0.0,0.0,-0.030134,0.002074,0.99308,-0.77,0.56,0.0,3.32,3.32,3.32,3.31,3.29,3.29,3.29,3.29,3.32,3.32,3.32,3.32,3.29,3.29,3.29,3.29,3.32,3.32,3.32,3.31,3.32,3.33,3.33,3.32,3.33,3.29,79.4,1.0,1.0,0.0,1.0,1.0,5677693
1765224182720,110.0,0.0,1.0,10.0,213.0,213.0,0.0,0.0,0.0,0.0,-0.030134,0.002074,0.99308,-0.77,0.56,0.0,3.32,3.32,3.32,3.31,3.29,3.29,3.29,3.29,3.32,3.32,3.32,3.32,3.29,3.29,3.29,3.29,3.32,3.32,3.32,3.31,3.32,3.33,3.33,3.32,3.33,3.29,79.4,1.0,1.0,0.0,1.0,1.0,5677694
1765224182753,110.0,0.0,1.0,10.0,213.0,213.0,0.0,0.0,0.011040128571428571,0.0,-0.030134,0.002074,0.99308,-0.77,0.56,0.0,3.32,3.32,3.32,3.31,3.29,3.29,3.29,3.29,3.32,3.32,3.32,3.32,3.29,3.29,3.29,3.29,3.32,3.32,3.32,3.31,3.32,3.33,3.33,3.32,3.33,3.29,79.4,1.0,1.0,0.0,1.0,1.0,5677727
1765224182769,110.0,0.0,1.0,10.0,213.0,213.0,0.011040128571428571,0.0,0.011040128571428571,0.0,-0.030134,0.002074,0.99308,-0.77,0.56,0.0,3.32,3.32,3.32,3.31,3.29,3.29,3.29,3.29,3.32,3.32,3.32,3.32,3.29,3.29,3.29,3.29,3.32,3.32,3.32,3.31,3.32,3.33,3.33,3.32,3.33,3.29,79.4,1.0,1.0,0.0,1.0,1.0,5677743
1765224182820,110.0,0.0,1.0,10.0,213.0,213.0,0.011040128571428571,0.0,0.011040128571428571,0.0,-0.030134,0.002074,0.99308,-0.77,0.56,0.0,3.32,3.32,3.32,3.31,3.29,3.29,3.29,3.29,3.32,3.32,3.32,3.32,3.29,3.29,3.29,3.29,3.32,3.32,3.32,3.31,3.32,3.33,3.33,3.32,3.33,3.29,79.4,1.0,1.0,0.0,1.0,1.0,5677794
1765224182853,110.0,0.0,1.0,10.0,213.0,213.0,0.011040128571428571,0.0,0.011040128571428571,0.0,-0.030134,0.002074,0.99308,-0.77,0.56,0.0,3.32,3.32,3.32,3.31,3.29,3.29,3.29,3.29,3.32,3.32,3.32,3.32,3.29,3.29,3.29,3.29,3.32,3.32,3.32,3.31,3.32,3.33,3.33,3.32,3.33,3.29,79.4,1.0,1.0,0.0,1.0,1.0,5677827
1765224182885,110.0,0.0,1.0,10.0,213.0,213.0,0.011040128571428571,0.0,0.011040128571428571,0.0,-0.030134,0.002074,0.99308,-0.77,0.56,0.0,3.32,3.32,3.32,3.31,3.29,3.29,3.29,3.29,3.32,3.32,3.32,3.32,3.29,3.29,3.29,3.29,3.32,3.32,3.32,3.31,3.32,3.33,3.33,3.32,3.33,3.29,79.4,1.0,1.0,0.0,1.0,1.0,5677859
1765224182934,110.0,0.0,1.0,10.0,213.0,213.0,0.011040128571428571,0.0,0.011040128571428571,0.0,-0.031598,0.003294,0.992592,-0.77,0.56,0.0,3.32,3.32,3.32,3.31,3.29,3.29,3.29,3.29,3.32,3.32,3.32,3.32,3.29,3.29,3.29,3.29,3.32,3.32,3.32,3.31,3.32,3.33,3.33,3.32,3.33,3.29,79.4,1.0,1.0,0.0,1.0,1.0,5677908
1765224182952,110.0,0.0,1.0,10.0,213.0,213.0,0.011040128571428571,0.0,0.011040128571428571,0.0,-0.031598,0.003294,0.992592,-0.7000000000000001,0.49000000000000005,0.0,3.32,3.32,3.32,3.31,3.29,3.29,3.29,3.29,3.32,3.32,3.32,3.32,3.29,3.29,3.29,3.29,3.32,3.32,3.32,3.31,3.32,3.33,3.33,3.32,3.33,3.29,79.4,1.0,1.0,0.0,1.0,1.0,5677926
1765224183001,214.0,0.0,1.0,10.0,213.0,213.0,0.011040128571428571,0.0,0.011040128571428571,0.0,-0.031598,0.003294,0.992592,-0.7000000000000001,0.49000000000000005,0.0,3.32,3.32,3.32,3.31,3.29,3.29,3.29,3.29,3.32,3.32,3.32,3.32,3.29,3.29,3.29,3.29,3.32,3.32,3.32,3.31,3.32,3.33,3.33,3.32,3.33,3.29,79.4,1.0,1.0,0.0,1.0,1.0,5677975
1765224183018,214.0,0.0,1.0,10.0,213.0,213.0,0.011040128571428571,0.0,0.011040128571428571,0.0,-0.031598,0.003294,0.992592,-0.7000000000000001,0.49000000000000005,0.0,3.32,3.32,3.32,3.31,3.29,3.29,3.29,3.29,3.32,3.32,3.32,3.32,3.29,3.29,3.29,3.29,3.32,3.32,3.32,3.31,3.32,3.33,3.33,3.32,3.33,3.29,79.4,1.0,1.0,0.0,1.0,1.0,5677992
1765224183036,214.0,0.0,1.0,10.0,219.0,219.0,0.011040128571428571,0.0,0.011040128571428571,0.0,-0.031598,0.003294,0.992592,-0.7000000000000001,0.49000000000000005,0.0,3.32,3.32,3.32,3.31,3.29,3.29,3.29,3.29,3.32,3.32,3.32,3.32,3.29,3.29,3.29,3.29,3.32,3.32,3.32,3.31,3.32,3.33,3.33,3.32,3.33,3.29,79.4,1.0,1.0,0.0,1.0,1.0,5678010
1765224183053,214.0,0.0,1.0,10.0,219.0,219.0,0.011040128571428571,0.0,0.0,0.0,-0.030255999999999998,0.002928,0.99308,-0.7000000000000001,0.49000000000000005,0.0,3.32,3.32,3.32,3.31,3.29,3.29,3.29,3.29,3.32,3.32,3.32,3.32,3.29,3.29,3.29,3.29,3.32,3.32,3.32,3.31,3.32,3.33,3.33,3.32,3.33,3.29,79.4,1.0,1.0,0.0,1.0,1.0,5678027
1765224183086,214.0,0.0,1.0,10.0,219.0,219.0,0.0,0.0,0.0,0.0,-0.030255999999999998,0.002928,0.99308,-0.77,0.49000000000000005,0.0,3.32,3.32,3.32,3.31,3.29,3.29,3.29,3.29,3.32,3.32,3.32,3.32,3.29,3.29,3.29,3.29,3.32,3.32,3.32,3.31,3.32,3.33,3.33,3.32,3.33,3.29,79.4,1.0,1.0,0.0,1.0,1.0,5678060
1765224183137,214.0,0.0,1.0,10.0,219.0,219.0,0.0,0.0,0.0,0.0,-0.030255999999999998,0.002928,0.99308,-0.77,0.49000000000000005,0.0,3.32,3.32,3.32,3.31,3.29,3.29,3.29,3.29,3.32,3.32,3.32,3.32,3.29,3.29,3.29,3.29,3.32,3.32,3.32,3.31,3.32,3.33,3.33,3.32,3.33,3.29,79.4,1.0,1.0,0.0,1.0,1.0,5678111
1765224183236,214.0,0.0,1.0,10.0,219.0,219.0,0.0,0.0,0.0,0.0,-0.031232,0.0042699999999999995,0.993812,-0.77,0.49000000000000005,0.0,3.32,3.32,3.32,3.31,3.29,3.29,3.29,3.29,3.32,3.32,3.32,3.32,3.29,3.29,3.29,3.29,3.32,3.32,3.32,3.31,3.32,3.33,3.33,3.32,3.33,3.29,79.4,1.0,1.0,0.0,1.0,1.0,5678210
1765224183253,214.0,0.0,1.0,10.0,219.0,219.0,0.0,0.0,0.0,0.0,-0.031232,0.0042699999999999995,0.993812,-0.77,0.56,-0.14,3.32,3.32,3.32,3.31,3.29,3.29,3.29,3.29,3.32,3.32,3.32,3.32,3.29,3.29,3.29,3.29,3.32,3.32,3.32,3.31,3.32,3.33,3.33,3.32,3.33,3.29,79.4,1.0,1.0,0.0,1.0,1.0,5678227
1765224183366,191.0,0.0,1.0,10.0,219.0,219.0,0.0,0.0,0.0,0.0,-0.030744,0.00366,0.992104,-0.77,0.56,-0.07,3.32,3.32,3.32,3.31,3.29,3.29,3.29,3.29,3.32,3.32,3.32,3.32,3.29,3.29,3.29,3.29,3.32,3.32,3.32,3.31,3.32,3.33,3.33,3.32,3.33,3.29,79.4,1.0,1.0,0.0,1.0,1.0,5678340
1765224183384,191.0,0.0,1.0,10.0,219.0,219.0,0.0,0.0,0.0,0.0,-0.030744,0.00366,0.992104,-0.6300000000000001,0.42000000000000004,-0.07,3.32,3.32,3.32,3.31,3.29,3.29,3.29,3.29,3.32,3.32,3.32,3.32,3.29,3.29,3.29,3.29,3.32,3.32,3.32,3.31,3.32,3.33,3.33,3.32,3.33,3.29,79.4,1.0,1.0,0.0,1.0,1.0,5678358
1765224183419,0.0,0.0,1.0,10.0,219.0,219.0,0.0,0.0,0.0,0.0,-0.030744,0.00366,0.992104,-0.6300000000000001,0.42000000000000004,-0.07,3.32,3.32,3.32,3.31,3.29,3.29,3.29,3.29,3.32,3.32,3.32,3.32,3.29,3.29,3.29,3.29,3.32,3.32,3.32,3.31,3.32,3.33,3.33,3.32,3.33,3.29,79.4,1.0,1.0,0.0,1.0,1.0,5678393
1765224183436,0.0,0.0,1.0,10.0,219.0,219.0,0.0,0.0,0.0,0.0,-0.030744,0.00366,0.992104,-0.6300000000000001,0.42000000000000004,-0.07,3.32,3.32,3.32,3.31,3.29,3.29,3.29,3.29,3.32,3.32,3.32,3.32,3.29,3.29,3.29,3.29,3.32,3.32,3.32,3.31,3.32,3.33,3.33,3.32,3.33,3.29,79.4,1.0,1.0,0.0,1.0,1.0,5678410
1765224183453,0.0,0.0,1.0,10.0,0.0,0.0,0.0,0.0,0.0,0.0,-0.030744,0.00366,0.992104,-0.6300000000000001,0.42000000000000004,-0.07,3.32,3.32,3.32,3.31,3.29,3.29,3.29,3.29,3.32,3.32,3.32,3.32,3.29,3.29,3.29,3.29,3.32,3.32,3.32,3.31,3.32,3.33,3.33,3.32,3.33,3.29,79.4,1.0,1.0,0.0,1.0,1.0,5678427
1765224183469,0.0,0.0,1.0,10.0,0.0,0.0,0.0,0.0,0.0,0.0,-0.030744,0.00366,0.992104,-0.6300000000000001,0.42000000000000004,-0.07,3.32,3.32,3.32,3.31,3.29,3.29,3.29,3.29,3.32,3.32,3.32,3.32,3.29,3.29,3.29,3.29,3.32,3.32,3.32,3.31,3.32,3.33,3.33,3.32,3.33,3.29,79.4,1.0,1.0,0.0,1.0,1.0,5678443
1765224183486,0.0,0.0,1.0,10.0,0.0,0.0,0.0,0.0,0.0,0.0,-0.030744,0.00366,0.992104,-0.6300000000000001,0.42000000000000004,-0.07,3.32,3.32,3.32,3.31,3.29,3.29,3.29,3.29,3.32,3.32,3.32,3.32,3.29,3.29,3.29,3.29,3.32,3.32,3.32,3.31,3.32,3.33,3.33,3.32,3.33,3.29,79.4,1.0,1.0,0.0,1.0,1.0,5678460
1765224183553,0.0,0.0,1.0,10.0,0.0,0.0,0.0,0.0,0.0,0.0,-0.030744,0.00366,0.992104,-0.6300000000000001,0.42000000000000004,-0.07,3.32,3.32,3.32,3.31,3.29,3.29,3.29,3.29,3.32,3.32,3.32,3.32,3.29,3.29,3.29,3.29,3.32,3.32,3.32,3.31,3.32,3.33,3.33,3.32,3.33,3.29,79.4,1.0,1.0,0.0,1.0,1.0,5678527
1765224183586,0.0,0.0,1.0,10.0,0.0,0.0,0.0,0.0,0.0,0.0,-0.030744,0.00366,0.992104,-0.6300000000000001,0.42000000000000004,-0.07,3.32,3.32,3.32,3.31,3.29,3.29,3.29,3.29,3.32,3.32,3.32,3.32,3.29,3.29,3.29,3.29,3.32,3.32,3.32,3.31,3.32,3.33,3.33,3.32,3.33,3.29,79.4,1.0,1.0,0.0,1.0,1.0,5678560
1765224183602,0.0,0.0,1.0,10.0,0.0,0.0,0.0,0.0,0.0,0.0,-0.029523999999999998,0.004392,0.99491,-0.6300000000000001,0.42000000000000004,-0.07,3.32,3.32,3.32,3.31,3.29,3.29,3.29,3.29,3.32,3.32,3.32,3.32,3.29,3.29,3.29,3.29,3.32,3.32,3.32,3.31,3.32,3.33,3.33,3.32,3.33,3.29,79.4,1.0,1.0,0.0,1.0,1.0,5678576
1765224183619,0.0,0.0,1.0,10.0,0.0,0.0,0.0,0.0,0.0,0.0,-0.029523999999999998,0.004392,0.99491,-0.6300000000000001,0.42000000000000004,-0.07,3.32,3.32,3.32,3.31,3.29,3.29,3.29,3.29,3.32,3.32,3.32,3.32,3.29,3.29,3.29,3.29,3.32,3.32,3.32,3.31,3.32,3.33,3.33,3.32,3.33,3.29,79.4,1.0,1.0,0.0,1.0,1.0,5678593
1765224183652,0.0,0.0,1.0,10.0,0.0,0.0,0.0,0.0,0.0,0.0,-0.029523999999999998,0.004392,0.99491,-0.6300000000000001,0.42000000000000004,-0.07,3.32,3.32,3.32,3.31,3.29,3.29,3.29,3.29,3.32,3.32,3.32,3.32,3.29,3.29,3.29,3.29,3.32,3.32,3.32,3.31,3.32,3.33,3.33,3.32,3.33,3.29,79.4,1.0,1.0,0.0,1.0,1.0,5678626
1765224183669,0.0,0.0,1.0,10.0,0.0,0.0,0.0,0.0,0.0,0.0,-0.029523999999999998,0.004392,0.99491,-0.6300000000000001,0.42000000000000004,-0.07,3.32,3.32,3.32,3.31,3.29,3.29,3.29,3.29,3.32,3.32,3.32,3.32,3.29,3.29,3.29,3.29,3.32,3.32,3.32,3.31,3.32,3.33,3.33,3.32,3.33,3.29,79.4,1.0,1.0,0.0,1.0,1.0,5678643
1765224183686,0.0,0.0,1.0,10.0,0.0,0.0,0.0,0.0,0.0,0.0,-0.029523999999999998,0.004392,0.99491,-0.6300000000000001,0.42000000000000004,-0.07,3.32,3.32,3.32,3.31,3.29,3.29,3.29,3.29,3.32,3.32,3.32,3.32,3.29,3.29,3.29,3.29,3.32,3.32,3.32,3.31,3.32,3.33,3.33,3.32,3.33,3.29,79.4,1.0,1.0,0.0,1.0,1.0,5678660
1765224183704,0.0,0.0,1.0,10.0,0.0,0.0,0.0,0.0,0.0,0.0,-0.029523999999999998,0.004392,0.99491,-0.7000000000000001,0.49000000000000005,-0.07,3.32,3.32,3.32,3.31,3.29,3.29,3.29,3.29,3.32,3.32,3.32,3.32,3.29,3.29,3.29,3.29,3.32,3.32,3.32,3.31,3.32,3.33,3.33,3.32,3.33,3.29,79.4,1.0,1.0,0.0,1.0,1.0,5678678
1765224183737,0.0,0.0,1.0,10.0,0.0,0.0,0.0,0.0,0.0,0.0,-0.029523999999999998,0.004392,0.99491,-0.7000000000000001,0.49000000000000005,-0.07,3.32,3.32,3.32,3.31,3.29,3.29,3.29,3.29,3.32,3.32,3.32,3.32,3.29,3.29,3.29,3.29,3.32,3.32,3.32,3.31,3.32,3.33,3.33,3.32,3.33,3.29,79.4,1.0,1.0,0.0,1.0,1.0,5678711
1765224183769,0.0,0.0,1.0,10.0,0.0,0.0,0.0,0.0,0.0,0.0,-0.029523999999999998,0.004392,0.99491,-0.7000000000000001,0.49000000000000005,-0.07,3.32,3.32,3.32,3.31,3.29,3.29,3.29,3.29,3.32,3.32,3.32,3.32,3.29,3.29,3.29,3.29,3.32,3.32,3.32,3.31,3.32,3.33,3.33,3.32,3.33,3.29,79.4,1.0,1.0,0.0,1.0,1.0,5678743
1765224183785,0.0,0.0,1.0,10.0,0.0,0.0,0.0,0.0,0.0,0.0,-0.029523999999999998,0.004392,0.99491,-0.7000000000000001,0.49000000000000005,-0.07,3.32,3.32,3.32,3.31,3.29,3.29,3.29,3.29,3.32,3.32,3.32,3.32,3.29,3.29,3.29,3.29,3.32,3.32,3.32,3.31,3.32,3.33,3.33,3.32,3.33,3.29,79.4,1.0,1.0,0.0,1.0,1.0,5678759
1765224183802,0.0,0.0,1.0,10.0,0.0,0.0,0.0,0.0,0.0,0.0,-0.03172,0.003294,0.993202,-0.7000000000000001,0.49000000000000005,-0.07,3.32,3.32,3.32,3.31,3.29,3.29,3.29,3.29,3.32,3.32,3.32,3.32,3.29,3.29,3.29,3.29,3.32,3.32,3.32,3.31,3.32,3.33,3.33,3.32,3.33,3.29,79.4,1.0,1.0,0.0,1.0,1.0,5678776
1765224183836,0.0,0.0,1.0,10.0,0.0,0.0,0.0,0.0,0.0,0.0,-0.03172,0.003294,0.993202,-0.7000000000000001,0.49000000000000005,-0.07,3.32,3.32,3.32,3.31,3.29,3.29,3.29,3.29,3.32,3.32,3.32,3.32,3.29,3.29,3.29,3.29,3.32,3.32,3.32,3.31,3.32,3.33,3.33,3.32,3.33,3.29,79.4,1.0,1.0,0.0,1.0,1.0,5678810
1765224183869,0.0,0.0,1.0,10.0,0.0,0.0,0.0,0.0,0.0,0.0,-0.03172,0.003294,0.993202,-0.7000000000000001,0.49000000000000005,0.0,3.32,3.32,3.32,3.31,3.29,3.29,3.29,3.29,3.32,3.32,3.32,3.32,3.29,3.29,3.29,3.29,3.32,3.32,3.32,3.31,3.32,3.33,3.33,3.32,3.33,3.29,79.4,1.0,1.0,0.0,1.0,1.0,5678843
1765224183886,0.0,0.0,1.0,10.0,0.0,0.0,0.0,0.0,0.0,0.0,-0.03172,0.003294,0.993202,-0.7000000000000001,0.49000000000000005,0.0,3.32,3.32,3.32,3.31,3.29,3.29,3.29,3.29,3.32,3.32,3.32,3.32,3.29,3.29,3.29,3.29,3.32,3.32,3.32,3.31,3.32,3.33,3.33,3.32,3.33,3.29,79.4,1.0,1.0,0.0,1.0,1.0,5678860
1765224183936,0.0,0.0,1.0,10.0,0.0,0.0,0.0,0.0,0.0,0.0,-0.03172,0.003294,0.993202,-0.7000000000000001,0.49000000000000005,0.0,3.32,3.32,3.32,3.31,3.29,3.29,3.29,3.29,3.32,3.32,3.32,3.32,3.29,3.29,3.29,3.29,3.32,3.32,3.32,3.31,3.32,3.33,3.33,3.32,3.33,3.29,79.4,1.0,1.0,0.0,1.0,1.0,5678910
1765224184002,0.0,0.0,1.0,10.0,0.0,0.0,0.0,0.0,0.0,0.0,-0.03172,0.003294,0.993202,-0.7000000000000001,0.49000000000000005,0.0,3.32,3.32,3.32,3.31,3.29,3.29,3.29,3.29,3.32,3.32,3.32,3.32,3.29,3.29,3.29,3.29,3.32,3.32,3.32,3.31,3.32,3.33,3.33,3.32,3.33,3.29,79.4,1.0,1.0,0.0,1.0,1.0,5678976
1765224184036,0.0,0.0,1.0,10.0,0.0,0.0,0.0,0.0,0.0,0.0,-0.029523999999999998,0.0042699999999999995,0.993324,-0.7000000000000001,0.49000000000000005,0.0,3.32,3.32,3.32,3.31,3.29,3.29,3.29,3.29,3.32,3.32,3.32,3.32,3.29,3.29,3.29,3.29,3.32,3.32,3.32,3.31,3.32,3.33,3.33,3.32,3.33,3.29,79.4,1.0,1.0,0.0,1.0,1.0,5679010
1765224184069,0.0,0.0,1.0,10.0,0.0,0.0,0.0,0.0,0.0,0.0,-0.029523999999999998,0.0042699999999999995,0.993324,-0.77,0.49000000000000005,-0.07,3.32,3.32,3.32,3.31,3.29,3.29,3.29,3.29,3.32,3.32,3.32,3.32,3.29,3.29,3.29,3.29,3.32,3.32,3.32,3.31,3.32,3.33,3.33,3.32,3.33,3.29,79.4,1.0,1.0,0.0,1.0,1.0,5679043
1765224184120,0.0,0.0,1.0,10.0,0.0,0.0,0.0,0.0,0.0,0.0,-0.0305,0.003904,0.993324,-0.77,0.49000000000000005,-0.07,3.32,3.32,3.32,3.31,3.29,3.29,3.29,3.29,3.32,3.32,3.32,3.32,3.29,3.29,3.29,3.29,3.32,3.32,3.32,3.31,3.32,3.33,3.33,3.32,3.33,3.29,79.4,1.0,1.0,0.0,1.0,1.0,5679094
1765224184153,0.0,0.0,1.0,10.0,0.0,0.0,0.0,0.0,0.0,0.0,-0.0305,0.003904,0.993324,-0.77,0.49000000000000005,-0.07,3.32,3.32,3.32,3.31,3.29,3.29,3.29,3.29,3.32,3.32,3.32,3.32,3.29,3.29,3.29,3.29,3.32,3.32,3.32,3.31,3.32,3.33,3.33,3.32,3.33,3.29,79.4,1.0,1.0,0.0,1.0,1.0,5679127
1765224184169,0.0,0.0,1.0,10.0,0.0,0.0,0.0,0.0,0.0,0.0,-0.0305,0.003904,0.993324,-0.7000000000000001,0.49000000000000005,-0.14,3.32,3.32,3.32,3.31,3.29,3.29,3.29,3.29,3.32,3.32,3.32,3.32,3.29,3.29,3.29,3.29,3.32,3.32,3.32,3.31,3.32,3.33,3.33,3.32,3.33,3.29,79.4,1.0,1.0,0.0,1.0,1.0,5679143
1765224184186,0.0,0.0,1.0,10.0,0.0,0.0,0.0,0.0,0.0,0.0,-0.0305,0.003904,0.993324,-0.7000000000000001,0.49000000000000005,-0.14,3.32,3.32,3.32,3.31,3.29,3.29,3.29,3.29,3.32,3.32,3.32,3.32,3.29,3.29,3.29,3.29,3.32,3.32,3.32,3.31,3.32,3.33,3.33,3.32,3.33,3.29,79.4,1.0,1.0,0.0,1.0,1.0,5679160
1765224184219,0.0,0.0,1.0,10.0,0.0,0.0,0.0,0.0,0.0,0.0,-0.0305,0.003904,0.993324,-0.7000000000000001,0.49000000000000005,-0.14,3.32,3.32,3.32,3.31,3.29,3.29,3.29,3.29,3.32,3.32,3.32,3.32,3.29,3.29,3.29,3.29,3.32,3.32,3.32,3.31,3.32,3.33,3.33,3.32,3.33,3.29,79.4,1.0,1.0,0.0,1.0,1.0,5679193
1765224184287,0.0,0.0,1.0,10.0,0.0,0.0,0.0,0.0,0.0,0.0,-0.0305,0.003904,0.993324,-0.7000000000000001,0.49000000000000005,-0.14,3.32,3.32,3.32,3.31,3.29,3.29,3.29,3.29,3.32,3.32,3.32,3.32,3.29,3.29,3.29,3.29,3.32,3.32,3.32,3.31,3.32,3.33,3.33,3.32,3.33,3.29,79.4,1.0,1.0,0.0,1.0,1.0,5679261
1765224184351,0.0,0.0,1.0,10.0,0.0,0.0,0.0,0.0,0.0,0.0,-0.029646,0.00366,0.994178,-0.7000000000000001,0.49000000000000005,-0.14,3.32,3.32,3.32,3.31,3.29,3.29,3.29,3.29,3.32,3.32,3.32,3.32,3.29,3.29,3.29,3.29,3.32,3.32,3.32,3.31,3.32,3.33,3.33,3.32,3.33,3.29,79.4,1.0,1.0,0.0,1.0,1.0,5679325
1765224184369,0.0,0.0,1.0,10.0,0.0,0.0,0.0,0.0,0.0,0.0,-0.029646,0.00366,0.994178,-0.77,0.49000000000000005,-0.07,3.32,3.32,3.32,3.31,3.29,3.29,3.29,3.29,3.32,3.32,3.32,3.32,3.29,3.29,3.29,3.29,3.32,3.32,3.32,3.31,3.32,3.33,3.33,3.32,3.33,3.29,79.4,1.0,1.0,0.0,1.0,1.0,5679343
1765224184403,0.0,0.0,1.0,10.0,0.0,0.0,0.0,0.0,0.0,0.0,-0.029646,0.00366,0.994178,-0.77,0.49000000000000005,-0.07,3.32,3.32,3.32,3.31,3.29,3.29,3.29,3.29,3.32,3.32,3.32,3.32,3.29,3.29,3.29,3.29,3.32,3.32,3.32,3.31,3.32,3.33,3.33,3.32,3.33,3.29,79.4,0.0,1.0,0.0,1.0,1.0,5679377
1765224184470,0.0,0.0,1.0,10.0,0.0,0.0,0.0,0.0,0.0,0.0,-0.029646,0.00366,0.994178,-0.77,0.49000000000000005,-0.07,3.32,3.32,3.32,3.31,3.29,3.29,3.29,3.29,3.32,3.32,3.32,3.32,3.29,3.29,3.29,3.29,3.32,3.32,3.32,3.31,3.32,3.33,3.33,3.32,3.33,3.29,79.4,0.0,1.0,0.0,1.0,1.0,5679444
1765224184503,0.0,0.0,1.0,10.0,0.0,0.0,0.0,0.0,0.0,0.0,-0.029646,0.00366,0.994178,-0.77,0.49000000000000005,-0.07,3.32,3.32,3.32,3.31,3.29,3.29,3.29,3.29,3.32,3.32,3.32,3.32,3.29,3.29,3.29,3.29,3.32,3.32,3.32,3.31,3.32,3.33,3.33,3.32,3.33,3.29,79.4,0.0,1.0,0.0,1.0,1.0,5679477
1765224184536,0.0,0.0,1.0,10.0,0.0,0.0,0.0,0.0,0.0,0.0,-0.03111,0.003538,0.99308,-0.77,0.49000000000000005,-0.07,3.32,3.32,3.32,3.31,3.29,3.29,3.29,3.29,3.32,3.32,3.32,3.32,3.29,3.29,3.29,3.29,3.32,3.32,3.32,3.31,3.32,3.33,3.33,3.32,3.33,3.29,79.4,0.0,1.0,0.0,1.0,1.0,5679510
1765224184586,341.0,0.0,1.0,10.0,0.0,0.0,0.0,0.0,0.0,0.0,-0.03111,0.003538,0.99308,-0.77,0.49000000000000005,-0.07,3.32,3.32,3.32,3.31,3.29,3.29,3.29,3.29,3.32,3.32,3.32,3.32,3.29,3.29,3.29,3.29,3.32,3.32,3.32,3.31,3.32,3.33,3.33,3.32,3.33,3.29,79.4,0.0,1.0,0.0,1.0,1.0,5679560
1765224184602,341.0,0.0,1.0,10.0,243.0,243.0,0.0,0.0,0.0,0.0,-0.03111,0.003538,0.99308,-0.77,0.49000000000000005,-0.07,3.32,3.32,3.32,3.31,3.29,3.29,3.29,3.29,3.32,3.32,3.32,3.32,3.29,3.29,3.29,3.29,3.32,3.32,3.32,3.31,3.32,3.33,3.33,3.32,3.33,3.29,79.4,0.0,1.0,0.0,1.0,1.0,5679576
1765224184634,341.0,0.0,1.0,10.0,243.0,243.0,0.0,0.0,0.0,0.011040128571428571,-0.03111,0.003538,0.99308,-0.77,0.49000000000000005,-0.07,3.32,3.32,3.32,3.31,3.29,3.29,3.29,3.29,3.32,3.32,3.32,3.32,3.29,3.29,3.29,3.29,3.32,3.32,3.32,3.31,3.32,3.33,3.33,3.32,3.33,3.29,79.4,0.0,1.0,0.0,1.0,1.0,5679608
1765224184651,341.0,0.0,1.0,10.0,243.0,243.0,0.0,0.0,0.0,0.011040128571428571,-0.03111,0.003538,0.99308,-0.77,0.49000000000000005,-0.07,3.32,3.32,3.32,3.31,3.29,3.29,3.29,3.29,3.32,3.32,3.32,3.32,3.29,3.29,3.29,3.29,3.32,3.32,3.32,3.31,3.32,3.33,3.33,3.32,3.33,3.29,79.4,0.0,1.0,0.0,1.0,1.0,5679625
1765224184702,341.0,0.0,1.0,10.0,243.0,243.0,0.0,0.011040128571428571,0.0,0.011040128571428571,-0.03111,0.003538,0.99308,-0.77,0.49000000000000005,-0.07,3.32,3.32,3.32,3.31,3.29,3.29,3.29,3.29,3.32,3.32,3.32,3.32,3.29,3.29,3.29,3.29,3.32,3.32,3.32,3.31,3.32,3.33,3.33,3.32,3.33,3.29,79.4,0.0,1.0,0.0,1.0,1.0,5679676
1765224184735,341.0,0.0,1.0,10.0,243.0,243.0,0.0,0.011040128571428571,0.0,0.011040128571428571,-0.030744,-0.002928,0.993812,-0.77,0.49000000000000005,-0.07,3.32,3.32,3.32,3.31,3.29,3.29,3.29,3.29,3.32,3.32,3.32,3.32,3.29,3.29,3.29,3.29,3.32,3.32,3.32,3.31,3.32,3.33,3.33,3.32,3.33,3.29,79.4,0.0,1.0,0.0,1.0,1.0,5679709
1765224184786,341.0,0.0,1.0,10.0,243.0,243.0,0.0,0.011040128571428571,0.0,0.011040128571428571,-0.030744,-0.002928,0.993812,-0.8400000000000001,0.6300000000000001,-0.07,3.32,3.32,3.32,3.31,3.29,3.29,3.29,3.29,3.32,3.32,3.32,3.32,3.29,3.29,3.29,3.29,3.32,3.32,3.32,3.31,3.32,3.33,3.33,3.32,3.33,3.29,79.4,0.0,1.0,0.0,1.0,1.0,5679760
1765224184820,341.0,0.0,1.0,10.0,243.0,243.0,0.0,0.011040128571428571,0.0,0.011040128571428571,-0.034648,0.004148,0.99491,-0.8400000000000001,0.6300000000000001,-0.07,3.32,3.32,3.32,3.31,3.29,3.29,3.29,3.29,3.32,3.32,3.32,3.32,3.29,3.29,3.29,3.29,3.32,3.32,3.32,3.31,3.32,3.33,3.33,3.32,3.33,3.29,79.4,0.0,1.0,0.0,1.0,1.0,5679794
1765224184853,341.0,0.0,1.0,10.0,243.0,243.0,0.0,0.011040128571428571,0.0,0.011040128571428571,-0.034648,0.004148,0.99491,-0.56,0.42000000000000004,-0.14,3.32,3.32,3.32,3.31,3.29,3.29,3.29,3.29,3.32,3.32,3.32,3.32,3.29,3.29,3.29,3.29,3.32,3.32,3.32,3.31,3.32,3.33,3.33,3.32,3.33,3.29,79.4,0.0,1.0,0.0,1.0,1.0,5679827
1765224184869,465.0,0.0,1.0,10.0,243.0,243.0,0.0,0.011040128571428571,0.0,0.011040128571428571,-0.034648,0.004148,0.99491,-0.56,0.42000000000000004,-0.14,3.32,3.32,3.32,3.31,3.29,3.29,3.29,3.29,3.32,3.32,3.32,3.32,3.29,3.29,3.29,3.29,3.32,3.32,3.32,3.31,3.32,3.33,3.33,3.32,3.33,3.29,79.4,0.0,1.0,0.0,1.0,1.0,5679843
1765224184886,465.0,0.0,1.0,10.0,386.0,386.0,0.0,0.011040128571428571,0.0,0.011040128571428571,-0.034648,0.004148,0.99491,-0.56,0.42000000000000004,-0.14,3.32,3.32,3.32,3.31,3.29,3.29,3.29,3.29,3.32,3.32,3.32,3.32,3.29,3.29,3.29,3.29,3.32,3.32,3.32,3.31,3.32,3.33,3.33,3.32,3.33,3.29,79.4,0.0,1.0,0.0,1.0,1.0,5679860
1765224184902,465.0,0.0,1.0,10.0,386.0,386.0,0.0,0.011040128571428571,0.011040128571428571,0.011040128571428571,-0.034648,0.004148,0.99491,-0.56,0.42000000000000004,-0.14,3.32,3.32,3.32,3.31,3.29,3.29,3.29,3.29,3.32,3.32,3.32,3.32,3.29,3.29,3.29,3.29,3.32,3.32,3.32,3.31,3.32,3.33,3.33,3.32,3.33,3.29,79.4,0.0,1.0,0.0,1.0,1.0,5679876
1765224184936,465.0,0.0,1.0,10.0,386.0,386.0,0.0,0.011040128571428571,0.011040128571428571,0.011040128571428571,-0.034648,0.004148,0.99491,-0.56,0.42000000000000004,-0.14,3.32,3.32,3.32,3.31,3.29,3.29,3.29,3.29,3.32,3.32,3.32,3.32,3.29,3.29,3.29,3.29,3.32,3.32,3.32,3.31,3.32,3.33,3.33,3.32,3.33,3.29,79.4,0.0,1.0,0.0,1.0,1.0,5679910
1765224184986,465.0,0.0,1.0,10.0,386.0,386.0,0.0,0.011040128571428571,0.011040128571428571,0.011040128571428571,-0.034648,0.004148,0.99491,-0.56,0.42000000000000004,-0.14,3.32,3.32,3.32,3.31,3.29,3.29,3.29,3.29,3.32,3.32,3.32,3.32,3.29,3.29,3.29,3.29,3.32,3.32,3.32,3.31,3.32,3.33,3.33,3.32,3.33,3.29,79.4,0.0,1.0,0.0,1.0,1.0,5679960
1765224185052,465.0,0.0,1.0,10.0,386.0,386.0,0.0,0.011040128571428571,0.011040128571428571,0.011040128571428571,-0.030987999999999998,0.009637999999999999,0.996862,-0.56,0.42000000000000004,-0.14,3.32,3.32,3.32,3.31,3.29,3.29,3.29,3.29,3.32,3.32,3.32,3.32,3.29,3.29,3.29,3.29,3.32,3.32,3.32,3.31,3.32,3.33,3.33,3.32,3.33,3.29,79.4,0.0,1.0,0.0,1.0,1.0,5680026
1765224185086,465.0,0.0,1.0,10.0,386.0,386.0,0.0,0.011040128571428571,0.011040128571428571,0.011040128571428571,-0.030987999999999998,0.009637999999999999,0.996862,-0.6300000000000001,0.6300000000000001,-0.07,3.32,3.32,3.32,3.31,3.29,3.29,3.29,3.29,3.32,3.32,3.32,3.32,3.29,3.29,3.29,3.29,3.32,3.32,3.32,3.31,3.32,3.33,3.33,3.32,3.33,3.29,79.4,0.0,1.0,0.0,1.0,1.0,5680060
1765224185119,465.0,0.0,1.0,10.0,386.0,386.0,0.0,0.011040128571428571,0.011040128571428571,0.011040128571428571,-0.030987999999999998,0.009637999999999999,0.996862,-0.6300000000000001,0.6300000000000001,-0.07,3.32,3.32,3.32,3.31,3.29,3.29,3.29,3.29,3.32,3.32,3.32,3.32,3.29,3.29,3.29,3.29,3.32,3.32,3.32,3.31,3.32,3.33,3.33,3.32,3.33,3.29,79.4,0.0,1.0,0.0,1.0,1.0,5680093
1765224185136,465.0,0.0,1.0,10.0,386.0,386.0,0.0,0.011040128571428571,0.011040128571428571,0.011040128571428571,-0.030987999999999998,0.009637999999999999,0.996862,-0.6300000000000001,0.6300000000000001,-0.07,3.32,3.32,3.32,3.31,3.29,3.29,3.29,3.29,3.32,3.32,3.32,3.32,3.29,3.29,3.29,3.29,3.32,3.32,3.32,3.31,3.32,3.33,3.33,3.32,3.33,3.29,79.4,0.0,1.0,0.0,1.0,1.0,5680110
1765224185169,465.0,0.0,1.0,10.0,386.0,386.0,0.0,0.011040128571428571,0.011040128571428571,0.011040128571428571,-0.030987999999999998,0.009637999999999999,0.996862,-0.6300000000000001,0.6300000000000001,-0.07,3.32,3.32,3.32,3.31,3.29,3.29,3.29,3.29,3.32,3.32,3.32,3.32,3.29,3.29,3.29,3.29,3.32,3.32,3.32,3.31,3.32,3.33,3.33,3.32,3.33,3.29,79.4,0.0,1.0,0.0,1.0,1.0,5680143
1765224185203,465.0,0.0,1.0,10.0,386.0,386.0,0.0,0.011040128571428571,0.011040128571428571,0.011040128571428571,-0.030012,0.00244,0.9916159999999999,-0.6300000000000001,0.6300000000000001,-0.07,3.32,3.32,3.32,3.31,3.29,3.29,3.29,3.29,3.32,3.32,3.32,3.32,3.29,3.29,3.29,3.29,3.32,3.32,3.32,3.31,3.32,3.33,3.33,3.32,3.33,3.29,79.4,0.0,1.0,0.0,1.0,1.0,5680177
1765224185219,465.0,0.0,1.0,10.0,386.0,386.0,0.0,0.011040128571428571,0.011040128571428571,0.011040128571428571,-0.030012,0.00244,0.9916159999999999,-0.7000000000000001,0.49000000000000005,-0.07,3.32,3.32,3.32,3.31,3.29,3.29,3.29,3.29,3.32,3.32,3.32,3.32,3.29,3.29,3.29,3.29,3.32,3.32,3.32,3.31,3.32,3.33,3.33,3.32,3.33,3.29,79.4,0.0,1.0,0.0,1.0,1.0,5680193
1765224185270,1000.0,0.0,1.0,10.0,386.0,386.0,0.0,0.011040128571428571,0.011040128571428571,0.011040128571428571,-0.030012,0.00244,0.9916159999999999,-0.7000000000000001,0.49000000000000005,-0.07,3.32,3.32,3.32,3.31,3.29,3.29,3.29,3.29,3.32,3.32,3.32,3.32,3.29,3.29,3.29,3.29,3.32,3.32,3.32,3.31,3.32,3.33,3.33,3.32,3.33,3.29,79.4,0.0,1.0,0.0,1.0,1.0,5680244
1765224185286,1000.0,0.0,1.0,10.0,386.0,386.0,0.0,0.011040128571428571,0.011040128571428571,0.011040128571428571,-0.030012,0.00244,0.9916159999999999,-0.7000000000000001,0.49000000000000005,-0.07,3.32,3.32,3.32,3.31,3.29,3.29,3.29,3.29,3.32,3.32,3.32,3.32,3.29,3.29,3.29,3.29,3.32,3.32,3.32,3.31,3.32,3.33,3.33,3.32,3.33,3.29,79.4,0.0,1.0,0.0,1.0,1.0,5680260
1765224185303,1000.0,0.0,1.0,10.0,386.0,386.0,0.0,0.011040128571428571,0.011040128571428571,0.011040128571428571,-0.030012,0.00244,0.9916159999999999,-0.7000000000000001,0.49000000000000005,-0.07,3.32,3.32,3.32,3.31,3.29,3.29,3.29,3.29,3.32,3.32,3.32,3.32,3.29,3.29,3.29,3.29,3.32,3.32,3.32,3.31,3.32,3.33,3.33,3.32,3.33,3.29,79.4,0.0,1.0,0.0,1.0,1.0,5680277
1765224185319,1000.0,0.0,1.0,10.0,1000.0,1000.0,0.0,0.011040128571428571,0.011040128571428571,0.011040128571428571,-0.030012,0.00244,0.9916159999999999,-0.7000000000000001,0.49000000000000005,-0.07,3.32,3.32,3.32,3.31,3.29,3.29,3.29,3.29,3.32,3.32,3.32,3.32,3.29,3.29,3.29,3.29,3.32,3.32,3.32,3.31,3.32,3.33,3.33,3.32,3.33,3.29,79.4,0.0,1.0,0.0,1.0,1.0,5680293
1765224185336,1000.0,0.0,1.0,10.0,1000.0,1000.0,0.0,0.011040128571428571,0.011040128571428571,0.011040128571428571,-0.030012,0.00244,0.9916159999999999,-0.7000000000000001,0.49000000000000005,-0.07,3.32,3.32,3.32,3.31,3.29,3.29,3.29,3.29,3.32,3.32,3.32,3.32,3.29,3.29,3.29,3.29,3.32,3.32,3.32,3.31,3.32,3.33,3.33,3.32,3.33,3.29,79.4,0.0,1.0,0.0,1.0,1.0,5680310
1765224185353,1000.0,0.0,1.0,10.0,1000.0,1000.0,0.0,0.011040128571428571,0.011040128571428571,0.011040128571428571,-0.030012,0.00244,0.9916159999999999,-0.7000000000000001,0.49000000000000005,-0.07,3.32,3.32,3.32,3.31,3.29,3.29,3.29,3.29,3.32,3.32,3.32,3.32,3.29,3.29,3.29,3.29,3.32,3.32,3.32,3.31,3.32,3.33,3.33,3.32,3.33,3.29,79.4,0.0,1.0,0.0,1.0,1.0,5680327
1765224185387,1000.0,0.0,1.0,10.0,1000.0,1000.0,0.011040128571428571,0.011040128571428571,0.011040128571428571,0.011040128571428571,-0.030012,0.00244,0.9916159999999999,-0.7000000000000001,0.49000000000000005,-0.07,3.32,3.32,3.32,3.31,3.29,3.29,3.29,3.29,3.32,3.32,3.32,3.32,3.29,3.29,3.29,3.29,3.32,3.32,3.32,3.31,3.32,3.33,3.33,3.32,3.33,3.29,79.4,0.0,1.0,0.0,1.0,1.0,5680361
1765224185402,1000.0,0.0,1.0,10.0,1000.0,1000.0,0.011040128571428571,0.011040128571428571,0.011040128571428571,0.011040128571428571,-0.030012,0.00244,0.9916159999999999,-0.7000000000000001,0.49000000000000005,-0.07,3.32,3.32,3.32,3.31,3.29,3.29,3.29,3.29,3.32,3.32,3.32,3.32,3.29,3.29,3.29,3.29,3.32,3.32,3.32,3.31,3.32,3.33,3.33,3.32,3.33,3.29,79.4,0.0,1.0,0.0,1.0,1.0,5680376
1765224185454,1000.0,0.0,1.0,10.0,1000.0,1000.0,0.011040128571428571,0.011040128571428571,0.011040128571428571,0.011040128571428571,-0.030012,0.00244,0.9916159999999999,-0.7000000000000001,0.49000000000000005,-0.07,3.32,3.32,3.32,3.31,3.29,3.29,3.29,3.29,3.32,3.32,3.32,3.32,3.29,3.29,3.29,3.29,3.32,3.32,3.32,3.31,3.32,3.33,3.33,3.32,3.33,3.29,79.4,0.0,1.0,0.0,1.0,1.0,5680428
1765224185502,1000.0,0.0,1.0,10.0,1000.0,1000.0,0.011040128571428571,0.011040128571428571,0.011040128571428571,0.011040128571428571,-0.030255999999999998,0.0046359999999999995,0.993324,-0.7000000000000001,0.49000000000000005,-0.07,3.32,3.32,3.32,3.31,3.29,3.29,3.29,3.29,3.32,3.32,3.32,3.32,3.29,3.29,3.29,3.29,3.32,3.32,3.32,3.31,3.32,3.33,3.33,3.32,3.33,3.29,79.4,0.0,1.0,0.0,1.0,1.0,5680476
1765224185535,1000.0,0.0,1.0,10.0,1000.0,1000.0,0.011040128571428571,0.011040128571428571,0.011040128571428571,0.011040128571428571,-0.030255999999999998,0.0046359999999999995,0.993324,-0.77,0.35000000000000003,0.07,3.32,3.32,3.32,3.31,3.29,3.29,3.29,3.29,3.32,3.32,3.32,3.32,3.29,3.29,3.29,3.29,3.32,3.32,3.32,3.31,3.32,3.33,3.33,3.32,3.33,3.29,79.4,0.0,1.0,0.0,1.0,1.0,5680509
1765224185586,1000.0,0.0,1.0,10.0,1000.0,1000.0,0.011040128571428571,0.011040128571428571,0.011040128571428571,0.011040128571428571,-0.030255999999999998,0.006954,0.992348,-0.77,0.35000000000000003,0.07,3.32,3.32,3.32,3.31,3.29,3.29,3.29,3.29,3.32,3.32,3.32,3.32,3.29,3.29,3.29,3.29,3.32,3.32,3.32,3.31,3.32,3.33,3.33,3.32,3.33,3.29,79.4,0.0,1.0,0.0,1.0,1.0,5680560
1765224185603,1000.0,0.0,1.0,10.0,1000.0,1000.0,0.011040128571428571,0.011040128571428571,0.011040128571428571,0.011040128571428571,-0.030255999999999998,0.006954,0.992348,-0.77,0.35000000000000003,0.07,3.32,3.32,3.32,3.31,3.29,3.29,3.29,3.29,3.32,3.32,3.32,3.32,3.29,3.29,3.29,3.29,3.32,3.32,3.32,3.31,3.32,3.33,3.33,3.32,3.33,3.29,79.4,0.0,1.0,0.0,1.0,1.0,5680577
1765224185619,1000.0,0.0,1.0,10.0,1000.0,1000.0,0.011040128571428571,0.011040128571428571,0.011040128571428571,0.011040128571428571,-0.030255999999999998,0.006954,0.992348,-0.8400000000000001,0.49000000000000005,-17.92,3.32,3.32,3.32,3.31,3.29,3.29,3.29,3.29,3.32,3.32,3.32,3.32,3.29,3.29,3.29,3.29,3.32,3.32,3.32,3.31,3.32,3.33,3.33,3.32,3.33,3.29,79.4,0.0,1.0,0.0,1.0,1.0,5680593
1765224185653,1000.0,0.0,1.0,10.0,1000.0,1000.0,0.011040128571428571,0.011040128571428571,0.0,0.011040128571428571,-0.030255999999999998,0.006954,0.992348,-0.8400000000000001,0.49000000000000005,-17.92,3.32,3.32,3.32,3.31,3.29,3.29,3.29,3.29,3.32,3.32,3.32,3.32,3.29,3.29,3.29,3.29,3.32,3.32,3.32,3.31,3.32,3.33,3.33,3.32,3.33,3.29,79.4,0.0,1.0,0.0,1.0,1.0,5680627
1765224185686,1000.0,0.0,1.0,10.0,1000.0,1000.0,0.011040128571428571,0.011040128571428571,0.0,0.011040128571428571,-0.030255999999999998,0.006954,0.992348,-0.8400000000000001,0.49000000000000005,-17.92,3.32,3.32,3.32,3.31,3.29,3.29,3.29,3.29,3.32,3.32,3.32,3.32,3.29,3.29,3.29,3.29,3.32,3.32,3.32,3.31,3.32,3.33,3.33,3.32,3.33,3.29,79.4,0.0,1.0,0.0,1.0,1.0,5680660
1765224185737,1000.0,0.0,1.0,10.0,1000.0,1000.0,0.011040128571428571,0.011040128571428571,0.0,0.011040128571428571,-0.030255999999999998,0.006954,0.992348,-0.8400000000000001,0.49000000000000005,-17.92,3.32,3.32,3.32,3.31,3.29,3.29,3.29,3.29,3.32,3.32,3.32,3.32,3.29,3.29,3.29,3.29,3.32,3.32,3.32,3.31,3.32,3.33,3.33,3.32,3.33,3.29,79.4,0.0,1.0,0.0,1.0,1.0,5680711
1765224185803,1000.0,0.0,1.0,10.0,1000.0,1000.0,0.011040128571428571,0.011040128571428571,0.0,0.011040128571428571,-0.029768,0.002196,0.991738,-0.8400000000000001,0.49000000000000005,-17.92,3.32,3.32,3.32,3.31,3.29,3.29,3.29,3.29,3.32,3.32,3.32,3.32,3.29,3.29,3.29,3.29,3.32,3.32,3.32,3.31,3.32,3.33,3.33,3.32,3.33,3.29,79.4,0.0,1.0,0.0,1.0,1.0,5680777
1765224185853,1000.0,0.0,1.0,10.0,1000.0,1000.0,0.011040128571428571,20.104074128571433,0.0,0.011040128571428571,-0.029768,0.002196,0.991738,-0.8400000000000001,0.49000000000000005,-17.92,3.32,3.32,3.32,3.31,3.29,3.29,3.29,3.29,3.32,3.32,3.32,3.32,3.29,3.29,3.29,3.29,3.32,3.32,3.32,3.31,3.32,3.33,3.33,3.32,3.33,3.29,79.4,0.0,1.0,0.0,1.0,1.0,5680827
1765224185870,1000.0,0.0,1.0,10.0,1000.0,1000.0,0.011040128571428571,20.104074128571433,0.0,0.011040128571428571,-0.029768,0.002196,0.991738,-0.77,0.49000000000000005,-0.07,3.32,3.32,3.32,3.31,3.29,3.29,3.29,3.29,3.32,3.32,3.32,3.32,3.29,3.29,3.29,3.29,3.32,3.32,3.32,3.31,3.32,3.33,3.33,3.32,3.33,3.29,79.4,0.0,1.0,0.0,1.0,1.0,5680844
1765224185952,1000.0,0.0,1.0,10.0,1000.0,1000.0,0.011040128571428571,20.104074128571433,0.0,0.011040128571428571,-0.024766,0.004758,0.9952759999999999,-0.77,0.49000000000000005,-0.07,3.32,3.32,3.32,3.31,3.29,3.29,3.29,3.29,3.32,3.32,3.32,3.32,3.29,3.29,3.29,3.29,3.32,3.32,3.32,3.31,3.32,3.33,3.33,3.32,3.33,3.29,79.4,0.0,1.0,0.0,1.0,1.0,5680926
1765224185970,1000.0,0.0,1.0,10.0,1000.0,1000.0,0.011040128571428571,20.104074128571433,0.0,0.011040128571428571,-0.024766,0.004758,0.9952759999999999,-0.8400000000000001,0.42000000000000004,0.07,3.32,3.32,3.32,3.31,3.29,3.29,3.29,3.29,3.32,3.32,3.32,3.32,3.29,3.29,3.29,3.29,3.32,3.32,3.32,3.31,3.32,3.33,3.33,3.32,3.33,3.29,79.4,0.0,1.0,0.0,1.0,1.0,5680944
1765224186003,1000.0,0.0,1.0,10.0,1000.0,1000.0,0.011040128571428571,20.104074128571433,0.0,0.011040128571428571,-0.024766,0.004758,0.9952759999999999,-0.8400000000000001,0.42000000000000004,0.07,3.32,3.32,3.32,3.31,3.29,3.29,3.29,3.29,3.32,3.32,3.32,3.32,3.29,3.29,3.29,3.29,3.32,3.32,3.32,3.31,3.32,3.33,3.33,3.32,3.33,3.29,79.4,0.0,1.0,0.0,1.0,1.0,5680977
1765224186019,1000.0,0.0,1.0,10.0,1000.0,1000.0,0.011040128571428571,20.104074128571433,0.0,0.011040128571428571,-0.024766,0.004758,0.9952759999999999,-0.8400000000000001,0.42000000000000004,0.07,3.32,3.32,3.32,3.31,3.29,3.29,3.29,3.29,3.32,3.32,3.32,3.32,3.29,3.29,3.29,3.29,3.32,3.32,3.32,3.31,3.32,3.33,3.33,3.32,3.33,3.29,79.4,0.0,1.0,0.0,1.0,1.0,5680993
1765224186036,1000.0,0.0,1.0,10.0,1000.0,1000.0,0.011040128571428571,20.104074128571433,0.0,0.011040128571428571,-0.024766,0.004758,0.9952759999999999,-0.8400000000000001,0.42000000000000004,0.07,3.32,3.32,3.32,3.31,3.29,3.29,3.29,3.29,3.32,3.32,3.32,3.32,3.29,3.29,3.29,3.29,3.32,3.32,3.32,3.31,3.32,3.33,3.33,3.32,3.33,3.29,79.4,0.0,1.0,0.0,1.0,1.0,5681010
1765224186053,1000.0,0.0,1.0,10.0,1000.0,1000.0,0.011040128571428571,20.104074128571433,21.693852642857145,21.27432775714286,-0.024766,0.004758,0.9952759999999999,-0.8400000000000001,0.42000000000000004,0.07,3.32,3.32,3.32,3.31,3.29,3.29,3.29,3.29,3.32,3.32,3.32,3.32,3.29,3.29,3.29,3.29,3.32,3.32,3.32,3.31,3.32,3.33,3.33,3.32,3.33,3.29,79.4,0.0,1.0,0.0,1.0,1.0,5681027
1765224186069,1000.0,0.0,1.0,10.0,1000.0,1000.0,22.102337400000003,20.104074128571433,21.693852642857145,21.27432775714286,-0.024766,0.004758,0.9952759999999999,-0.8400000000000001,0.42000000000000004,0.07,3.32,3.32,3.32,3.31,3.29,3.29,3.29,3.29,3.32,3.32,3.32,3.32,3.29,3.29,3.29,3.29,3.32,3.32,3.32,3.31,3.32,3.33,3.33,3.32,3.33,3.29,79.4,0.0,1.0,0.0,1.0,1.0,5681043
1765224186120,1000.0,0.0,1.0,10.0,1000.0,1000.0,22.102337400000003,22.102337400000003,21.693852642857145,21.27432775714286,-0.024766,0.004758,0.9952759999999999,-0.8400000000000001,0.42000000000000004,0.07,3.32,3.32,3.32,3.31,3.29,3.29,3.29,3.29,3.32,3.32,3.32,3.32,3.29,3.29,3.29,3.29,3.32,3.32,3.32,3.31,3.32,3.33,3.33,3.32,3.33,3.29,79.4,0.0,1.0,0.0,1.0,1.0,5681094
1765224186136,1000.0,0.0,1.0,10.0,1000.0,1000.0,22.102337400000003,22.102337400000003,21.693852642857145,21.27432775714286,-0.032695999999999996,0.006222,0.99186,-0.8400000000000001,0.42000000000000004,0.07,3.32,3.32,3.32,3.31,3.29,3.29,3.29,3.29,3.32,3.32,3.32,3.32,3.29,3.29,3.29,3.29,3.32,3.32,3.32,3.31,3.32,3.33,3.33,3.32,3.33,3.29,79.4,0.0,1.0,0.0,1.0,1.0,5681110
1765224186153,1000.0,0.0,1.0,10.0,1000.0,1000.0,22.102337400000003,22.102337400000003,21.693852642857145,21.27432775714286,-0.032695999999999996,0.006222,0.99186,-0.8400000000000001,0.42000000000000004,0.07,3.32,3.32,3.32,3.31,3.29,3.29,3.29,3.29,3.32,3.32,3.32,3.32,3.29,3.29,3.29,3.29,3.32,3.32,3.32,3.31,3.32,3.33,3.33,3.32,3.32,3.26,79.2,10.0,1.0,0.0,1.0,1.0,5681127
1765224186202,1000.0,0.0,1.0,10.0,1000.0,1000.0,22.102337400000003,22.102337400000003,21.693852642857145,21.27432775714286,-0.032695999999999996,0.006222,0.99186,-0.8400000000000001,0.42000000000000004,0.07,3.32,3.32,3.32,3.31,3.29,3.29,3.29,3.29,3.32,3.32,3.32,3.32,3.29,3.29,3.29,3.29,3.32,3.32,3.32,3.31,3.32,3.33,3.33,3.32,3.32,3.26,79.2,10.0,1.0,0.0,1.0,1.0,5681176
