timestamp,THROTTLE,BRAKE,ECU_MODE_ID,TORQUE_GAIN,TORQUE_REF_LEFT_MOTOR,TORQUE_REF_RIGHT_MOTOR,LEFT_MOTOR_SPEED,RIGHT_MOTOR_SPEED,REAR_LEFT_WHEEL_SPEED,REAR_RIGHT_WHEEL_SPEED,ACCEL_LONGITUDINAL,ACCEL_LATERAL,ACCEL_NORMAL,VEL_ANGULAR_YAW,VEL_ANGULAR_PITCH,VEL_ANGULAR_ROLL,STACK_1_CELL_1,STACK_1_CELL_2,STACK_1_CELL_3,STACK_1_CELL_4,STACK_2_CELL_1,STACK_2_CELL_2,STACK_2_CELL_3,STACK_2_CELL_4,STACK_3_CELL_1,STACK_3_CELL_2,STACK_3_CELL_3,STACK_3_CELL_4,STACK_4_CELL_1,STACK_4_CELL_2,STACK_4_CELL_3,STACK_4_CELL_4,STACK_5_CELL_1,STACK_5_CELL_2,STACK_5_CELL_3,STACK_5_CELL_4,STACK_6_CELL_1,STACK_6_CELL_2,STACK_6_CELL_3,STACK_6_CELL_4,MAX_VOLTAGE,MIN_VOLTAGE,TOTAL_VOLTAGE,SHUNT_CURRENT,BMS_MODE_ID,BMS_ERROR_ID,AIR_P,AIR_N,t,LEFT_MOTOR_RPM,RIGHT_MOTOR_RPM
1765225260021,0.0,0.0,2.0,25.0,0.0,0.0,0.0,0.0,0.0,0.0,-0.048799999999999996,0.021228,0.991982,-0.7000000000000001,0.56,0.07,3.28,3.32,3.26,3.27,3.26,3.27,3.26,3.27,3.29,3.3,3.29,3.29,3.26,3.27,3.26,3.29,3.28,3.28,3.28,3.28,3.3,3.31,3.29,3.29,3.32,3.26,78.7,1.0,1.0,0.0,1.0,1.0,6754995,0.0,0.0
1765225260038,0.0,0.0,2.0,25.0,0.0,0.0,0.0,0.0,0.0,0.0,-0.048799999999999996,0.021228,0.991982,-0.7000000000000001,0.56,0.07,3.28,3.32,3.26,3.27,3.26,3.27,3.26,3.27,3.29,3.3,3.29,3.29,3.26,3.27,3.26,3.29,3.28,3.28,3.28,3.28,3.3,3.31,3.29,3.29,3.32,3.26,78.7,1.0,1.0,0.0,1.0,1.0,6755012,0.0,0.0
1765225260054,0.0,0.0,2.0,25.0,0.0,0.0,0.0,0.0,0.0,0.0,-0.048799999999999996,0.021228,0.991982,-0.56,0.28,0.0,3.28,3.32,3.26,3.27,3.26,3.27,3.26,3.27,3.29,3.3,3.29,3.29,3.26,3.27,3.26,3.29,3.28,3.28,3.28,3.28,3.3,3.31,3.29,3.29,3.32,3.26,78.7,1.0,1.0,0.0,1.0,1.0,6755028,0.0,0.0
1765225260139,0.0,0.0,2.0,25.0,0.0,0.0,0.0,0.0,0.0,0.0,-0.051606,0.018788,0.98881,-0.56,0.28,0.0,3.28,3.32,3.26,3.27,3.26,3.27,3.26,3.27,3.29,3.3,3.29,3.29,3.26,3.27,3.26,3.29,3.28,3.28,3.28,3.28,3.3,3.31,3.29,3.29,3.32,3.26,78.7,1.0,1.0,0.0,1.0,1.0,6755113,0.0,0.0
1765225260156,0.0,0.0,2.0,25.0,0.0,0.0,0.0,0.0,0.0,0.0,-0.051606,0.018788,0.98881,-0.6300000000000001,0.49000000000000005,0.0,3.28,3.32,3.26,3.27,3.26,3.27,3.26,3.27,3.29,3.3,3.29,3.29,3.26,3.27,3.26,3.29,3.28,3.28,3.28,3.28,3.3,3.31,3.29,3.29,3.32,3.26,78.7,1.0,1.0,0.0,1.0,1.0,6755130,0.0,0.0
1765225260189,0.0,0.0,2.0,25.0,0.0,0.0,0.0,0.0,0.0,0.0,-0.051606,0.018788,0.98881,-0.6300000000000001,0.49000000000000005,0.0,3.28,3.32,3.26,3.27,3.26,3.27,3.26,3.27,3.29,3.3,3.29,3.29,3.26,3.27,3.26,3.29,3.28,3.28,3.28,3.28,3.3,3.31,3.29,3.29,3.32,3.26,78.7,1.0,1.0,0.0,1.0,1.0,6755163,0.0,0.0
1765225260255,0.0,0.0,2.0,25.0,0.0,0.0,0.0,0.0,0.0,0.0,-0.051484,0.02196,0.990518,-0.6300000000000001,0.49000000000000005,0.0,3.28,3.32,3.26,3.27,3.26,3.27,3.26,3.27,3.29,3.3,3.29,3.29,3.26,3.27,3.26,3.29,3.28,3.28,3.28,3.28,3.3,3.31,3.29,3.29,3.32,3.26,78.7,1.0,1.0,0.0,1.0,1.0,6755229,0.0,0.0
1765225260273,0.0,0.0,2.0,25.0,0.0,0.0,0.0,0.0,0.0,0.0,-0.051484,0.02196,0.990518,-0.56,0.42000000000000004,0.0,3.28,3.32,3.26,3.27,3.26,3.27,3.26,3.27,3.29,3.3,3.29,3.29,3.26,3.27,3.26,3.29,3.28,3.28,3.28,3.28,3.3,3.31,3.29,3.29,3.32,3.26,78.7,1.0,1.0,0.0,1.0,1.0,6755247,0.0,0.0
1765225260308,0.0,0.0,2.0,25.0,0.0,0.0,0.0,0.0,0.0,0.0,-0.05063,0.01952,0.9928359999999999,-0.56,0.42000000000000004,0.0,3.28,3.32,3.26,3.27,3.26,3.27,3.26,3.27,3.29,3.3,3.29,3.29,3.26,3.27,3.26,3.29,3.28,3.28,3.28,3.28,3.3,3.31,3.29,3.29,3.32,3.26,78.7,1.0,1.0,0.0,1.0,1.0,6755282,0.0,0.0
1765225260340,0.0,0.0,2.0,25.0,0.0,0.0,0.0,0.0,0.0,0.0,-0.05063,0.01952,0.9928359999999999,-0.56,0.42000000000000004,0.0,3.28,3.32,3.26,3.27,3.26,3.27,3.26,3.27,3.29,3.3,3.29,3.29,3.26,3.27,3.26,3.29,3.28,3.28,3.28,3.28,3.3,3.31,3.29,3.29,3.32,3.26,78.7,1.0,1.0,0.0,1.0,1.0,6755314,0.0,0.0
1765225260356,0.0,0.0,1.0,10.0,0.0,0.0,0.0,0.0,0.0,0.0,-0.05063,0.01952,0.9928359999999999,-0.56,0.42000000000000004,0.0,3.28,3.32,3.26,3.27,3.26,3.27,3.26,3.27,3.29,3.3,3.29,3.29,3.26,3.27,3.26,3.29,3.28,3.28,3.28,3.28,3.3,3.31,3.29,3.29,3.32,3.26,78.7,1.0,1.0,0.0,1.0,1.0,6755330,0.0,0.0
1765225260373,0.0,0.0,1.0,10.0,0.0,0.0,0.0,0.0,0.0,0.0,-0.05063,0.01952,0.9928359999999999,-0.6300000000000001,0.28,-0.07,3.28,3.32,3.26,3.27,3.26,3.27,3.26,3.27,3.29,3.3,3.29,3.29,3.26,3.27,3.26,3.29,3.28,3.28,3.28,3.28,3.3,3.31,3.29,3.29,3.32,3.26,78.7,1.0,1.0,0.0,1.0,1.0,6755347,0.0,0.0
1765225260390,0.0,0.0,1.0,10.0,0.0,0.0,0.0,0.0,0.0,0.0,-0.05063,0.01952,0.9928359999999999,-0.6300000000000001,0.28,-0.07,3.28,3.32,3.26,3.27,3.26,3.27,3.26,3.27,3.29,3.3,3.29,3.29,3.26,3.27,3.26,3.29,3.28,3.28,3.28,3.28,3.3,3.31,3.29,3.29,3.32,3.26,78.7,1.0,1.0,0.0,1.0,1.0,6755364,0.0,0.0
1765225260422,0.0,0.0,1.0,10.0,0.0,0.0,0.0,0.0,0.0,0.0,-0.05063,0.01952,0.9928359999999999,-0.6300000000000001,0.28,-0.07,3.28,3.32,3.26,3.27,3.26,3.27,3.26,3.27,3.29,3.3,3.29,3.29,3.26,3.27,3.26,3.29,3.28,3.28,3.28,3.28,3.3,3.31,3.29,3.29,3.32,3.26,78.7,1.0,1.0,0.0,1.0,1.0,6755396,0.0,0.0
1765225260472,0.0,0.0,1.0,10.0,0.0,0.0,0.0,0.0,0.0,0.0,-0.05063,0.01952,0.9928359999999999,-0.6300000000000001,0.28,-0.07,3.28,3.32,3.26,3.27,3.26,3.27,3.26,3.27,3.29,3.3,3.29,3.29,3.26,3.27,3.26,3.29,3.28,3.28,3.28,3.28,3.3,3.31,3.29,3.29,3.32,3.26,78.7,1.0,1.0,0.0,1.0,1.0,6755446,0.0,0.0
1765225260540,0.0,0.0,1.0,10.0,0.0,0.0,0.0,0.0,0.0,0.0,-0.047335999999999996,0.020739999999999998,0.99125,-0.6300000000000001,0.28,-0.07,3.28,3.32,3.26,3.27,3.26,3.27,3.26,3.27,3.29,3.3,3.29,3.29,3.26,3.27,3.26,3.29,3.28,3.28,3.28,3.28,3.3,3.31,3.29,3.29,3.32,3.26,78.7,1.0,1.0,0.0,1.0,1.0,6755514,0.0,0.0
1765225260557,0.0,0.0,1.0,10.0,0.0,0.0,0.0,0.0,0.0,0.0,-0.047335999999999996,0.020739999999999998,0.99125,-0.7000000000000001,0.35000000000000003,-0.07,3.28,3.32,3.26,3.27,3.26,3.27,3.26,3.27,3.29,3.3,3.29,3.29,3.26,3.27,3.26,3.29,3.28,3.28,3.28,3.28,3.3,3.31,3.29,3.29,3.32,3.26,78.7,1.0,1.0,0.0,1.0,1.0,6755531,0.0,0.0
1765225260604,0.0,0.0,1.0,10.0,0.0,0.0,0.0,0.0,0.0,0.0,-0.047335999999999996,0.020739999999999998,0.99125,-0.7000000000000001,0.35000000000000003,-0.07,3.31,3.32,3.32,3.31,3.26,3.27,3.26,3.27,3.29,3.3,3.29,3.29,3.26,3.27,3.26,3.29,3.28,3.28,3.28,3.28,3.3,3.31,3.29,3.29,3.32,3.26,78.7,1.0,1.0,0.0,1.0,1.0,6755578,0.0,0.0
1765225260623,0.0,0.0,1.0,10.0,0.0,0.0,0.0,0.0,0.0,0.0,-0.050996,0.018666,0.99064,-0.7000000000000001,0.35000000000000003,-0.07,3.31,3.32,3.32,3.31,3.28,3.29,3.29,3.28,3.29,3.3,3.29,3.29,3.26,3.27,3.26,3.29,3.28,3.28,3.28,3.28,3.3,3.31,3.29,3.29,3.32,3.26,78.7,1.0,1.0,0.0,1.0,1.0,6755597,0.0,0.0
1765225260656,0.0,0.0,1.0,10.0,0.0,0.0,0.0,0.0,0.0,0.0,-0.050996,0.018666,0.99064,-0.7000000000000001,0.35000000000000003,-0.07,3.31,3.32,3.32,3.31,3.28,3.29,3.29,3.28,3.32,3.32,3.32,3.32,3.26,3.27,3.26,3.29,3.28,3.28,3.28,3.28,3.3,3.31,3.29,3.29,3.32,3.26,78.7,1.0,1.0,0.0,1.0,1.0,6755630,0.0,0.0
1765225260673,0.0,0.0,1.0,10.0,0.0,0.0,0.0,0.0,0.0,0.0,-0.050996,0.018666,0.99064,-0.7000000000000001,0.35000000000000003,-0.07,3.31,3.32,3.32,3.31,3.28,3.29,3.29,3.28,3.32,3.32,3.32,3.32,3.26,3.27,3.26,3.29,3.28,3.28,3.28,3.28,3.3,3.31,3.29,3.29,3.32,3.26,78.7,1.0,1.0,0.0,1.0,1.0,6755647,0.0,0.0
1765225260689,0.0,0.0,1.0,10.0,0.0,0.0,0.0,0.0,0.0,0.0,-0.050996,0.018666,0.99064,-0.7000000000000001,0.35000000000000003,-0.07,3.31,3.32,3.32,3.31,3.28,3.29,3.29,3.28,3.32,3.32,3.32,3.32,3.28,3.29,3.29,3.29,3.28,3.28,3.28,3.28,3.3,3.31,3.29,3.29,3.32,3.26,78.7,1.0,1.0,0.0,1.0,1.0,6755663,0.0,0.0
1765225260722,0.0,0.0,1.0,10.0,0.0,0.0,0.0,0.0,0.0,0.0,-0.050996,0.018666,0.99064,-0.7000000000000001,0.35000000000000003,-0.07,3.31,3.32,3.32,3.31,3.28,3.29,3.29,3.28,3.32,3.32,3.32,3.32,3.28,3.29,3.29,3.29,3.3,3.3,3.3,3.3,3.3,3.31,3.29,3.29,3.32,3.26,78.7,1.0,1.0,0.0,1.0,1.0,6755696,0.0,0.0
1765225260739,0.0,0.0,1.0,10.0,0.0,0.0,0.0,0.0,0.0,0.0,-0.050996,0.018666,0.99064,-0.7000000000000001,0.35000000000000003,-0.07,3.31,3.32,3.32,3.31,3.28,3.29,3.29,3.28,3.32,3.32,3.32,3.32,3.28,3.29,3.29,3.29,3.3,3.3,3.3,3.3,3.32,3.32,3.32,3.32,3.32,3.26,78.7,1.0,1.0,0.0,1.0,1.0,6755713,0.0,0.0
1765225260756,0.0,0.0,1.0,10.0,0.0,0.0,0.0,0.0,0.0,0.0,-0.050996,0.018666,0.99064,-0.7000000000000001,0.35000000000000003,-0.07,3.31,3.32,3.32,3.31,3.28,3.29,3.29,3.28,3.32,3.32,3.32,3.32,3.28,3.29,3.29,3.29,3.3,3.3,3.3,3.3,3.32,3.32,3.32,3.32,3.32,3.26,78.7,1.0,1.0,0.0,1.0,1.0,6755730,0.0,0.0
1765225260789,0.0,0.0,1.0,10.0,0.0,0.0,0.0,0.0,0.0,0.0,-0.050996,0.018666,0.99064,-0.56,0.28,-0.07,3.31,3.32,3.32,3.31,3.28,3.29,3.29,3.28,3.32,3.32,3.32,3.32,3.28,3.29,3.29,3.29,3.3,3.3,3.3,3.3,3.32,3.32,3.32,3.32,3.32,3.26,78.7,1.0,1.0,0.0,1.0,1.0,6755763,0.0,0.0
1765225260824,0.0,0.0,1.0,10.0,0.0,0.0,0.0,0.0,0.0,0.0,-0.050996,0.018666,0.99064,-0.56,0.28,-0.07,3.31,3.32,3.32,3.31,3.28,3.29,3.29,3.28,3.32,3.32,3.32,3.32,3.28,3.29,3.29,3.29,3.3,3.3,3.3,3.3,3.32,3.32,3.32,3.32,3.32,3.26,78.7,1.0,1.0,0.0,1.0,1.0,6755798,0.0,0.0
1765225260856,0.0,0.0,1.0,10.0,0.0,0.0,0.0,0.0,0.0,0.0,-0.050996,0.018666,0.99064,-0.56,0.28,-0.07,3.31,3.32,3.32,3.31,3.28,3.29,3.29,3.29,3.32,3.32,3.32,3.32,3.28,3.29,3.29,3.29,3.3,3.3,3.3,3.3,3.32,3.32,3.32,3.32,3.32,3.26,78.7,1.0,1.0,0.0,1.0,1.0,6755830,0.0,0.0
1765225260872,0.0,0.0,1.0,10.0,0.0,0.0,0.0,0.0,0.0,0.0,-0.050996,0.018666,0.99064,-0.56,0.28,-0.07,3.31,3.32,3.32,3.31,3.28,3.29,3.29,3.29,3.32,3.32,3.32,3.32,3.28,3.29,3.29,3.29,3.3,3.3,3.3,3.3,3.32,3.32,3.32,3.32,3.32,3.26,78.7,1.0,1.0,0.0,1.0,1.0,6755846,0.0,0.0
1765225260889,0.0,0.0,1.0,10.0,0.0,0.0,0.0,0.0,0.0,0.0,-0.050996,0.018666,0.99064,-0.56,0.28,-0.07,3.31,3.32,3.32,3.31,3.28,3.29,3.29,3.29,3.32,3.32,3.32,3.32,3.28,3.29,3.29,3.29,3.3,3.3,3.3,3.3,3.32,3.32,3.32,3.32,3.32,3.26,78.7,1.0,1.0,0.0,1.0,1.0,6755863,0.0,0.0
1765225260922,0.0,0.0,1.0,10.0,0.0,0.0,0.0,0.0,0.0,0.0,-0.050996,0.018666,0.99064,-0.56,0.28,-0.07,3.31,3.32,3.32,3.31,3.28,3.29,3.29,3.29,3.32,3.32,3.32,3.32,3.28,3.29,3.29,3.29,3.3,3.3,3.3,3.3,3.32,3.32,3.32,3.32,3.32,3.26,78.7,1.0,1.0,0.0,1.0,1.0,6755896,0.0,0.0
1765225260939,0.0,0.0,1.0,10.0,0.0,0.0,0.0,0.0,0.0,0.0,-0.050996,0.018666,0.99064,-0.56,0.28,-0.07,3.31,3.32,3.32,3.31,3.28,3.29,3.29,3.29,3.32,3.32,3.32,3.32,3.28,3.29,3.29,3.29,3.3,3.3,3.3,3.3,3.32,3.32,3.32,3.32,3.32,3.26,78.7,1.0,1.0,0.0,1.0,1.0,6755913,0.0,0.0
1765225260973,0.0,0.0,1.0,10.0,0.0,0.0,0.0,0.0,0.0,0.0,-0.050996,0.018666,0.99064,-0.56,0.28,-0.07,3.31,3.32,3.32,3.31,3.28,3.29,3.29,3.29,3.32,3.32,3.32,3.32,3.28,3.29,3.29,3.29,3.3,3.3,3.3,3.3,3.32,3.32,3.32,3.32,3.32,3.26,78.7,1.0,1.0,0.0,1.0,1.0,6755947,0.0,0.0
1765225261039,0.0,0.0,1.0,10.0,0.0,0.0,0.0,0.0,0.0,0.0,-0.05307,0.020007999999999998,0.989664,-0.56,0.28,-0.07,3.31,3.32,3.32,3.31,3.28,3.29,3.29,3.29,3.32,3.32,3.32,3.32,3.28,3.29,3.29,3.29,3.3,3.3,3.3,3.3,3.32,3.32,3.32,3.32,3.32,3.26,78.7,1.0,1.0,0.0,1.0,1.0,6756013,0.0,0.0
1765225261057,0.0,0.0,1.0,10.0,0.0,0.0,0.0,0.0,0.0,0.0,-0.05307,0.020007999999999998,0.989664,-0.6300000000000001,0.35000000000000003,0.0,3.31,3.32,3.32,3.31,3.28,3.29,3.29,3.29,3.32,3.32,3.32,3.32,3.28,3.29,3.29,3.29,3.3,3.3,3.3,3.3,3.32,3.32,3.32,3.32,3.32,3.26,78.7,1.0,1.0,0.0,1.0,1.0,6756031,0.0,0.0
1765225261106,0.0,0.0,1.0,10.0,0.0,0.0,0.0,0.0,0.0,0.0,-0.05307,0.020007999999999998,0.989664,-0.6300000000000001,0.35000000000000003,0.0,3.31,3.32,3.32,3.31,3.28,3.29,3.29,3.29,3.32,3.32,3.32,3.32,3.28,3.29,3.29,3.29,3.3,3.3,3.3,3.3,3.32,3.32,3.32,3.32,3.32,3.26,78.7,1.0,1.0,0.0,1.0,1.0,6756080,0.0,0.0
1765225261123,0.0,0.0,1.0,10.0,0.0,0.0,0.0,0.0,0.0,0.0,-0.05307,0.020007999999999998,0.989664,-0.6300000000000001,0.35000000000000003,0.0,3.31,3.32,3.32,3.31,3.28,3.29,3.29,3.29,3.32,3.32,3.32,3.32,3.28,3.29,3.29,3.29,3.3,3.3,3.3,3.3,3.32,3.32,3.32,3.32,3.32,3.26,78.7,1.0,1.0,0.0,1.0,1.0,6756097,0.0,0.0
1765225261139,0.0,0.0,1.0,10.0,0.0,0.0,0.0,0.0,0.0,0.0,-0.05307,0.020007999999999998,0.989664,-0.6300000000000001,0.35000000000000003,0.0,3.31,3.32,3.32,3.31,3.28,3.29,3.29,3.29,3.32,3.32,3.32,3.32,3.28,3.29,3.29,3.29,3.3,3.3,3.3,3.3,3.32,3.32,3.32,3.32,3.32,3.26,78.7,1.0,1.0,0.0,1.0,1.0,6756113,0.0,0.0
1765225261156,0.0,0.0,1.0,10.0,0.0,0.0,0.0,0.0,0.0,0.0,-0.050508,0.020007999999999998,0.992714,-0.6300000000000001,0.35000000000000003,0.0,3.31,3.32,3.32,3.31,3.28,3.29,3.29,3.29,3.32,3.32,3.32,3.32,3.28,3.29,3.29,3.29,3.3,3.3,3.3,3.3,3.32,3.32,3.32,3.32,3.32,3.26,78.7,1.0,1.0,0.0,1.0,1.0,6756130,0.0,0.0
1765225261173,0.0,0.0,1.0,10.0,0.0,0.0,0.0,0.0,0.0,0.0,-0.050508,0.020007999999999998,0.992714,-0.6300000000000001,0.35000000000000003,0.0,3.31,3.32,3.32,3.31,3.28,3.29,3.29,3.29,3.32,3.32,3.32,3.32,3.28,3.29,3.29,3.29,3.3,3.3,3.3,3.3,3.32,3.32,3.32,3.32,3.32,3.26,78.7,1.0,1.0,0.0,1.0,1.0,6756147,0.0,0.0
1765225261222,0.0,0.0,1.0,10.0,0.0,0.0,0.0,0.0,0.0,0.0,-0.050508,0.020007999999999998,0.992714,-0.6300000000000001,0.21000000000000002,-0.07,3.31,3.32,3.32,3.31,3.28,3.29,3.29,3.29,3.32,3.32,3.32,3.32,3.28,3.29,3.29,3.29,3.3,3.3,3.3,3.3,3.32,3.32,3.32,3.32,3.32,3.26,78.7,1.0,1.0,0.0,1.0,1.0,6756196,0.0,0.0
1765225261239,0.0,0.0,1.0,10.0,0.0,0.0,0.0,0.0,0.0,0.0,-0.050508,0.020007999999999998,0.992714,-0.6300000000000001,0.21000000000000002,-0.07,3.31,3.32,3.32,3.31,3.28,3.29,3.29,3.29,3.32,3.32,3.32,3.32,3.28,3.29,3.29,3.29,3.3,3.3,3.3,3.3,3.32,3.32,3.32,3.32,3.32,3.26,78.7,1.0,1.0,0.0,1.0,1.0,6756213,0.0,0.0
1765225261323,0.0,0.0,1.0,10.0,0.0,0.0,0.0,0.0,0.0,0.0,-0.045628,0.020007999999999998,0.99247,-0.6300000000000001,0.21000000000000002,-0.07,3.31,3.32,3.32,3.31,3.28,3.29,3.29,3.29,3.32,3.32,3.32,3.32,3.28,3.29,3.29,3.29,3.3,3.3,3.3,3.3,3.32,3.32,3.32,3.32,3.32,3.26,78.7,1.0,1.0,0.0,1.0,1.0,6756297,0.0,0.0
1765225261356,0.0,0.0,1.0,10.0,0.0,0.0,0.0,0.0,0.0,0.0,-0.045628,0.020007999999999998,0.99247,-0.56,0.42000000000000004,-0.14,3.31,3.32,3.32,3.31,3.28,3.29,3.29,3.29,3.32,3.32,3.32,3.32,3.28,3.29,3.29,3.29,3.3,3.3,3.3,3.3,3.32,3.32,3.32,3.32,3.32,3.26,78.7,1.0,1.0,0.0,1.0,1.0,6756330,0.0,0.0
1765225261390,0.0,0.0,1.0,10.0,0.0,0.0,0.0,0.0,0.0,0.0,-0.045628,0.020007999999999998,0.99247,-0.56,0.42000000000000004,-0.14,3.31,3.32,3.32,3.31,3.28,3.29,3.29,3.29,3.32,3.32,3.32,3.32,3.28,3.29,3.29,3.29,3.3,3.3,3.3,3.3,3.32,3.32,3.32,3.32,3.32,3.26,78.7,1.0,1.0,0.0,1.0,1.0,6756364,0.0,0.0
1765225261406,0.0,0.0,1.0,10.0,0.0,0.0,0.0,0.0,0.0,0.0,-0.045628,0.020007999999999998,0.99247,-0.56,0.42000000000000004,-0.14,3.31,3.32,3.32,3.31,3.28,3.29,3.29,3.29,3.32,3.32,3.32,3.32,3.28,3.29,3.29,3.29,3.3,3.3,3.3,3.3,3.32,3.32,3.32,3.32,3.32,3.26,78.7,1.0,1.0,0.0,1.0,1.0,6756380,0.0,0.0
1765225261421,0.0,0.0,1.0,10.0,0.0,0.0,0.0,0.0,0.0,0.0,-0.045628,0.020007999999999998,0.99247,-0.6300000000000001,0.35000000000000003,0.07,3.31,3.32,3.32,3.31,3.28,3.29,3.29,3.29,3.32,3.32,3.32,3.32,3.28,3.29,3.29,3.29,3.3,3.3,3.3,3.3,3.32,3.32,3.32,3.32,3.32,3.26,78.7,1.0,1.0,0.0,1.0,1.0,6756395,0.0,0.0
1765225261455,0.0,0.0,1.0,10.0,0.0,0.0,0.0,0.0,0.0,0.0,-0.047824,0.021716,0.990152,-0.6300000000000001,0.35000000000000003,0.07,3.31,3.32,3.32,3.31,3.28,3.29,3.29,3.29,3.32,3.32,3.32,3.32,3.28,3.29,3.29,3.29,3.3,3.3,3.3,3.3,3.32,3.32,3.32,3.32,3.32,3.26,78.7,1.0,1.0,0.0,1.0,1.0,6756429,0.0,0.0
1765225261472,0.0,0.0,1.0,10.0,0.0,0.0,0.0,0.0,0.0,0.0,-0.047824,0.021716,0.990152,-0.7000000000000001,0.49000000000000005,0.0,3.31,3.32,3.32,3.31,3.28,3.29,3.29,3.29,3.32,3.32,3.32,3.32,3.28,3.29,3.29,3.29,3.3,3.3,3.3,3.3,3.32,3.32,3.32,3.32,3.32,3.26,78.7,1.0,1.0,0.0,1.0,1.0,6756446,0.0,0.0
1765225261505,0.0,0.0,1.0,10.0,0.0,0.0,0.0,0.0,0.0,0.0,-0.047824,0.021716,0.990152,-0.7000000000000001,0.49000000000000005,0.0,3.31,3.32,3.32,3.31,3.28,3.29,3.29,3.29,3.32,3.32,3.32,3.32,3.28,3.29,3.29,3.29,3.3,3.3,3.3,3.3,3.32,3.32,3.32,3.32,3.32,3.26,78.7,1.0,1.0,0.0,1.0,1.0,6756479,0.0,0.0
1765225261522,0.0,0.0,1.0,10.0,0.0,0.0,0.0,0.0,0.0,0.0,-0.047824,0.021716,0.990152,-0.7000000000000001,0.49000000000000005,0.0,3.31,3.32,3.32,3.31,3.28,3.29,3.29,3.29,3.32,3.32,3.32,3.32,3.28,3.29,3.29,3.29,3.3,3.3,3.3,3.3,3.32,3.32,3.32,3.32,3.32,3.26,78.7,1.0,1.0,0.0,1.0,1.0,6756496,0.0,0.0
1765225261539,0.0,0.0,1.0,10.0,0.0,0.0,0.0,0.0,0.0,0.0,-0.047824,0.021716,0.990152,-0.7000000000000001,0.49000000000000005,0.0,3.31,3.32,3.32,3.31,3.28,3.29,3.29,3.29,3.32,3.32,3.32,3.32,3.28,3.29,3.29,3.29,3.3,3.3,3.3,3.3,3.32,3.32,3.32,3.32,3.32,3.26,78.7,1.0,1.0,0.0,1.0,1.0,6756513,0.0,0.0
1765225261587,0.0,0.0,1.0,10.0,0.0,0.0,0.0,0.0,0.0,0.0,-0.047824,0.021716,0.990152,-0.7000000000000001,0.49000000000000005,0.0,3.31,3.32,3.32,3.31,3.28,3.29,3.29,3.29,3.32,3.32,3.32,3.32,3.28,3.29,3.29,3.29,3.3,3.3,3.3,3.3,3.32,3.32,3.32,3.32,3.32,3.26,78.7,1.0,1.0,0.0,1.0,1.0,6756561,0.0,0.0
1765225261622,0.0,0.0,1.0,10.0,0.0,0.0,0.0,0.0,0.0,0.0,-0.047824,0.021716,0.990152,-0.7000000000000001,0.49000000000000005,0.0,3.31,3.32,3.32,3.31,3.28,3.29,3.29,3.29,3.32,3.32,3.32,3.32,3.28,3.29,3.29,3.29,3.3,3.3,3.3,3.3,3.32,3.32,3.32,3.32,3.32,3.26,78.7,1.0,1.0,0.0,1.0,1.0,6756596,0.0,0.0
1765225261673,0.0,0.0,1.0,10.0,0.0,0.0,0.0,0.0,0.0,0.0,-0.047824,0.021716,0.990152,-0.7000000000000001,0.49000000000000005,0.0,3.31,3.32,3.32,3.31,3.28,3.29,3.29,3.29,3.32,3.32,3.32,3.32,3.28,3.29,3.29,3.29,3.3,3.3,3.3,3.3,3.32,3.32,3.32,3.32,3.32,3.28,79.3,0.0,1.0,0.0,1.0,1.0,6756647,0.0,0.0
1765225261706,0.0,0.0,1.0,10.0,0.0,0.0,0.0,0.0,0.0,0.0,-0.050752,0.02135,0.992592,-0.7000000000000001,0.49000000000000005,0.0,3.31,3.32,3.32,3.31,3.28,3.29,3.29,3.29,3.32,3.32,3.32,3.32,3.28,3.29,3.29,3.29,3.3,3.3,3.3,3.3,3.32,3.32,3.32,3.32,3.32,3.28,79.3,0.0,1.0,0.0,1.0,1.0,6756680,0.0,0.0
1765225261740,0.0,0.0,1.0,10.0,0.0,0.0,0.0,0.0,0.0,0.0,-0.050752,0.02135,0.992592,-0.7000000000000001,0.35000000000000003,-0.07,3.31,3.32,3.32,3.31,3.28,3.29,3.29,3.29,3.32,3.32,3.32,3.32,3.28,3.29,3.29,3.29,3.3,3.3,3.3,3.3,3.32,3.32,3.32,3.32,3.32,3.28,79.3,0.0,1.0,0.0,1.0,1.0,6756714,0.0,0.0
1765225261789,0.0,0.0,1.0,10.0,0.0,0.0,0.0,0.0,0.0,0.0,-0.050752,0.02135,0.992592,-0.7000000000000001,0.35000000000000003,-0.07,3.31,3.32,3.32,3.31,3.28,3.29,3.29,3.29,3.32,3.32,3.32,3.32,3.28,3.29,3.29,3.29,3.3,3.3,3.3,3.3,3.32,3.32,3.32,3.32,3.32,3.28,79.3,0.0,1.0,0.0,1.0,1.0,6756763,0.0,0.0
1765225261805,0.0,0.0,1.0,10.0,0.0,0.0,0.0,0.0,0.0,0.0,-0.05124,0.018788,0.991494,-0.7000000000000001,0.35000000000000003,-0.07,3.31,3.32,3.32,3.31,3.28,3.29,3.29,3.29,3.32,3.32,3.32,3.32,3.28,3.29,3.29,3.29,3.3,3.3,3.3,3.3,3.32,3.32,3.32,3.32,3.32,3.28,79.3,0.0,1.0,0.0,1.0,1.0,6756779,0.0,0.0
1765225261823,0.0,0.0,1.0,10.0,0.0,0.0,0.0,0.0,0.0,0.0,-0.05124,0.018788,0.991494,-0.7000000000000001,0.35000000000000003,-0.07,3.31,3.32,3.32,3.31,3.28,3.29,3.29,3.29,3.32,3.32,3.32,3.32,3.28,3.29,3.29,3.29,3.3,3.3,3.3,3.3,3.32,3.32,3.32,3.32,3.32,3.28,79.3,0.0,1.0,0.0,1.0,1.0,6756797,0.0,0.0
1765225261839,0.0,0.0,1.0,10.0,0.0,0.0,0.0,0.0,0.0,0.0,-0.05124,0.018788,0.991494,-0.7000000000000001,0.35000000000000003,-0.07,3.31,3.32,3.32,3.31,3.28,3.29,3.29,3.29,3.32,3.32,3.32,3.32,3.28,3.29,3.29,3.29,3.3,3.3,3.3,3.3,3.32,3.32,3.32,3.32,3.32,3.28,79.3,0.0,1.0,0.0,1.0,1.0,6756813,0.0,0.0
1765225261872,0.0,0.0,1.0,10.0,0.0,0.0,0.0,0.0,0.0,0.0,-0.05124,0.018788,0.991494,-0.56,0.35000000000000003,-0.14,3.31,3.32,3.32,3.31,3.28,3.29,3.29,3.29,3.32,3.32,3.32,3.32,3.28,3.29,3.29,3.29,3.3,3.3,3.3,3.3,3.32,3.32,3.32,3.32,3.32,3.28,79.3,0.0,1.0,0.0,1.0,1.0,6756846,0.0,0.0
1765225261939,0.0,0.0,1.0,10.0,0.0,0.0,0.0,0.0,0.0,0.0,-0.05124,0.018788,0.991494,-0.56,0.35000000000000003,-0.14,3.31,3.32,3.32,3.31,3.28,3.29,3.29,3.29,3.32,3.32,3.32,3.32,3.28,3.29,3.29,3.29,3.3,3.3,3.3,3.3,3.32,3.32,3.32,3.32,3.32,3.28,79.3,0.0,1.0,0.0,1.0,1.0,6756913,0.0,0.0
1765225262022,0.0,0.0,1.0,10.0,0.0,0.0,0.0,0.0,0.0,0.0,-0.042578,0.02257,0.989054,-0.7000000000000001,0.42000000000000004,0.0,3.31,3.32,3.32,3.31,3.28,3.29,3.29,3.29,3.32,3.32,3.32,3.32,3.28,3.29,3.29,3.29,3.3,3.3,3.3,3.3,3.32,3.32,3.32,3.32,3.32,3.28,79.3,0.0,1.0,0.0,1.0,1.0,6756996,0.0,0.0
1765225262088,0.0,0.0,1.0,10.0,0.0,0.0,0.0,0.0,0.0,0.0,-0.042578,0.02257,0.989054,-0.7000000000000001,0.28,0.0,3.31,3.32,3.32,3.31,3.28,3.29,3.29,3.29,3.32,3.32,3.32,3.32,3.28,3.29,3.29,3.29,3.3,3.3,3.3,3.3,3.32,3.32,3.32,3.32,3.32,3.28,79.3,0.0,1.0,0.0,1.0,1.0,6757062,0.0,0.0
1765225262154,0.0,0.0,1.0,10.0,0.0,0.0,0.0,0.0,0.0,0.0,-0.049409999999999996,0.020007999999999998,0.989664,-0.7000000000000001,0.28,0.0,3.31,3.32,3.32,3.31,3.28,3.29,3.29,3.29,3.32,3.32,3.32,3.32,3.28,3.29,3.29,3.29,3.3,3.3,3.3,3.3,3.32,3.32,3.32,3.32,3.32,3.28,79.3,0.0,1.0,0.0,1.0,1.0,6757128,0.0,0.0
1765225262173,0.0,0.0,1.0,10.0,0.0,0.0,0.0,0.0,0.0,0.0,-0.049409999999999996,0.020007999999999998,0.989664,-0.6300000000000001,0.42000000000000004,0.0,3.31,3.32,3.32,3.31,3.28,3.29,3.29,3.29,3.32,3.32,3.32,3.32,3.28,3.29,3.29,3.29,3.3,3.3,3.3,3.3,3.32,3.32,3.32,3.32,3.32,3.28,79.3,0.0,1.0,0.0,1.0,1.0,6757147,0.0,0.0
1765225262188,0.0,0.0,1.0,10.0,0.0,0.0,0.0,0.0,0.0,0.0,-0.049409999999999996,0.020007999999999998,0.989664,-0.6300000000000001,0.42000000000000004,0.0,3.31,3.32,3.32,3.31,3.28,3.29,3.29,3.29,3.32,3.32,3.32,3.32,3.28,3.29,3.29,3.29,3.3,3.3,3.3,3.3,3.32,3.32,3.32,3.32,3.32,3.28,79.3,0.0,1.0,0.0,1.0,1.0,6757162,0.0,0.0
1765225262206,0.0,0.0,1.0,10.0,0.0,0.0,0.0,0.0,0.0,0.0,-0.049409999999999996,0.020007999999999998,0.989664,-0.6300000000000001,0.42000000000000004,0.0,3.31,3.32,3.32,3.31,3.28,3.29,3.29,3.29,3.32,3.32,3.32,3.32,3.28,3.29,3.29,3.29,3.3,3.3,3.3,3.3,3.32,3.32,3.32,3.32,3.32,3.28,79.3,0.0,1.0,0.0,1.0,1.0,6757180,0.0,0.0
1765225262239,0.0,0.0,1.0,10.0,0.0,0.0,0.0,0.0,0.0,0.0,-0.049409999999999996,0.020007999999999998,0.989664,-0.6300000000000001,0.42000000000000004,0.0,3.31,3.32,3.32,3.31,3.28,3.29,3.29,3.29,3.32,3.32,3.32,3.32,3.28,3.29,3.29,3.29,3.3,3.3,3.3,3.3,3.32,3.32,3.32,3.32,3.32,3.28,79.3,0.0,1.0,0.0,1.0,1.0,6757213,0.0,0.0
1765225262272,0.0,0.0,1.0,10.0,0.0,0.0,0.0,0.0,0.0,0.0,-0.049409999999999996,0.020007999999999998,0.989664,-0.6300000000000001,0.42000000000000004,0.0,3.31,3.32,3.32,3.31,3.28,3.29,3.29,3.29,3.32,3.32,3.32,3.32,3.28,3.29,3.29,3.29,3.3,3.3,3.3,3.3,3.32,3.32,3.32,3.32,3.32,3.28,79.3,0.0,1.0,0.0,1.0,1.0,6757246,0.0,0.0
1765225262322,0.0,0.0,1.0,10.0,0.0,0.0,0.0,0.0,0.0,0.0,-0.049409999999999996,0.020007999999999998,0.989664,-0.6300000000000001,0.42000000000000004,0.0,3.31,3.32,3.32,3.31,3.28,3.29,3.29,3.29,3.32,3.32,3.32,3.32,3.28,3.29,3.29,3.29,3.3,3.3,3.3,3.3,3.32,3.32,3.32,3.32,3.32,3.28,79.3,0.0,1.0,0.0,1.0,1.0,6757296,0.0,0.0
1765225262389,0.0,0.0,1.0,10.0,0.0,0.0,0.0,0.0,0.0,0.0,-0.053924,0.019642,0.9940559999999999,-0.6300000000000001,0.42000000000000004,0.0,3.31,3.32,3.32,3.31,3.28,3.29,3.29,3.29,3.32,3.32,3.32,3.32,3.28,3.29,3.29,3.29,3.3,3.3,3.3,3.3,3.32,3.32,3.32,3.32,3.32,3.28,79.3,0.0,1.0,0.0,1.0,1.0,6757363,0.0,0.0
1765225262406,0.0,0.0,1.0,10.0,0.0,0.0,0.0,0.0,0.0,0.0,-0.053924,0.019642,0.9940559999999999,-0.6300000000000001,0.42000000000000004,0.0,3.31,3.32,3.32,3.31,3.28,3.29,3.29,3.29,3.32,3.32,3.32,3.32,3.28,3.29,3.29,3.29,3.3,3.3,3.3,3.3,3.32,3.32,3.32,3.32,3.32,3.28,79.3,0.0,1.0,0.0,1.0,1.0,6757380,0.0,0.0
1765225262439,0.0,0.0,1.0,10.0,0.0,0.0,0.0,0.0,0.0,0.0,-0.053924,0.019642,0.9940559999999999,-0.6300000000000001,0.42000000000000004,0.0,3.31,3.32,3.32,3.31,3.28,3.29,3.29,3.29,3.32,3.32,3.32,3.32,3.28,3.29,3.29,3.29,3.3,3.3,3.3,3.3,3.32,3.32,3.32,3.32,3.32,3.28,79.3,0.0,1.0,0.0,1.0,1.0,6757413,0.0,0.0
1765225262456,0.0,0.0,1.0,10.0,0.0,0.0,0.0,0.0,0.0,0.0,-0.053924,0.019642,0.9940559999999999,-0.7000000000000001,0.35000000000000003,0.0,3.31,3.32,3.32,3.31,3.28,3.29,3.29,3.29,3.32,3.32,3.32,3.32,3.28,3.29,3.29,3.29,3.3,3.3,3.3,3.3,3.32,3.32,3.32,3.32,3.32,3.28,79.3,0.0,1.0,0.0,1.0,1.0,6757430,0.0,0.0
1765225262473,0.0,0.0,1.0,10.0,0.0,0.0,0.0,0.0,0.0,0.0,-0.053924,0.019642,0.9940559999999999,-0.7000000000000001,0.35000000000000003,0.0,3.31,3.32,3.32,3.31,3.28,3.29,3.29,3.29,3.32,3.32,3.32,3.32,3.28,3.29,3.29,3.29,3.3,3.3,3.3,3.3,3.32,3.32,3.32,3.32,3.32,3.28,79.3,0.0,1.0,0.0,1.0,1.0,6757447,0.0,0.0
1765225262539,0.0,0.0,1.0,10.0,0.0,0.0,0.0,0.0,0.0,0.0,-0.053924,0.019642,0.9940559999999999,-0.7000000000000001,0.35000000000000003,0.0,3.31,3.32,3.32,3.31,3.28,3.29,3.29,3.29,3.32,3.32,3.32,3.32,3.28,3.29,3.29,3.29,3.3,3.3,3.3,3.3,3.32,3.32,3.32,3.32,3.32,3.28,79.3,0.0,1.0,0.0,1.0,1.0,6757513,0.0,0.0
1765225262555,0.0,0.0,1.0,10.0,0.0,0.0,0.0,0.0,0.0,0.0,-0.053924,0.019642,0.9940559999999999,-0.7000000000000001,0.35000000000000003,0.0,3.31,3.32,3.32,3.31,3.28,3.29,3.29,3.29,3.32,3.32,3.32,3.32,3.28,3.29,3.29,3.29,3.3,3.3,3.3,3.3,3.32,3.32,3.32,3.32,3.32,3.28,79.3,0.0,1.0,0.0,1.0,1.0,6757529,0.0,0.0
1765225262572,0.0,0.0,1.0,10.0,0.0,0.0,0.0,0.0,0.0,0.0,-0.053924,0.019642,0.9940559999999999,-0.7000000000000001,0.35000000000000003,0.0,3.31,3.32,3.32,3.31,3.28,3.29,3.29,3.29,3.32,3.32,3.32,3.32,3.28,3.29,3.29,3.29,3.3,3.3,3.3,3.3,3.32,3.32,3.32,3.32,3.32,3.28,79.3,0.0,1.0,0.0,1.0,1.0,6757546,0.0,0.0
1765225262605,0.0,0.0,1.0,10.0,0.0,0.0,0.0,0.0,0.0,0.0,-0.053924,0.019642,0.9940559999999999,-0.7000000000000001,0.35000000000000003,0.0,3.31,3.32,3.32,3.31,3.28,3.29,3.29,3.29,3.32,3.32,3.32,3.32,3.28,3.29,3.29,3.29,3.3,3.3,3.3,3.3,3.32,3.32,3.32,3.32,3.32,3.28,79.3,0.0,1.0,0.0,1.0,1.0,6757579,0.0,0.0
1765225262622,0.0,0.0,1.0,10.0,0.0,0.0,0.0,0.0,0.0,0.0,-0.047335999999999996,0.020984,0.99064,-0.7000000000000001,0.35000000000000003,0.0,3.31,3.32,3.32,3.31,3.28,3.29,3.29,3.29,3.32,3.32,3.32,3.32,3.28,3.29,3.29,3.29,3.3,3.3,3.3,3.3,3.32,3.32,3.32,3.32,3.32,3.28,79.3,0.0,1.0,0.0,1.0,1.0,6757596,0.0,0.0
1765225262656,0.0,0.0,1.0,10.0,0.0,0.0,0.0,0.0,0.0,0.0,-0.047335999999999996,0.020984,0.99064,-0.7000000000000001,0.35000000000000003,0.0,3.31,3.32,3.32,3.31,3.28,3.29,3.29,3.29,3.32,3.32,3.32,3.32,3.28,3.29,3.29,3.29,3.3,3.3,3.3,3.3,3.32,3.32,3.32,3.32,3.32,3.28,79.3,0.0,1.0,0.0,1.0,1.0,6757630,0.0,0.0
1765225262673,0.0,0.0,1.0,10.0,0.0,0.0,0.0,0.0,0.0,0.0,-0.047335999999999996,0.020984,0.99064,-0.7000000000000001,0.35000000000000003,0.0,3.31,3.32,3.32,3.31,3.28,3.29,3.29,3.29,3.32,3.32,3.32,3.32,3.28,3.29,3.29,3.29,3.3,3.3,3.3,3.3,3.32,3.32,3.32,3.32,3.32,3.28,79.3,0.0,1.0,0.0,1.0,1.0,6757647,0.0,0.0
1765225262689,0.0,0.0,1.0,10.0,0.0,0.0,0.0,0.0,0.0,0.0,-0.047335999999999996,0.020984,0.99064,-0.7000000000000001,0.35000000000000003,0.0,3.31,3.32,3.32,3.31,3.28,3.29,3.29,3.29,3.32,3.32,3.32,3.32,3.28,3.29,3.29,3.29,3.3,3.3,3.3,3.3,3.32,3.32,3.32,3.32,3.32,3.28,79.3,0.0,1.0,0.0,1.0,1.0,6757663,0.0,0.0
1765225262722,0.0,0.0,1.0,10.0,0.0,0.0,0.0,0.0,0.0,0.0,-0.047335999999999996,0.020984,0.99064,-0.7000000000000001,0.35000000000000003,0.0,3.31,3.32,3.32,3.31,3.28,3.29,3.29,3.29,3.32,3.32,3.32,3.32,3.28,3.29,3.29,3.29,3.3,3.3,3.3,3.3,3.32,3.32,3.32,3.32,3.32,3.28,79.3,0.0,1.0,0.0,1.0,1.0,6757696,0.0,0.0
1765225262772,0.0,0.0,1.0,10.0,0.0,0.0,0.0,0.0,0.0,0.0,-0.047335999999999996,0.020984,0.99064,-0.7000000000000001,0.35000000000000003,0.0,3.31,3.32,3.32,3.31,3.28,3.29,3.29,3.29,3.32,3.32,3.32,3.32,3.28,3.29,3.29,3.29,3.3,3.3,3.3,3.3,3.32,3.32,3.32,3.32,3.32,3.28,79.3,0.0,1.0,0.0,1.0,1.0,6757746,0.0,0.0
1765225262821,0.0,0.0,1.0,10.0,0.0,0.0,0.0,0.0,0.0,0.0,-0.046604,0.021471999999999998,0.992348,-0.7000000000000001,0.35000000000000003,0.0,3.31,3.32,3.32,3.31,3.28,3.29,3.29,3.29,3.32,3.32,3.32,3.32,3.28,3.29,3.29,3.29,3.3,3.3,3.3,3.3,3.32,3.32,3.32,3.32,3.32,3.28,79.3,0.0,1.0,0.0,1.0,1.0,6757795,0.0,0.0
1765225262855,0.0,0.0,1.0,10.0,0.0,0.0,0.0,0.0,0.0,0.0,-0.046604,0.021471999999999998,0.992348,-0.7000000000000001,0.42000000000000004,0.0,3.31,3.32,3.32,3.31,3.28,3.29,3.29,3.29,3.32,3.32,3.32,3.32,3.28,3.29,3.29,3.29,3.3,3.3,3.3,3.3,3.32,3.32,3.32,3.32,3.32,3.28,79.3,0.0,1.0,0.0,1.0,1.0,6757829,0.0,0.0
1765225262906,0.0,0.0,1.0,10.0,0.0,0.0,0.0,0.0,0.0,0.0,-0.048312,0.020739999999999998,0.99064,-0.7000000000000001,0.42000000000000004,0.0,3.31,3.32,3.32,3.31,3.28,3.29,3.29,3.29,3.32,3.32,3.32,3.32,3.28,3.29,3.29,3.29,3.3,3.3,3.3,3.3,3.32,3.32,3.32,3.32,3.32,3.28,79.3,0.0,1.0,0.0,1.0,1.0,6757880,0.0,0.0
1765225262922,0.0,0.0,1.0,10.0,0.0,0.0,0.0,0.0,0.0,0.0,-0.048312,0.020739999999999998,0.99064,-0.7000000000000001,0.42000000000000004,0.0,3.31,3.32,3.32,3.31,3.28,3.29,3.29,3.29,3.32,3.32,3.32,3.32,3.28,3.29,3.29,3.29,3.3,3.3,3.3,3.3,3.32,3.32,3.32,3.32,3.32,3.28,79.3,0.0,1.0,0.0,1.0,1.0,6757896,0.0,0.0
1765225262939,0.0,0.0,1.0,10.0,0.0,0.0,0.0,0.0,0.0,0.0,-0.048312,0.020739999999999998,0.99064,-0.6300000000000001,0.49000000000000005,0.0,3.31,3.32,3.32,3.31,3.28,3.29,3.29,3.29,3.32,3.32,3.32,3.32,3.28,3.29,3.29,3.29,3.3,3.3,3.3,3.3,3.32,3.32,3.32,3.32,3.32,3.28,79.3,0.0,1.0,0.0,1.0,1.0,6757913,0.0,0.0
1765225262972,0.0,0.0,1.0,10.0,0.0,0.0,0.0,0.0,0.0,0.0,-0.048312,0.020739999999999998,0.99064,-0.6300000000000001,0.49000000000000005,0.0,3.31,3.32,3.32,3.31,3.28,3.29,3.29,3.29,3.32,3.32,3.32,3.32,3.28,3.29,3.29,3.29,3.3,3.3,3.3,3.3,3.32,3.32,3.32,3.32,3.32,3.28,79.3,0.0,1.0,0.0,1.0,1.0,6757946,0.0,0.0
1765225263005,0.0,0.0,1.0,10.0,0.0,0.0,0.0,0.0,0.0,0.0,-0.048312,0.020739999999999998,0.99064,-0.6300000000000001,0.49000000000000005,0.0,3.31,3.32,3.32,3.31,3.28,3.29,3.29,3.29,3.32,3.32,3.32,3.32,3.28,3.29,3.29,3.29,3.3,3.3,3.3,3.3,3.32,3.32,3.32,3.32,3.32,3.28,79.3,0.0,1.0,0.0,1.0,1.0,6757979,0.0,0.0
1765225263073,0.0,0.0,1.0,10.0,0.0,0.0,0.0,0.0,0.0,0.0,-0.048312,0.020739999999999998,0.99064,-0.6300000000000001,0.49000000000000005,0.0,3.31,3.32,3.32,3.31,3.28,3.29,3.29,3.29,3.32,3.32,3.32,3.32,3.28,3.29,3.29,3.29,3.3,3.3,3.3,3.3,3.32,3.32,3.32,3.32,3.32,3.28,79.3,0.0,1.0,0.0,1.0,1.0,6758047,0.0,0.0
1765225263137,0.0,0.0,1.0,10.0,0.0,0.0,0.0,0.0,0.0,0.0,-0.051606,0.019764,0.99125,-0.6300000000000001,0.49000000000000005,0.0,3.31,3.32,3.32,3.31,3.28,3.29,3.29,3.29,3.32,3.32,3.32,3.32,3.28,3.29,3.29,3.29,3.3,3.3,3.3,3.3,3.32,3.32,3.32,3.32,3.32,3.28,79.3,0.0,1.0,0.0,1.0,1.0,6758111,0.0,0.0
1765225263155,0.0,0.0,1.0,10.0,0.0,0.0,0.0,0.0,0.0,0.0,-0.051606,0.019764,0.99125,-0.6300000000000001,0.35000000000000003,-0.07,3.31,3.32,3.32,3.31,3.28,3.29,3.29,3.29,3.32,3.32,3.32,3.32,3.28,3.29,3.29,3.29,3.3,3.3,3.3,3.3,3.32,3.32,3.32,3.32,3.32,3.28,79.3,0.0,1.0,0.0,1.0,1.0,6758129,0.0,0.0
1765225263190,0.0,0.0,1.0,10.0,0.0,0.0,0.0,0.0,0.0,0.0,-0.051606,0.019764,0.99125,-0.6300000000000001,0.35000000000000003,-0.07,3.31,3.32,3.32,3.31,3.28,3.29,3.29,3.29,3.32,3.32,3.32,3.32,3.28,3.29,3.29,3.29,3.3,3.3,3.3,3.3,3.32,3.32,3.32,3.32,3.32,3.28,79.3,0.0,1.0,0.0,1.0,1.0,6758164,0.0,0.0
1765225263256,0.0,0.0,1.0,10.0,0.0,0.0,0.0,0.0,0.0,0.0,-0.051606,0.019764,0.99125,-0.6300000000000001,0.35000000000000003,-0.07,3.31,3.32,3.32,3.31,3.28,3.29,3.29,3.29,3.32,3.32,3.32,3.32,3.28,3.29,3.29,3.29,3.3,3.3,3.3,3.3,3.32,3.32,3.32,3.32,3.32,3.28,79.3,0.0,1.0,0.0,1.0,1.0,6758230,0.0,0.0
1765225263272,0.0,0.0,1.0,10.0,0.0,0.0,0.0,0.0,0.0,0.0,-0.051606,0.019764,0.99125,-0.6300000000000001,0.35000000000000003,-0.07,3.31,3.32,3.32,3.31,3.28,3.29,3.29,3.29,3.32,3.32,3.32,3.32,3.28,3.29,3.29,3.29,3.3,3.3,3.3,3.3,3.32,3.32,3.32,3.32,3.32,3.28,79.3,0.0,1.0,0.0,1.0,1.0,6758246,0.0,0.0
1765225263288,0.0,0.0,1.0,10.0,0.0,0.0,0.0,0.0,0.0,0.0,-0.051606,0.019764,0.99125,-0.6300000000000001,0.35000000000000003,-0.07,3.31,3.32,3.32,3.31,3.28,3.29,3.29,3.29,3.32,3.32,3.32,3.32,3.28,3.29,3.29,3.29,3.3,3.3,3.3,3.3,3.32,3.32,3.32,3.32,3.32,3.28,79.3,0.0,1.0,0.0,1.0,1.0,6758262,0.0,0.0
1765225263306,0.0,0.0,1.0,10.0,0.0,0.0,0.0,0.0,0.0,0.0,-0.050508,0.019764,0.991372,-0.6300000000000001,0.35000000000000003,-0.07,3.31,3.32,3.32,3.31,3.28,3.29,3.29,3.29,3.32,3.32,3.32,3.32,3.28,3.29,3.29,3.29,3.3,3.3,3.3,3.3,3.32,3.32,3.32,3.32,3.32,3.28,79.3,0.0,1.0,0.0,1.0,1.0,6758280,0.0,0.0
1765225263323,0.0,0.0,1.0,10.0,0.0,0.0,0.0,0.0,0.0,0.0,-0.050508,0.019764,0.991372,-0.6300000000000001,0.35000000000000003,-0.07,3.31,3.32,3.32,3.31,3.28,3.29,3.29,3.29,3.32,3.32,3.32,3.32,3.28,3.29,3.29,3.29,3.3,3.3,3.3,3.3,3.32,3.32,3.32,3.32,3.32,3.28,79.3,0.0,1.0,0.0,1.0,1.0,6758297,0.0,0.0
1765225263339,0.0,0.0,1.0,10.0,0.0,0.0,0.0,0.0,0.0,0.0,-0.050508,0.019764,0.991372,-0.6300000000000001,0.35000000000000003,-0.07,3.31,3.32,3.32,3.31,3.28,3.29,3.29,3.29,3.32,3.32,3.32,3.32,3.28,3.29,3.29,3.29,3.3,3.3,3.3,3.3,3.32,3.32,3.32,3.32,3.32,3.28,79.3,0.0,1.0,0.0,1.0,1.0,6758313,0.0,0.0
1765225263356,0.0,0.0,1.0,10.0,0.0,0.0,0.0,0.0,0.0,0.0,-0.050508,0.019764,0.991372,-0.6300000000000001,0.35000000000000003,-0.07,3.31,3.32,3.32,3.31,3.28,3.29,3.29,3.29,3.32,3.32,3.32,3.32,3.28,3.29,3.29,3.29,3.3,3.3,3.3,3.3,3.32,3.32,3.32,3.32,3.32,3.28,79.3,0.0,1.0,0.0,1.0,1.0,6758330,0.0,0.0
1765225263373,0.0,0.0,1.0,10.0,0.0,0.0,0.0,0.0,0.0,0.0,-0.050508,0.019764,0.991372,-0.6300000000000001,0.35000000000000003,-0.07,3.31,3.32,3.32,3.31,3.28,3.29,3.29,3.29,3.32,3.32,3.32,3.32,3.28,3.29,3.29,3.29,3.3,3.3,3.3,3.3,3.32,3.32,3.32,3.32,3.32,3.28,79.3,0.0,1.0,0.0,1.0,1.0,6758347,0.0,0.0
1765225263407,0.0,0.0,1.0,10.0,0.0,0.0,0.0,0.0,0.0,0.0,-0.050508,0.019764,0.991372,-0.6300000000000001,0.35000000000000003,-0.07,3.31,3.32,3.32,3.31,3.28,3.29,3.29,3.29,3.32,3.32,3.32,3.32,3.28,3.29,3.29,3.29,3.3,3.3,3.3,3.3,3.32,3.32,3.32,3.32,3.32,3.28,79.3,0.0,1.0,0.0,1.0,1.0,6758381,0.0,0.0
1765225263423,0.0,0.0,1.0,10.0,0.0,0.0,0.0,0.0,0.0,0.0,-0.050508,0.019764,0.991372,-0.6300000000000001,0.35000000000000003,-0.07,3.31,3.32,3.32,3.31,3.28,3.29,3.29,3.29,3.32,3.32,3.32,3.32,3.28,3.29,3.29,3.29,3.3,3.3,3.3,3.3,3.32,3.32,3.32,3.32,3.32,3.28,79.3,0.0,1.0,0.0,1.0,1.0,6758397,0.0,0.0
1765225263456,0.0,0.0,1.0,10.0,0.0,0.0,0.0,0.0,0.0,0.0,-0.050508,0.019764,0.991372,-0.6300000000000001,0.35000000000000003,-0.07,3.31,3.32,3.32,3.31,3.28,3.29,3.29,3.29,3.32,3.32,3.32,3.32,3.28,3.29,3.29,3.29,3.3,3.3,3.3,3.3,3.32,3.32,3.32,3.32,3.32,3.28,79.3,0.0,1.0,0.0,1.0,1.0,6758430,0.0,0.0
1765225263488,0.0,0.0,1.0,10.0,0.0,0.0,0.0,0.0,0.0,0.0,-0.049288,0.02013,0.991372,-0.6300000000000001,0.35000000000000003,-0.07,3.31,3.32,3.32,3.31,3.28,3.29,3.29,3.29,3.32,3.32,3.32,3.32,3.28,3.29,3.29,3.29,3.3,3.3,3.3,3.3,3.32,3.32,3.32,3.32,3.32,3.28,79.3,0.0,1.0,0.0,1.0,1.0,6758462,0.0,0.0
1765225263523,0.0,0.0,1.0,10.0,0.0,0.0,0.0,0.0,0.0,0.0,-0.049288,0.02013,0.991372,-0.6300000000000001,0.35000000000000003,-0.07,3.31,3.32,3.32,3.31,3.28,3.29,3.29,3.29,3.32,3.32,3.32,3.32,3.28,3.29,3.29,3.29,3.3,3.3,3.3,3.3,3.32,3.32,3.32,3.32,3.32,3.28,79.3,0.0,1.0,0.0,1.0,1.0,6758497,0.0,0.0
1765225263538,0.0,0.0,1.0,10.0,0.0,0.0,0.0,0.0,0.0,0.0,-0.049288,0.02013,0.991372,-0.7000000000000001,0.42000000000000004,-0.07,3.31,3.32,3.32,3.31,3.28,3.29,3.29,3.29,3.32,3.32,3.32,3.32,3.28,3.29,3.29,3.29,3.3,3.3,3.3,3.3,3.32,3.32,3.32,3.32,3.32,3.28,79.3,0.0,1.0,0.0,1.0,1.0,6758512,0.0,0.0
1765225263622,0.0,0.0,1.0,10.0,0.0,0.0,0.0,0.0,0.0,0.0,-0.049776,0.020862,0.9916159999999999,-0.7000000000000001,0.42000000000000004,-0.07,3.31,3.32,3.32,3.31,3.28,3.29,3.29,3.29,3.32,3.32,3.32,3.32,3.28,3.29,3.29,3.29,3.3,3.3,3.3,3.3,3.32,3.32,3.32,3.32,3.32,3.28,79.3,0.0,1.0,0.0,1.0,1.0,6758596,0.0,0.0
1765225263639,0.0,0.0,1.0,10.0,0.0,0.0,0.0,0.0,0.0,0.0,-0.049776,0.020862,0.9916159999999999,-0.7000000000000001,0.35000000000000003,-0.07,3.31,3.32,3.32,3.31,3.28,3.29,3.29,3.29,3.32,3.32,3.32,3.32,3.28,3.29,3.29,3.29,3.3,3.3,3.3,3.3,3.32,3.32,3.32,3.32,3.32,3.28,79.3,0.0,1.0,0.0,1.0,1.0,6758613,0.0,0.0
1765225263673,0.0,0.0,1.0,10.0,0.0,0.0,0.0,0.0,0.0,0.0,-0.049776,0.020862,0.9916159999999999,-0.7000000000000001,0.35000000000000003,-0.07,3.31,3.32,3.32,3.31,3.28,3.29,3.29,3.29,3.32,3.32,3.32,3.32,3.28,3.29,3.29,3.29,3.3,3.3,3.3,3.3,3.32,3.32,3.32,3.32,3.32,3.28,79.3,0.0,1.0,0.0,1.0,1.0,6758647,0.0,0.0
1765225263688,0.0,0.0,1.0,10.0,0.0,0.0,0.0,0.0,0.0,0.0,-0.049776,0.020862,0.9916159999999999,-0.7000000000000001,0.35000000000000003,-0.07,3.31,3.32,3.32,3.31,3.28,3.29,3.29,3.29,3.32,3.32,3.32,3.32,3.28,3.29,3.29,3.29,3.3,3.3,3.3,3.3,3.32,3.32,3.32,3.32,3.32,3.28,79.3,0.0,1.0,0.0,1.0,1.0,6758662,0.0,0.0
1765225263705,0.0,0.0,1.0,10.0,0.0,0.0,0.0,0.0,0.0,0.0,-0.049776,0.020862,0.9916159999999999,-0.7000000000000001,0.35000000000000003,-0.07,3.31,3.32,3.32,3.31,3.28,3.29,3.29,3.29,3.32,3.32,3.32,3.32,3.28,3.29,3.29,3.29,3.3,3.3,3.3,3.3,3.32,3.32,3.32,3.32,3.32,3.28,79.3,0.0,1.0,0.0,1.0,1.0,6758679,0.0,0.0
1765225263739,0.0,0.0,1.0,10.0,0.0,0.0,0.0,0.0,0.0,0.0,-0.049776,0.020862,0.9916159999999999,-0.7000000000000001,0.35000000000000003,-0.07,3.31,3.32,3.32,3.31,3.28,3.29,3.29,3.29,3.32,3.32,3.32,3.32,3.28,3.29,3.29,3.29,3.3,3.3,3.3,3.3,3.32,3.32,3.32,3.32,3.32,3.28,79.3,0.0,1.0,0.0,1.0,1.0,6758713,0.0,0.0
1765225263806,0.0,0.0,1.0,10.0,0.0,0.0,0.0,0.0,0.0,0.0,-0.049776,0.020862,0.9916159999999999,-0.7000000000000001,0.35000000000000003,-0.07,3.31,3.32,3.32,3.31,3.28,3.29,3.29,3.29,3.32,3.32,3.32,3.32,3.28,3.29,3.29,3.29,3.3,3.3,3.3,3.3,3.32,3.32,3.32,3.32,3.32,3.28,79.3,0.0,1.0,0.0,1.0,1.0,6758780,0.0,0.0
1765225263822,0.0,0.0,1.0,10.0,0.0,0.0,0.0,0.0,0.0,0.0,-0.050263999999999996,0.019642,0.98942,-0.7000000000000001,0.35000000000000003,-0.07,3.31,3.32,3.32,3.31,3.28,3.29,3.29,3.29,3.32,3.32,3.32,3.32,3.28,3.29,3.29,3.29,3.3,3.3,3.3,3.3,3.32,3.32,3.32,3.32,3.32,3.28,79.3,0.0,1.0,0.0,1.0,1.0,6758796,0.0,0.0
1765225263873,0.0,0.0,1.0,10.0,0.0,0.0,0.0,0.0,0.0,0.0,-0.050263999999999996,0.019642,0.98942,-0.6300000000000001,0.35000000000000003,-0.07,3.31,3.32,3.32,3.31,3.28,3.29,3.29,3.29,3.32,3.32,3.32,3.32,3.28,3.29,3.29,3.29,3.3,3.3,3.3,3.3,3.32,3.32,3.32,3.32,3.32,3.28,79.3,0.0,1.0,0.0,1.0,1.0,6758847,0.0,0.0
1765225263922,0.0,0.0,1.0,10.0,0.0,0.0,0.0,0.0,0.0,0.0,-0.049044,0.021106,0.9922259999999999,-0.6300000000000001,0.35000000000000003,-0.07,3.31,3.32,3.32,3.31,3.28,3.29,3.29,3.29,3.32,3.32,3.32,3.32,3.28,3.29,3.29,3.29,3.3,3.3,3.3,3.3,3.32,3.32,3.32,3.32,3.32,3.28,79.3,0.0,1.0,0.0,1.0,1.0,6758896,0.0,0.0
1765225264004,0.0,0.0,1.0,10.0,0.0,0.0,0.0,0.0,0.0,0.0,-0.051362,0.020862,0.9903959999999999,-0.6300000000000001,0.28,0.0,3.31,3.32,3.32,3.31,3.28,3.29,3.29,3.29,3.32,3.32,3.32,3.32,3.28,3.29,3.29,3.29,3.3,3.3,3.3,3.3,3.32,3.32,3.32,3.32,3.32,3.28,79.3,0.0,1.0,0.0,1.0,1.0,6758978,0.0,0.0
1765225264057,0.0,0.0,1.0,10.0,0.0,0.0,0.0,0.0,0.0,0.0,-0.051362,0.020862,0.9903959999999999,-0.6300000000000001,0.28,0.0,3.31,3.32,3.32,3.31,3.28,3.29,3.29,3.29,3.32,3.32,3.32,3.32,3.28,3.29,3.29,3.29,3.3,3.3,3.3,3.3,3.32,3.32,3.32,3.32,3.32,3.28,79.3,0.0,1.0,0.0,1.0,1.0,6759031,0.0,0.0
1765225264073,0.0,0.0,1.0,10.0,0.0,0.0,0.0,0.0,0.0,0.0,-0.051362,0.020862,0.9903959999999999,-0.6300000000000001,0.28,0.0,3.31,3.32,3.32,3.31,3.28,3.29,3.29,3.29,3.32,3.32,3.32,3.32,3.28,3.29,3.29,3.29,3.3,3.3,3.3,3.3,3.32,3.32,3.32,3.32,3.32,3.28,79.3,0.0,1.0,0.0,1.0,1.0,6759047,0.0,0.0
1765225264090,0.0,0.0,1.0,10.0,0.0,0.0,0.0,0.0,0.0,0.0,-0.04758,0.021838,0.991494,-0.6300000000000001,0.28,0.0,3.31,3.32,3.32,3.31,3.28,3.29,3.29,3.29,3.32,3.32,3.32,3.32,3.28,3.29,3.29,3.29,3.3,3.3,3.3,3.3,3.32,3.32,3.32,3.32,3.32,3.28,79.3,0.0,1.0,0.0,1.0,1.0,6759064,0.0,0.0
1765225264122,0.0,0.0,1.0,10.0,0.0,0.0,0.0,0.0,0.0,0.0,-0.04758,0.021838,0.991494,-0.6300000000000001,0.28,0.0,3.31,3.32,3.32,3.31,3.28,3.29,3.29,3.29,3.32,3.32,3.32,3.32,3.28,3.29,3.29,3.29,3.3,3.3,3.3,3.3,3.32,3.32,3.32,3.32,3.32,3.28,79.3,0.0,1.0,0.0,1.0,1.0,6759096,0.0,0.0
1765225264139,0.0,0.0,1.0,10.0,0.0,0.0,0.0,0.0,0.0,0.0,-0.04758,0.021838,0.991494,-0.6300000000000001,0.28,0.0,3.31,3.32,3.32,3.31,3.28,3.29,3.29,3.29,3.32,3.32,3.32,3.32,3.28,3.29,3.29,3.29,3.3,3.3,3.3,3.3,3.32,3.32,3.32,3.32,3.32,3.28,79.3,0.0,1.0,0.0,1.0,1.0,6759113,0.0,0.0
1765225264156,0.0,0.0,1.0,10.0,0.0,0.0,0.0,0.0,0.0,0.0,-0.04758,0.021838,0.991494,-0.6300000000000001,0.28,0.0,3.31,3.32,3.32,3.31,3.28,3.29,3.29,3.29,3.32,3.32,3.32,3.32,3.28,3.29,3.29,3.29,3.3,3.3,3.3,3.3,3.32,3.32,3.32,3.32,3.32,3.28,79.3,0.0,1.0,0.0,1.0,1.0,6759130,0.0,0.0
1765225264172,0.0,0.0,1.0,10.0,0.0,0.0,0.0,0.0,0.0,0.0,-0.04758,0.021838,0.991494,-0.6300000000000001,0.28,0.0,3.31,3.32,3.32,3.31,3.28,3.29,3.29,3.29,3.32,3.32,3.32,3.32,3.28,3.29,3.29,3.29,3.3,3.3,3.3,3.3,3.32,3.32,3.32,3.32,3.32,3.28,79.3,0.0,1.0,0.0,1.0,1.0,6759146,0.0,0.0
1765225264188,0.0,0.0,1.0,10.0,0.0,0.0,0.0,0.0,0.0,0.0,-0.04758,0.021838,0.991494,-0.6300000000000001,0.28,0.0,3.31,3.32,3.32,3.31,3.28,3.29,3.29,3.29,3.32,3.32,3.32,3.32,3.28,3.29,3.29,3.29,3.3,3.3,3.3,3.3,3.32,3.32,3.32,3.32,3.32,3.28,79.3,0.0,1.0,0.0,1.0,1.0,6759162,0.0,0.0
1765225264222,0.0,0.0,1.0,10.0,0.0,0.0,0.0,0.0,0.0,0.0,-0.04758,0.021838,0.991494,-0.6300000000000001,0.28,0.0,3.31,3.32,3.32,3.31,3.28,3.29,3.29,3.29,3.32,3.32,3.32,3.32,3.28,3.29,3.29,3.29,3.3,3.3,3.3,3.3,3.32,3.32,3.32,3.32,3.32,3.28,79.3,0.0,1.0,0.0,1.0,1.0,6759196,0.0,0.0
1765225264256,0.0,0.0,1.0,10.0,0.0,0.0,0.0,0.0,0.0,0.0,-0.04758,0.021838,0.991494,-0.6300000000000001,0.28,0.0,3.31,3.32,3.32,3.31,3.28,3.29,3.29,3.29,3.32,3.32,3.32,3.32,3.28,3.29,3.29,3.29,3.3,3.3,3.3,3.3,3.32,3.32,3.32,3.32,3.32,3.28,79.3,0.0,1.0,0.0,1.0,1.0,6759230,0.0,0.0
1765225264272,0.0,0.0,1.0,10.0,0.0,0.0,0.0,0.0,0.0,0.0,-0.04758,0.021838,0.991494,-0.56,0.42000000000000004,0.0,3.31,3.32,3.32,3.31,3.28,3.29,3.29,3.29,3.32,3.32,3.32,3.32,3.28,3.29,3.29,3.29,3.3,3.3,3.3,3.3,3.32,3.32,3.32,3.32,3.32,3.28,79.3,0.0,1.0,0.0,1.0,1.0,6759246,0.0,0.0
1765225264373,0.0,0.0,1.0,10.0,0.0,0.0,0.0,0.0,0.0,0.0,-0.05063,0.020007999999999998,0.990884,-0.6300000000000001,0.49000000000000005,-0.14,3.31,3.32,3.32,3.31,3.28,3.29,3.29,3.29,3.32,3.32,3.32,3.32,3.28,3.29,3.29,3.29,3.3,3.3,3.3,3.3,3.32,3.32,3.32,3.32,3.32,3.28,79.3,0.0,1.0,0.0,1.0,1.0,6759347,0.0,0.0
1765225264406,0.0,0.0,1.0,10.0,0.0,0.0,0.0,0.0,0.0,0.0,-0.05063,0.020007999999999998,0.990884,-0.6300000000000001,0.49000000000000005,-0.14,3.31,3.32,3.32,3.31,3.28,3.29,3.29,3.29,3.32,3.32,3.32,3.32,3.28,3.29,3.29,3.29,3.3,3.3,3.3,3.3,3.32,3.32,3.32,3.32,3.32,3.28,79.3,0.0,1.0,0.0,1.0,1.0,6759380,0.0,0.0
1765225264423,0.0,0.0,1.0,10.0,0.0,0.0,0.0,0.0,0.0,0.0,-0.05063,0.020007999999999998,0.990884,-0.6300000000000001,0.49000000000000005,-0.14,3.31,3.32,3.32,3.31,3.28,3.29,3.29,3.29,3.32,3.32,3.32,3.32,3.28,3.29,3.29,3.29,3.3,3.3,3.3,3.3,3.32,3.32,3.32,3.32,3.32,3.28,79.3,0.0,1.0,0.0,1.0,1.0,6759397,0.0,0.0
1765225264439,0.0,0.0,1.0,10.0,0.0,0.0,0.0,0.0,0.0,0.0,-0.05063,0.020007999999999998,0.990884,-0.6300000000000001,0.49000000000000005,-0.14,3.31,3.32,3.32,3.31,3.28,3.29,3.29,3.29,3.32,3.32,3.32,3.32,3.28,3.29,3.29,3.29,3.3,3.3,3.3,3.3,3.32,3.32,3.32,3.32,3.32,3.28,79.3,0.0,1.0,0.0,1.0,1.0,6759413,0.0,0.0
1765225264456,0.0,0.0,1.0,10.0,0.0,0.0,0.0,0.0,0.0,0.0,-0.05063,0.020007999999999998,0.990884,-0.6300000000000001,0.49000000000000005,-0.14,3.31,3.32,3.32,3.31,3.28,3.29,3.29,3.29,3.32,3.32,3.32,3.32,3.28,3.29,3.29,3.29,3.3,3.3,3.3,3.3,3.32,3.32,3.32,3.32,3.32,3.28,79.3,0.0,1.0,0.0,1.0,1.0,6759430,0.0,0.0
1765225264489,0.0,0.0,1.0,10.0,0.0,0.0,0.0,0.0,0.0,0.0,-0.05063,0.020007999999999998,0.990884,-0.6300000000000001,0.49000000000000005,-0.14,3.31,3.32,3.32,3.31,3.28,3.29,3.29,3.29,3.32,3.32,3.32,3.32,3.28,3.29,3.29,3.29,3.3,3.3,3.3,3.3,3.32,3.32,3.32,3.32,3.32,3.28,79.3,0.0,1.0,0.0,1.0,1.0,6759463,0.0,0.0
1765225264539,0.0,0.0,1.0,10.0,0.0,0.0,0.0,0.0,0.0,0.0,-0.05063,0.020007999999999998,0.990884,-0.6300000000000001,0.49000000000000005,-0.14,3.31,3.32,3.32,3.31,3.28,3.29,3.29,3.29,3.32,3.32,3.32,3.32,3.28,3.29,3.29,3.29,3.3,3.3,3.3,3.3,3.32,3.32,3.32,3.32,3.32,3.28,79.3,0.0,1.0,0.0,1.0,1.0,6759513,0.0,0.0
1765225264556,0.0,0.0,1.0,10.0,0.0,0.0,0.0,0.0,0.0,0.0,-0.05063,0.020007999999999998,0.990884,-0.6300000000000001,0.49000000000000005,-0.14,3.31,3.32,3.32,3.31,3.28,3.29,3.29,3.29,3.32,3.32,3.32,3.32,3.28,3.29,3.29,3.29,3.3,3.3,3.3,3.3,3.32,3.32,3.32,3.32,3.32,3.28,79.3,0.0,1.0,0.0,1.0,1.0,6759530,0.0,0.0
1765225264573,0.0,0.0,1.0,10.0,0.0,0.0,0.0,0.0,0.0,0.0,-0.05063,0.020007999999999998,0.990884,-0.6300000000000001,0.42000000000000004,0.0,3.31,3.32,3.32,3.31,3.28,3.29,3.29,3.29,3.32,3.32,3.32,3.32,3.28,3.29,3.29,3.29,3.3,3.3,3.3,3.3,3.32,3.32,3.32,3.32,3.32,3.28,79.3,0.0,1.0,0.0,1.0,1.0,6759547,0.0,0.0
1765225264589,0.0,0.0,1.0,10.0,0.0,0.0,0.0,0.0,0.0,0.0,-0.05063,0.020007999999999998,0.990884,-0.6300000000000001,0.42000000000000004,0.0,3.31,3.32,3.32,3.31,3.28,3.29,3.29,3.29,3.32,3.32,3.32,3.32,3.28,3.29,3.29,3.29,3.3,3.3,3.3,3.3,3.32,3.32,3.32,3.32,3.32,3.28,79.3,0.0,1.0,0.0,1.0,1.0,6759563,0.0,0.0
1765225264622,0.0,0.0,1.0,10.0,0.0,0.0,0.0,0.0,0.0,0.0,-0.05063,0.020007999999999998,0.990884,-0.6300000000000001,0.42000000000000004,0.0,3.31,3.32,3.32,3.31,3.28,3.29,3.29,3.29,3.32,3.32,3.32,3.32,3.28,3.29,3.29,3.29,3.3,3.3,3.3,3.3,3.32,3.32,3.32,3.32,3.32,3.28,79.3,0.0,1.0,0.0,1.0,1.0,6759596,0.0,0.0
1765225264673,0.0,0.0,1.0,10.0,0.0,0.0,0.0,0.0,0.0,0.0,-0.05063,0.020007999999999998,0.990884,-0.6300000000000001,0.42000000000000004,0.0,3.31,3.32,3.32,3.31,3.28,3.29,3.29,3.29,3.32,3.32,3.32,3.32,3.28,3.29,3.29,3.29,3.3,3.3,3.3,3.3,3.32,3.32,3.32,3.32,3.32,3.28,79.3,0.0,1.0,0.0,1.0,1.0,6759647,0.0,0.0
1765225264739,0.0,0.0,1.0,10.0,0.0,0.0,0.0,0.0,0.0,0.0,-0.048312,0.020618,0.991982,-0.6300000000000001,0.42000000000000004,0.0,3.31,3.32,3.32,3.31,3.28,3.29,3.29,3.29,3.32,3.32,3.32,3.32,3.28,3.29,3.29,3.29,3.3,3.3,3.3,3.3,3.32,3.32,3.32,3.32,3.32,3.28,79.3,0.0,1.0,0.0,1.0,1.0,6759713,0.0,0.0
1765225264755,0.0,0.0,1.0,10.0,0.0,0.0,0.0,0.0,0.0,0.0,-0.048312,0.020618,0.991982,-0.6300000000000001,0.42000000000000004,-0.07,3.31,3.32,3.32,3.31,3.28,3.29,3.29,3.29,3.32,3.32,3.32,3.32,3.28,3.29,3.29,3.29,3.3,3.3,3.3,3.3,3.32,3.32,3.32,3.32,3.32,3.28,79.3,0.0,1.0,0.0,1.0,1.0,6759729,0.0,0.0
1765225264822,0.0,0.0,1.0,10.0,0.0,0.0,0.0,0.0,0.0,0.0,-0.048312,0.020618,0.991982,-0.6300000000000001,0.42000000000000004,-0.07,3.31,3.32,3.32,3.31,3.28,3.29,3.29,3.29,3.32,3.32,3.32,3.32,3.28,3.29,3.29,3.29,3.3,3.3,3.3,3.3,3.32,3.32,3.32,3.32,3.32,3.28,79.3,0.0,1.0,0.0,1.0,1.0,6759796,0.0,0.0
1765225264840,0.0,0.0,1.0,10.0,0.0,0.0,0.0,0.0,0.0,0.0,-0.049044,0.021471999999999998,0.99064,-0.6300000000000001,0.42000000000000004,-0.07,3.31,3.32,3.32,3.31,3.28,3.29,3.29,3.29,3.32,3.32,3.32,3.32,3.28,3.29,3.29,3.29,3.3,3.3,3.3,3.3,3.32,3.32,3.32,3.32,3.32,3.28,79.3,0.0,1.0,0.0,1.0,1.0,6759814,0.0,0.0
1765225264854,0.0,0.0,1.0,10.0,0.0,0.0,0.0,0.0,0.0,0.0,-0.049044,0.021471999999999998,0.99064,-0.6300000000000001,0.42000000000000004,-0.07,3.31,3.32,3.32,3.31,3.28,3.29,3.29,3.29,3.32,3.32,3.32,3.32,3.28,3.29,3.29,3.29,3.3,3.3,3.3,3.3,3.32,3.32,3.32,3.32,3.32,3.28,79.3,0.0,1.0,0.0,1.0,1.0,6759828,0.0,0.0
1765225264887,0.0,0.0,1.0,10.0,0.0,0.0,0.0,0.0,0.0,0.0,-0.049044,0.021471999999999998,0.99064,-0.6300000000000001,0.42000000000000004,-0.07,3.31,3.32,3.32,3.31,3.28,3.29,3.29,3.29,3.32,3.32,3.32,3.32,3.28,3.29,3.29,3.29,3.3,3.3,3.3,3.3,3.32,3.32,3.32,3.32,3.32,3.28,79.3,0.0,1.0,0.0,1.0,1.0,6759861,0.0,0.0
1765225264906,0.0,0.0,1.0,10.0,0.0,0.0,0.0,0.0,0.0,0.0,-0.049044,0.021471999999999998,0.99064,-0.56,0.35000000000000003,-0.07,3.31,3.32,3.32,3.31,3.28,3.29,3.29,3.29,3.32,3.32,3.32,3.32,3.28,3.29,3.29,3.29,3.3,3.3,3.3,3.3,3.32,3.32,3.32,3.32,3.32,3.28,79.3,0.0,1.0,0.0,1.0,1.0,6759880,0.0,0.0
1765225264956,0.0,0.0,1.0,10.0,0.0,0.0,0.0,0.0,0.0,0.0,-0.049044,0.021471999999999998,0.99064,-0.56,0.35000000000000003,-0.07,3.31,3.32,3.32,3.31,3.28,3.29,3.29,3.29,3.32,3.32,3.32,3.32,3.28,3.29,3.29,3.29,3.3,3.3,3.3,3.3,3.32,3.32,3.32,3.32,3.32,3.28,79.3,0.0,1.0,0.0,1.0,1.0,6759930,0.0,0.0
1765225265039,0.0,0.0,1.0,10.0,0.0,0.0,0.0,0.0,0.0,0.0,-0.049044,0.021471999999999998,0.99064,-0.56,0.35000000000000003,-0.07,3.31,3.32,3.32,3.31,3.28,3.29,3.29,3.29,3.32,3.32,3.32,3.32,3.28,3.29,3.29,3.29,3.3,3.3,3.3,3.3,3.32,3.32,3.32,3.32,3.32,3.28,79.3,-1.0,1.0,0.0,1.0,1.0,6760013,0.0,0.0
1765225265056,0.0,0.0,1.0,10.0,0.0,0.0,0.0,0.0,0.0,0.0,-0.049044,0.021471999999999998,0.99064,-0.56,0.35000000000000003,-0.07,3.31,3.32,3.32,3.31,3.28,3.29,3.29,3.29,3.32,3.32,3.32,3.32,3.28,3.29,3.29,3.29,3.3,3.3,3.3,3.3,3.32,3.32,3.32,3.32,3.32,3.28,79.3,-1.0,1.0,0.0,1.0,1.0,6760030,0.0,0.0
1765225265071,0.0,0.0,1.0,10.0,0.0,0.0,0.0,0.0,0.0,0.0,-0.05063,0.020862,0.991128,-0.56,0.35000000000000003,-0.07,3.31,3.32,3.32,3.31,3.28,3.29,3.29,3.29,3.32,3.32,3.32,3.32,3.28,3.29,3.29,3.29,3.3,3.3,3.3,3.3,3.32,3.32,3.32,3.32,3.32,3.28,79.3,-1.0,1.0,0.0,1.0,1.0,6760045,0.0,0.0
1765225265088,0.0,0.0,1.0,10.0,0.0,0.0,0.0,0.0,0.0,0.0,-0.05063,0.020862,0.991128,-0.6300000000000001,0.28,-0.07,3.31,3.32,3.32,3.31,3.28,3.29,3.29,3.29,3.32,3.32,3.32,3.32,3.28,3.29,3.29,3.29,3.3,3.3,3.3,3.3,3.32,3.32,3.32,3.32,3.32,3.28,79.3,-1.0,1.0,0.0,1.0,1.0,6760062,0.0,0.0
1765225265139,0.0,0.0,1.0,10.0,0.0,0.0,0.0,0.0,0.0,0.0,-0.05063,0.020862,0.991128,-0.6300000000000001,0.28,-0.07,3.31,3.32,3.32,3.31,3.28,3.29,3.29,3.29,3.32,3.32,3.32,3.32,3.28,3.29,3.29,3.29,3.3,3.3,3.3,3.3,3.32,3.32,3.32,3.32,3.32,3.28,79.3,-1.0,1.0,0.0,1.0,1.0,6760113,0.0,0.0
1765225265156,0.0,0.0,1.0,10.0,0.0,0.0,0.0,0.0,0.0,0.0,-0.05063,0.020862,0.991128,-0.6300000000000001,0.28,-0.07,3.31,3.32,3.32,3.31,3.28,3.29,3.29,3.29,3.32,3.32,3.32,3.32,3.28,3.29,3.29,3.29,3.3,3.3,3.3,3.3,3.32,3.32,3.32,3.32,3.32,3.28,79.3,-1.0,1.0,0.0,1.0,1.0,6760130,0.0,0.0
1765225265189,0.0,0.0,1.0,10.0,0.0,0.0,0.0,0.0,0.0,0.0,-0.05063,0.020862,0.991128,-0.6300000000000001,0.28,-0.07,3.31,3.32,3.32,3.31,3.28,3.29,3.29,3.29,3.32,3.32,3.32,3.32,3.28,3.29,3.29,3.29,3.3,3.3,3.3,3.3,3.32,3.32,3.32,3.32,3.32,3.28,79.3,-1.0,1.0,0.0,1.0,1.0,6760163,0.0,0.0
1765225265206,0.0,0.0,1.0,10.0,0.0,0.0,0.0,0.0,0.0,0.0,-0.047458,0.020618,0.9910059999999999,-0.6300000000000001,0.28,-0.07,3.31,3.32,3.32,3.31,3.28,3.29,3.29,3.29,3.32,3.32,3.32,3.32,3.28,3.29,3.29,3.29,3.3,3.3,3.3,3.3,3.32,3.32,3.32,3.32,3.32,3.28,79.3,-1.0,1.0,0.0,1.0,1.0,6760180,0.0,0.0
1765225265223,0.0,0.0,1.0,10.0,0.0,0.0,0.0,0.0,0.0,0.0,-0.047458,0.020618,0.9910059999999999,-0.49000000000000005,0.42000000000000004,0.07,3.31,3.32,3.32,3.31,3.28,3.29,3.29,3.29,3.32,3.32,3.32,3.32,3.28,3.29,3.29,3.29,3.3,3.3,3.3,3.3,3.32,3.32,3.32,3.32,3.32,3.28,79.3,-1.0,1.0,0.0,1.0,1.0,6760197,0.0,0.0
1765225265256,0.0,0.0,1.0,10.0,0.0,0.0,0.0,0.0,0.0,0.0,-0.047458,0.020618,0.9910059999999999,-0.49000000000000005,0.42000000000000004,0.07,3.31,3.32,3.32,3.31,3.28,3.29,3.29,3.29,3.32,3.32,3.32,3.32,3.28,3.29,3.29,3.29,3.3,3.3,3.3,3.3,3.32,3.32,3.32,3.32,3.32,3.28,79.3,-1.0,1.0,0.0,1.0,1.0,6760230,0.0,0.0
1765225265272,0.0,0.0,1.0,10.0,0.0,0.0,0.0,0.0,0.0,0.0,-0.047458,0.020618,0.9910059999999999,-0.49000000000000005,0.42000000000000004,0.07,3.31,3.32,3.32,3.31,3.28,3.29,3.29,3.29,3.32,3.32,3.32,3.32,3.28,3.29,3.29,3.29,3.3,3.3,3.3,3.3,3.32,3.32,3.32,3.32,3.32,3.28,79.3,-1.0,1.0,0.0,1.0,1.0,6760246,0.0,0.0
1765225265289,0.0,0.0,1.0,10.0,0.0,0.0,0.0,0.0,0.0,0.0,-0.047458,0.020618,0.9910059999999999,-0.49000000000000005,0.42000000000000004,0.07,3.31,3.32,3.32,3.31,3.28,3.29,3.29,3.29,3.32,3.32,3.32,3.32,3.28,3.29,3.29,3.29,3.3,3.3,3.3,3.3,3.32,3.32,3.32,3.32,3.32,3.28,79.3,-1.0,1.0,0.0,1.0,1.0,6760263,0.0,0.0
1765225265306,0.0,0.0,1.0,10.0,0.0,0.0,0.0,0.0,0.0,0.0,-0.047458,0.020618,0.9910059999999999,-0.49000000000000005,0.42000000000000004,0.07,3.31,3.32,3.32,3.31,3.28,3.29,3.29,3.29,3.32,3.32,3.32,3.32,3.28,3.29,3.29,3.29,3.3,3.3,3.3,3.3,3.32,3.32,3.32,3.32,3.32,3.28,79.3,-1.0,1.0,0.0,1.0,1.0,6760280,0.0,0.0
1765225265323,0.0,0.0,1.0,10.0,0.0,0.0,0.0,0.0,0.0,0.0,-0.047458,0.020618,0.9910059999999999,-0.49000000000000005,0.42000000000000004,0.07,3.31,3.32,3.32,3.31,3.28,3.29,3.29,3.29,3.32,3.32,3.32,3.32,3.28,3.29,3.29,3.29,3.3,3.3,3.3,3.3,3.32,3.32,3.32,3.32,3.32,3.28,79.3,-1.0,1.0,0.0,1.0,1.0,6760297,0.0,0.0
1765225265390,0.0,0.0,1.0,10.0,0.0,0.0,0.0,0.0,0.0,0.0,-0.047458,0.020618,0.9910059999999999,-0.49000000000000005,0.42000000000000004,0.07,3.31,3.32,3.32,3.31,3.28,3.29,3.29,3.29,3.32,3.32,3.32,3.32,3.28,3.29,3.29,3.29,3.3,3.3,3.3,3.3,3.32,3.32,3.32,3.32,3.32,3.28,79.3,-1.0,1.0,0.0,1.0,1.0,6760364,0.0,0.0
1765225265405,0.0,0.0,1.0,10.0,0.0,0.0,0.0,0.0,0.0,0.0,-0.04636,0.01952,0.994178,-0.49000000000000005,0.42000000000000004,0.07,3.31,3.32,3.32,3.31,3.28,3.29,3.29,3.29,3.32,3.32,3.32,3.32,3.28,3.29,3.29,3.29,3.3,3.3,3.3,3.3,3.32,3.32,3.32,3.32,3.32,3.28,79.3,-1.0,1.0,0.0,1.0,1.0,6760379,0.0,0.0
1765225265455,0.0,0.0,1.0,10.0,0.0,0.0,0.0,0.0,0.0,0.0,-0.04636,0.01952,0.994178,-0.6300000000000001,0.49000000000000005,0.0,3.31,3.32,3.32,3.31,3.28,3.29,3.29,3.29,3.32,3.32,3.32,3.32,3.28,3.29,3.29,3.29,3.3,3.3,3.3,3.3,3.32,3.32,3.32,3.32,3.32,3.28,79.3,-1.0,1.0,0.0,1.0,1.0,6760429,0.0,0.0
1765225265505,0.0,0.0,1.0,10.0,0.0,0.0,0.0,0.0,0.0,0.0,-0.050996,0.019764,0.99125,-0.6300000000000001,0.49000000000000005,0.0,3.31,3.32,3.32,3.31,3.28,3.29,3.29,3.29,3.32,3.32,3.32,3.32,3.28,3.29,3.29,3.29,3.3,3.3,3.3,3.3,3.32,3.32,3.32,3.32,3.32,3.28,79.3,-1.0,1.0,0.0,1.0,1.0,6760479,0.0,0.0
1765225265539,0.0,0.0,1.0,10.0,0.0,0.0,0.0,0.0,0.0,0.0,-0.050996,0.019764,0.99125,-0.6300000000000001,0.49000000000000005,0.0,3.31,3.32,3.32,3.31,3.28,3.29,3.29,3.29,3.32,3.32,3.32,3.32,3.28,3.29,3.29,3.29,3.3,3.3,3.3,3.3,3.32,3.32,3.32,3.32,3.32,3.28,79.3,-1.0,1.0,0.0,1.0,1.0,6760513,0.0,0.0
1765225265555,0.0,0.0,1.0,10.0,0.0,0.0,0.0,0.0,0.0,0.0,-0.050996,0.019764,0.99125,-0.7000000000000001,0.42000000000000004,0.0,3.31,3.32,3.32,3.31,3.28,3.29,3.29,3.29,3.32,3.32,3.32,3.32,3.28,3.29,3.29,3.29,3.3,3.3,3.3,3.3,3.32,3.32,3.32,3.32,3.32,3.28,79.3,-1.0,1.0,0.0,1.0,1.0,6760529,0.0,0.0
1765225265572,0.0,0.0,1.0,10.0,0.0,0.0,0.0,0.0,0.0,0.0,-0.050996,0.019764,0.99125,-0.7000000000000001,0.42000000000000004,0.0,3.31,3.32,3.32,3.31,3.28,3.29,3.29,3.29,3.32,3.32,3.32,3.32,3.28,3.29,3.29,3.29,3.3,3.3,3.3,3.3,3.32,3.32,3.32,3.32,3.32,3.28,79.3,-1.0,1.0,0.0,1.0,1.0,6760546,0.0,0.0
1765225265622,0.0,0.0,1.0,10.0,0.0,0.0,0.0,0.0,0.0,0.0,-0.050996,0.019764,0.99125,-0.7000000000000001,0.42000000000000004,0.0,3.31,3.32,3.32,3.31,3.28,3.29,3.29,3.29,3.32,3.32,3.32,3.32,3.28,3.29,3.29,3.29,3.3,3.3,3.3,3.3,3.32,3.32,3.32,3.32,3.32,3.28,79.3,-1.0,1.0,0.0,1.0,1.0,6760596,0.0,0.0
1765225265673,0.0,0.0,1.0,10.0,0.0,0.0,0.0,0.0,0.0,0.0,-0.050996,0.019764,0.99125,-0.7000000000000001,0.42000000000000004,0.0,3.31,3.32,3.32,3.31,3.28,3.29,3.29,3.29,3.32,3.32,3.32,3.32,3.28,3.29,3.29,3.29,3.3,3.3,3.3,3.3,3.32,3.32,3.32,3.32,3.32,3.28,79.3,-1.0,1.0,0.0,1.0,1.0,6760647,0.0,0.0
1765225265738,0.0,0.0,1.0,10.0,0.0,0.0,0.0,0.0,0.0,0.0,-0.053314,0.020984,0.9910059999999999,-0.7000000000000001,0.42000000000000004,0.0,3.31,3.32,3.32,3.31,3.28,3.29,3.29,3.29,3.32,3.32,3.32,3.32,3.28,3.29,3.29,3.29,3.3,3.3,3.3,3.3,3.32,3.32,3.32,3.32,3.32,3.28,79.3,-1.0,1.0,0.0,1.0,1.0,6760712,0.0,0.0
1765225265755,0.0,0.0,1.0,10.0,0.0,0.0,0.0,0.0,0.0,0.0,-0.053314,0.020984,0.9910059999999999,-0.7000000000000001,0.42000000000000004,0.0,3.31,3.32,3.32,3.31,3.28,3.29,3.29,3.29,3.32,3.32,3.32,3.32,3.28,3.29,3.29,3.29,3.3,3.3,3.3,3.3,3.32,3.32,3.32,3.32,3.32,3.28,79.3,-1.0,1.0,0.0,1.0,1.0,6760729,0.0,0.0
1765225265772,0.0,0.0,1.0,10.0,0.0,0.0,0.0,0.0,0.0,0.0,-0.053314,0.020984,0.9910059999999999,-0.7000000000000001,0.42000000000000004,0.0,3.31,3.32,3.32,3.31,3.28,3.29,3.29,3.29,3.32,3.32,3.32,3.32,3.28,3.29,3.29,3.29,3.3,3.3,3.3,3.3,3.32,3.32,3.32,3.32,3.32,3.28,79.3,-1.0,1.0,0.0,1.0,1.0,6760746,0.0,0.0
1765225265788,0.0,0.0,1.0,10.0,0.0,0.0,0.0,0.0,0.0,0.0,-0.053314,0.020984,0.9910059999999999,-0.7000000000000001,0.42000000000000004,0.0,3.31,3.32,3.32,3.31,3.28,3.29,3.29,3.29,3.32,3.32,3.32,3.32,3.28,3.29,3.29,3.29,3.3,3.3,3.3,3.3,3.32,3.32,3.32,3.32,3.32,3.28,79.3,-1.0,1.0,0.0,1.0,1.0,6760762,0.0,0.0
1765225265872,0.0,0.0,1.0,10.0,0.0,0.0,0.0,0.0,0.0,0.0,-0.054412,0.0183,0.99003,-0.7000000000000001,0.42000000000000004,0.0,3.31,3.32,3.32,3.31,3.28,3.29,3.29,3.29,3.32,3.32,3.32,3.32,3.28,3.29,3.29,3.29,3.3,3.3,3.3,3.3,3.32,3.32,3.32,3.32,3.32,3.28,79.3,-1.0,1.0,0.0,1.0,1.0,6760846,0.0,0.0
1765225265890,0.0,0.0,1.0,10.0,0.0,0.0,0.0,0.0,0.0,0.0,-0.054412,0.0183,0.99003,-0.7000000000000001,0.42000000000000004,0.0,3.31,3.32,3.32,3.31,3.28,3.29,3.29,3.29,3.32,3.32,3.32,3.32,3.28,3.29,3.29,3.29,3.3,3.3,3.3,3.3,3.32,3.32,3.32,3.32,3.32,3.28,79.3,-1.0,1.0,0.0,1.0,1.0,6760864,0.0,0.0
1765225265922,0.0,0.0,1.0,10.0,0.0,0.0,0.0,0.0,0.0,0.0,-0.054412,0.0183,0.99003,-0.7000000000000001,0.42000000000000004,0.0,3.31,3.32,3.32,3.31,3.28,3.29,3.29,3.29,3.32,3.32,3.32,3.32,3.28,3.29,3.29,3.29,3.3,3.3,3.3,3.3,3.32,3.32,3.32,3.32,3.32,3.28,79.3,-1.0,1.0,0.0,1.0,1.0,6760896,0.0,0.0
1765225265938,0.0,0.0,1.0,10.0,0.0,0.0,0.0,0.0,0.0,0.0,-0.054412,0.0183,0.99003,-0.7000000000000001,0.42000000000000004,0.0,3.31,3.32,3.32,3.31,3.28,3.29,3.29,3.29,3.32,3.32,3.32,3.32,3.28,3.29,3.29,3.29,3.3,3.3,3.3,3.3,3.32,3.32,3.32,3.32,3.32,3.28,79.3,-1.0,1.0,0.0,1.0,1.0,6760912,0.0,0.0
1765225265955,0.0,0.0,1.0,10.0,0.0,0.0,0.0,0.0,0.0,0.0,-0.054412,0.0183,0.99003,-0.6300000000000001,0.28,-0.07,3.31,3.32,3.32,3.31,3.28,3.29,3.29,3.29,3.32,3.32,3.32,3.32,3.28,3.29,3.29,3.29,3.3,3.3,3.3,3.3,3.32,3.32,3.32,3.32,3.32,3.28,79.3,-1.0,1.0,0.0,1.0,1.0,6760929,0.0,0.0
1765225265988,0.0,0.0,1.0,10.0,0.0,0.0,0.0,0.0,0.0,0.0,-0.054412,0.0183,0.99003,-0.6300000000000001,0.28,-0.07,3.31,3.32,3.32,3.31,3.28,3.29,3.29,3.29,3.32,3.32,3.32,3.32,3.28,3.29,3.29,3.29,3.3,3.3,3.3,3.3,3.32,3.32,3.32,3.32,3.32,3.28,79.3,-1.0,1.0,0.0,1.0,1.0,6760962,0.0,0.0
1765225266004,0.0,0.0,1.0,10.0,0.0,0.0,0.0,0.0,0.0,0.0,-0.054412,0.0183,0.99003,-0.6300000000000001,0.28,-0.07,3.31,3.32,3.32,3.31,3.28,3.29,3.29,3.29,3.32,3.32,3.32,3.32,3.28,3.29,3.29,3.29,3.3,3.3,3.3,3.3,3.32,3.32,3.32,3.32,3.32,3.28,79.3,-1.0,1.0,0.0,1.0,1.0,6760978,0.0,0.0
1765225266022,0.0,0.0,1.0,10.0,0.0,0.0,0.0,0.0,0.0,0.0,-0.054412,0.0183,0.99003,-0.6300000000000001,0.28,-0.07,3.31,3.32,3.32,3.31,3.28,3.29,3.29,3.29,3.32,3.32,3.32,3.32,3.28,3.29,3.29,3.29,3.3,3.3,3.3,3.3,3.32,3.32,3.32,3.32,3.32,3.28,79.3,-1.0,1.0,0.0,1.0,1.0,6760996,0.0,0.0
1765225266038,0.0,0.0,1.0,10.0,0.0,0.0,0.0,0.0,0.0,0.0,-0.054412,0.0183,0.99003,-0.6300000000000001,0.28,-0.07,3.31,3.32,3.32,3.31,3.28,3.29,3.29,3.29,3.32,3.32,3.32,3.32,3.28,3.29,3.29,3.29,3.3,3.3,3.3,3.3,3.32,3.32,3.32,3.32,3.32,3.28,79.3,-1.0,1.0,0.0,1.0,1.0,6761012,0.0,0.0
1765225266072,0.0,0.0,1.0,10.0,0.0,0.0,0.0,0.0,0.0,0.0,-0.054412,0.0183,0.99003,-0.6300000000000001,0.28,-0.07,3.31,3.32,3.32,3.31,3.28,3.29,3.29,3.29,3.32,3.32,3.32,3.32,3.28,3.29,3.29,3.29,3.3,3.3,3.3,3.3,3.32,3.32,3.32,3.32,3.32,3.28,79.3,-1.0,1.0,0.0,1.0,1.0,6761046,0.0,0.0
1765225266121,0.0,0.0,1.0,10.0,0.0,0.0,0.0,0.0,0.0,0.0,-0.054412,0.0183,0.99003,-0.6300000000000001,0.28,-0.07,3.31,3.32,3.32,3.31,3.28,3.29,3.29,3.29,3.32,3.32,3.32,3.32,3.28,3.29,3.29,3.29,3.3,3.3,3.3,3.3,3.32,3.32,3.32,3.32,3.32,3.28,79.3,-1.0,1.0,0.0,1.0,1.0,6761095,0.0,0.0
1765225266172,0.0,0.0,1.0,10.0,0.0,0.0,0.0,0.0,0.0,0.0,-0.045628,0.02562,0.993812,-0.6300000000000001,0.28,-0.07,3.31,3.32,3.32,3.31,3.28,3.29,3.29,3.29,3.32,3.32,3.32,3.32,3.28,3.29,3.29,3.29,3.3,3.3,3.3,3.3,3.32,3.32,3.32,3.32,3.32,3.28,79.3,-1.0,1.0,0.0,1.0,1.0,6761146,0.0,0.0
1765225266205,0.0,0.0,1.0,10.0,0.0,0.0,0.0,0.0,0.0,0.0,-0.045628,0.02562,0.993812,-0.7000000000000001,0.42000000000000004,0.0,3.31,3.32,3.32,3.31,3.28,3.29,3.29,3.29,3.32,3.32,3.32,3.32,3.28,3.29,3.29,3.29,3.3,3.3,3.3,3.3,3.32,3.32,3.32,3.32,3.32,3.28,79.3,-1.0,1.0,0.0,1.0,1.0,6761179,0.0,0.0
1765225266255,0.0,0.0,1.0,10.0,0.0,0.0,0.0,0.0,0.0,0.0,-0.04819,0.021228,0.9882,-0.7000000000000001,0.42000000000000004,0.0,3.31,3.32,3.32,3.31,3.28,3.29,3.29,3.29,3.32,3.32,3.32,3.32,3.28,3.29,3.29,3.29,3.3,3.3,3.3,3.3,3.32,3.32,3.32,3.32,3.32,3.28,79.3,-1.0,1.0,0.0,1.0,1.0,6761229,0.0,0.0
1765225266271,0.0,0.0,1.0,10.0,0.0,0.0,0.0,0.0,0.0,0.0,-0.04819,0.021228,0.9882,-0.7000000000000001,0.42000000000000004,0.0,3.31,3.32,3.32,3.31,3.28,3.29,3.29,3.29,3.32,3.32,3.32,3.32,3.28,3.29,3.29,3.29,3.3,3.3,3.3,3.3,3.32,3.32,3.32,3.32,3.32,3.28,79.3,-1.0,1.0,0.0,1.0,1.0,6761245,0.0,0.0
1765225266289,0.0,0.0,1.0,10.0,0.0,0.0,0.0,0.0,0.0,0.0,-0.04819,0.021228,0.9882,-0.7000000000000001,0.42000000000000004,0.0,3.31,3.32,3.32,3.31,3.28,3.29,3.29,3.29,3.32,3.32,3.32,3.32,3.28,3.29,3.29,3.29,3.3,3.3,3.3,3.3,3.32,3.32,3.32,3.32,3.32,3.28,79.3,-1.0,1.0,0.0,1.0,1.0,6761263,0.0,0.0
1765225266306,0.0,0.0,1.0,10.0,0.0,0.0,0.0,0.0,0.0,0.0,-0.04819,0.021228,0.9882,-0.6300000000000001,0.21000000000000002,-0.14,3.31,3.32,3.32,3.31,3.28,3.29,3.29,3.29,3.32,3.32,3.32,3.32,3.28,3.29,3.29,3.29,3.3,3.3,3.3,3.3,3.32,3.32,3.32,3.32,3.32,3.28,79.3,-1.0,1.0,0.0,1.0,1.0,6761280,0.0,0.0
1765225266324,0.0,0.0,1.0,10.0,0.0,0.0,0.0,0.0,0.0,0.0,-0.04819,0.021228,0.9882,-0.6300000000000001,0.21000000000000002,-0.14,3.31,3.32,3.32,3.31,3.28,3.29,3.29,3.29,3.32,3.32,3.32,3.32,3.28,3.29,3.29,3.29,3.3,3.3,3.3,3.3,3.32,3.32,3.32,3.32,3.32,3.28,79.3,-1.0,1.0,0.0,1.0,1.0,6761298,0.0,0.0
1765225266354,0.0,0.0,1.0,10.0,0.0,0.0,0.0,0.0,0.0,0.0,-0.04819,0.021228,0.9882,-0.6300000000000001,0.21000000000000002,-0.14,3.31,3.32,3.32,3.31,3.28,3.29,3.29,3.29,3.32,3.32,3.32,3.32,3.28,3.29,3.29,3.29,3.3,3.3,3.3,3.3,3.32,3.32,3.32,3.32,3.32,3.28,79.3,-1.0,1.0,0.0,1.0,1.0,6761328,0.0,0.0
