timestamp,THROTTLE,BRAKE,ECU_MODE_ID,TORQUE_GAIN,TORQUE_REF_LEFT_MOTOR,TORQUE_REF_RIGHT_MOTOR,LEFT_MOTOR_SPEED,RIGHT_MOTOR_SPEED,REAR_LEFT_WHEEL_SPEED,REAR_RIGHT_WHEEL_SPEED,ACCEL_LONGITUDINAL,ACCEL_LATERAL,ACCEL_NORMAL,VEL_ANGULAR_YAW,VEL_ANGULAR_PITCH,VEL_ANGULAR_ROLL,STACK_1_CELL_1,STACK_1_CELL_2,STACK_1_CELL_3,STACK_1_CELL_4,STACK_2_CELL_1,STACK_2_CELL_2,STACK_2_CELL_3,STACK_2_CELL_4,STACK_3_CELL_1,STACK_3_CELL_2,STACK_3_CELL_3,STACK_3_CELL_4,STACK_4_CELL_1,STACK_4_CELL_2,STACK_4_CELL_3,STACK_4_CELL_4,STACK_5_CELL_1,STACK_5_CELL_2,STACK_5_CELL_3,STACK_5_CELL_4,STACK_6_CELL_1,STACK_6_CELL_2,STACK_6_CELL_3,STACK_6_CELL_4,MAX_VOLTAGE,MIN_VOLTAGE,TOTAL_VOLTAGE,SHUNT_CURRENT,BMS_MODE_ID,BMS_ERROR_ID,AIR_P,AIR_N,t
1765225260021,0.0,0.0,2.0,25.0,0.0,0.0,0.0,0.0,0.0,0.0,-0.048799999999999996,0.021228,0.991982,-0.7000000000000001,0.56,0.07,3.28,3.32,3.26,3.27,3.26,3.27,3.26,3.27,3.29,3.3,3.29,3.29,3.26,3.27,3.26,3.29,3.28,3.28,3.28,3.28,3.3,3.31,3.29,3.29,3.32,3.26,78.7,1.0,1.0,0.0,1.0,1.0,6754995
1765225260038,0.0,0.0,2.0,25.0,0.0,0.0,0.0,0.0,0.0,0.0,-0.048799999999999996,0.021228,0.991982,-0.7000000000000001,0.56,0.07,3.28,3.32,3.26,3.27,3.26,3.27,3.26,3.27,3.29,3.3,3.29,3.29,3.26,3.27,3.26,3.29,3.28,3.28,3.28,3.28,3.3,3.31,3.29,3.29,3.32,3.26,78.7,1.0,1.0,0.0,1.0,1.0,6755012
1765225260054,0.0,0.0,2.0,25.0,0.0,0.0,0.0,0.0,0.0,0.0,-0.048799999999999996,0.021228,0.991982,-0.56,0.28,0.0,3.28,3.32,3.26,3.27,3.26,3.27,3.26,3.27,3.29,3.3,3.29,3.29,3.26,3.27,3.26,3.29,3.28,3.28,3.28,3.28,3.3,3.31,3.29,3.29,3.32,3.26,78.7,1.0,1.0,0.0,1.0,1.0,6755028
1765225260139,0.0,0.0,2.0,25.0,0.0,0.0,0.0,0.0,0.0,0.0,-0.051606,0.018788,0.98881,-0.56,0.28,0.0,3.28,3.32,3.26,3.27,3.26,3.27,3.26,3.27,3.29,3.3,3.29,3.29,3.26,3.27,3.26,3.29,3.28,3.28,3.28,3.28,3.3,3.31,3.29,3.29,3.32,3.26,78.7,1.0,1.0,0.0,1.0,1.0,6755113
1765225260156,0.0,0.0,2.0,25.0,0.0,0.0,0.0,0.0,0.0,0.0,-0.051606,0.018788,0.98881,-0.6300000000000001,0.49000000000000005,0.0,3.28,3.32,3.26,3.27,3.26,3.27,3.26,3.27,3.29,3.3,3.29,3.29,3.26,3.27,3.26,3.29,3.28,3.28,3.28,3.28,3.3,3.31,3.29,3.29,3.32,3.26,78.7,1.0,1.0,0.0,1.0,1.0,6755130
1765225260189,0.0,0.0,2.0,25.0,0.0,0.0,0.0,0.0,0.0,0.0,-0.051606,0.018788,0.98881,-0.6300000000000001,0.49000000000000005,0.0,3.28,3.32,3.26,3.27,3.26,3.27,3.26,3.27,3.29,3.3,3.29,3.29,3.26,3.27,3.26,3.29,3.28,3.28,3.28,3.28,3.3,3.31,3.29,3.29,3.32,3.26,78.7,1.0,1.0,0.0,1.0,1.0,6755163
1765225260255,0.0,0.0,2.0,25.0,0.0,0.0,0.0,0.0,0.0,0.0,-0.051484,0.02196,0.990518,-0.6300000000000001,0.49000000000000005,0.0,3.28,3.32,3.26,3.27,3.26,3.27,3.26,3.27,3.29,3.3,3.29,3.29,3.26,3.27,3.26,3.29,3.28,3.28,3.28,3.28,3.3,3.31,3.29,3.29,3.32,3.26,78.7,1.0,1.0,0.0,1.0,1.0,6755229
1765225260273,0.0,0.0,2.0,25.0,0.0,0.0,0.0,0.0,0.0,0.0,-0.051484,0.02196,0.990518,-0.56,0.42000000000000004,0.0,3.28,3.32,3.26,3.27,3.26,3.27,3.26,3.27,3.29,3.3,3.29,3.29,3.26,3.27,3.26,3.29,3.28,3.28,3.28,3.28,3.3,3.31,3.29,3.29,3.32,3.26,78.7,1.0,1.0,0.0,1.0,1.0,6755247
1765225260308,0.0,0.0,2.0,25.0,0.0,0.0,0.0,0.0,0.0,0.0,-0.05063,0.01952,0.9928359999999999,-0.56,0.42000000000000004,0.0,3.28,3.32,3.26,3.27,3.26,3.27,3.26,3.27,3.29,3.3,3.29,3.29,3.26,3.27,3.26,3.29,3.28,3.28,3.28,3.28,3.3,3.31,3.29,3.29,3.32,3.26,78.7,1.0,1.0,0.0,1.0,1.0,6755282
1765225260340,0.0,0.0,2.0,25.0,0.0,0.0,0.0,0.0,0.0,0.0,-0.05063,0.01952,0.9928359999999999,-0.56,0.42000000000000004,0.0,3.28,3.32,3.26,3.27,3.26,3.27,3.26,3.27,3.29,3.3,3.29,3.29,3.26,3.27,3.26,3.29,3.28,3.28,3.28,3.28,3.3,3.31,3.29,3.29,3.32,3.26,78.7,1.0,1.0,0.0,1.0,1.0,6755314
1765225260356,0.0,0.0,1.0,10.0,0.0,0.0,0.0,0.0,0.0,0.0,-0.05063,0.01952,0.9928359999999999,-0.56,0.42000000000000004,0.0,3.28,3.32,3.26,3.27,3.26,3.27,3.26,3.27,3.29,3.3,3.29,3.29,3.26,3.27,3.26,3.29,3.28,3.28,3.28,3.28,3.3,3.31,3.29,3.29,3.32,3.26,78.7,1.0,1.0,0.0,1.0,1.0,6755330
1765225260373,0.0,0.0,1.0,10.0,0.0,0.0,0.0,0.0,0.0,0.0,-0.05063,0.01952,0.9928359999999999,-0.6300000000000001,0.28,-0.07,3.28,3.32,3.26,3.27,3.26,3.27,3.26,3.27,3.29,3.3,3.29,3.29,3.26,3.27,3.26,3.29,3.28,3.28,3.28,3.28,3.3,3.31,3.29,3.29,3.32,3.26,78.7,1.0,1.0,0.0,1.0,1.0,6755347
1765225260390,0.0,0.0,1.0,10.0,0.0,0.0,0.0,0.0,0.0,0.0,-0.05063,0.01952,0.9928359999999999,-0.6300000000000001,0.28,-0.07,3.28,3.32,3.26,3.27,3.26,3.27,3.26,3.27,3.29,3.3,3.29,3.29,3.26,3.27,3.26,3.29,3.28,3.28,3.28,3.28,3.3,3.31,3.29,3.29,3.32,3.26,78.7,1.0,1.0,0.0,1.0,1.0,6755364
1765225260422,0.0,0.0,1.0,10.0,0.0,0.0,0.0,0.0,0.0,0.0,-0.05063,0.01952,0.9928359999999999,-0.6300000000000001,0.28,-0.07,3.28,3.32,3.26,3.27,3.26,3.27,3.26,3.27,3.29,3.3,3.29,3.29,3.26,3.27,3.26,3.29,3.28,3.28,3.28,3.28,3.3,3.31,3.29,3.29,3.32,3.26,78.7,1.0,1.0,0.0,1.0,1.0,6755396
1765225260472,0.0,0.0,1.0,10.0,0.0,0.0,0.0,0.0,0.0,0.0,-0.05063,0.01952,0.9928359999999999,-0.6300000000000001,0.28,-0.07,3.28,3.32,3.26,3.27,3.26,3.27,3.26,3.27,3.29,3.3,3.29,3.29,3.26,3.27,3.26,3.29,3.28,3.28,3.28,3.28,3.3,3.31,3.29,3.29,3.32,3.26,78.7,1.0,1.0,0.0,1.0,1.0,6755446
1765225260540,0.0,0.0,1.0,10.0,0.0,0.0,0.0,0.0,0.0,0.0,-0.047335999999999996,0.020739999999999998,0.99125,-0.6300000000000001,0.28,-0.07,3.28,3.32,3.26,3.27,3.26,3.27,3.26,3.27,3.29,3.3,3.29,3.29,3.26,3.27,3.26,3.29,3.28,3.28,3.28,3.28,3.3,3.31,3.29,3.29,3.32,3.26,78.7,1.0,1.0,0.0,1.0,1.0,6755514
1765225260557,0.0,0.0,1.0,10.0,0.0,0.0,0.0,0.0,0.0,0.0,-0.047335999999999996,0.020739999999999998,0.99125,-0.7000000000000001,0.35000000000000003,-0.07,3.28,3.32,3.26,3.27,3.26,3.27,3.26,3.27,3.29,3.3,3.29,3.29,3.26,3.27,3.26,3.29,3.28,3.28,3.28,3.28,3.3,3.31,3.29,3.29,3.32,3.26,78.7,1.0,1.0,0.0,1.0,1.0,6755531
1765225260604,0.0,0.0,1.0,10.0,0.0,0.0,0.0,0.0,0.0,0.0,-0.047335999999999996,0.020739999999999998,0.99125,-0.7000000000000001,0.35000000000000003,-0.07,3.31,3.32,3.32,3.31,3.26,3.27,3.26,3.27,3.29,3.3,3.29,3.29,3.26,3.27,3.26,3.29,3.28,3.28,3.28,3.28,3.3,3.31,3.29,3.29,3.32,3.26,78.7,1.0,1.0,0.0,1.0,1.0,6755578
1765225260623,0.0,0.0,1.0,10.0,0.0,0.0,0.0,0.0,0.0,0.0,-0.050996,0.018666,0.99064,-0.7000000000000001,0.35000000000000003,-0.07,3.31,3.32,3.32,3.31,3.28,3.29,3.29,3.28,3.29,3.3,3.29,3.29,3.26,3.27,3.26,3.29,3.28,3.28,3.28,3.28,3.3,3.31,3.29,3.29,3.32,3.26,78.7,1.0,1.0,0.0,1.0,1.0,6755597
1765225260656,0.0,0.0,1.0,10.0,0.0,0.0,0.0,0.0,0.0,0.0,-0.050996,0.018666,0.99064,-0.7000000000000001,0.35000000000000003,-0.07,3.31,3.32,3.32,3.31,3.28,3.29,3.29,3.28,3.32,3.32,3.32,3.32,3.26,3.27,3.26,3.29,3.28,3.28,3.28,3.28,3.3,3.31,3.29,3.29,3.32,3.26,78.7,1.0,1.0,0.0,1.0,1.0,6755630
1765225260673,0.0,0.0,1.0,10.0,0.0,0.0,0.0,0.0,0.0,0.0,-0.050996,0.018666,0.99064,-0.7000000000000001,0.35000000000000003,-0.07,3.31,3.32,3.32,3.31,3.28,3.29,3.29,3.28,3.32,3.32,3.32,3.32,3.26,3.27,3.26,3.29,3.28,3.28,3.28,3.28,3.3,3.31,3.29,3.29,3.32,3.26,78.7,1.0,1.0,0.0,1.0,1.0,6755647
1765225260689,0.0,0.0,1.0,10.0,0.0,0.0,0.0,0.0,0.0,0.0,-0.050996,0.018666,0.99064,-0.7000000000000001,0.35000000000000003,-0.07,3.31,3.32,3.32,3.31,3.28,3.29,3.29,3.28,3.32,3.32,3.32,3.32,3.28,3.29,3.29,3.29,3.28,3.28,3.28,3.28,3.3,3.31,3.29,3.29,3.32,3.26,78.7,1.0,1.0,0.0,1.0,1.0,6755663
1765225260722,0.0,0.0,1.0,10.0,0.0,0.0,0.0,0.0,0.0,0.0,-0.050996,0.018666,0.99064,-0.7000000000000001,0.35000000000000003,-0.07,3.31,3.32,3.32,3.31,3.28,3.29,3.29,3.28,3.32,3.32,3.32,3.32,3.28,3.29,3.29,3.29,3.3,3.3,3.3,3.3,3.3,3.31,3.29,3.29,3.32,3.26,78.7,1.0,1.0,0.0,1.0,1.0,6755696
1765225260739,0.0,0.0,1.0,10.0,0.0,0.0,0.0,0.0,0.0,0.0,-0.050996,0.018666,0.99064,-0.7000000000000001,0.35000000000000003,-0.07,3.31,3.32,3.32,3.31,3.28,3.29,3.29,3.28,3.32,3.32,3.32,3.32,3.28,3.29,3.29,3.29,3.3,3.3,3.3,3.3,3.32,3.32,3.32,3.32,3.32,3.26,78.7,1.0,1.0,0.0,1.0,1.0,6755713
1765225260756,0.0,0.0,1.0,10.0,0.0,0.0,0.0,0.0,0.0,0.0,-0.050996,0.018666,0.99064,-0.7000000000000001,0.35000000000000003,-0.07,3.31,3.32,3.32,3.31,3.28,3.29,3.29,3.28,3.32,3.32,3.32,3.32,3.28,3.29,3.29,3.29,3.3,3.3,3.3,3.3,3.32,3.32,3.32,3.32,3.32,3.26,78.7,1.0,1.0,0.0,1.0,1.0,6755730
1765225260789,0.0,0.0,1.0,10.0,0.0,0.0,0.0,0.0,0.0,0.0,-0.050996,0.018666,0.99064,-0.56,0.28,-0.07,3.31,3.32,3.32,3.31,3.28,3.29,3.29,3.28,3.32,3.32,3.32,3.32,3.28,3.29,3.29,3.29,3.3,3.3,3.3,3.3,3.32,3.32,3.32,3.32,3.32,3.26,78.7,1.0,1.0,0.0,1.0,1.0,6755763
1765225260824,0.0,0.0,1.0,10.0,0.0,0.0,0.0,0.0,0.0,0.0,-0.050996,0.018666,0.99064,-0.56,0.28,-0.07,3.31,3.32,3.32,3.31,3.28,3.29,3.29,3.28,3.32,3.32,3.32,3.32,3.28,3.29,3.29,3.29,3.3,3.3,3.3,3.3,3.32,3.32,3.32,3.32,3.32,3.26,78.7,1.0,1.0,0.0,1.0,1.0,6755798
1765225260856,0.0,0.0,1.0,10.0,0.0,0.0,0.0,0.0,0.0,0.0,-0.050996,0.018666,0.99064,-0.56,0.28,-0.07,3.31,3.32,3.32,3.31,3.28,3.29,3.29,3.29,3.32,3.32,3.32,3.32,3.28,3.29,3.29,3.29,3.3,3.3,3.3,3.3,3.32,3.32,3.32,3.32,3.32,3.26,78.7,1.0,1.0,0.0,1.0,1.0,6755830
1765225260872,0.0,0.0,1.0,10.0,0.0,0.0,0.0,0.0,0.0,0.0,-0.050996,0.018666,0.99064,-0.56,0.28,-0.07,3.31,3.32,3.32,3.31,3.28,3.29,3.29,3.29,3.32,3.32,3.32,3.32,3.28,3.29,3.29,3.29,3.3,3.3,3.3,3.3,3.32,3.32,3.32,3.32,3.32,3.26,78.7,1.0,1.0,0.0,1.0,1.0,6755846
1765225260889,0.0,0.0,1.0,10.0,0.0,0.0,0.0,0.0,0.0,0.0,-0.050996,0.018666,0.99064,-0.56,0.28,-0.07,3.31,3.32,3.32,3.31,3.28,3.29,3.29,3.29,3.32,3.32,3.32,3.32,3.28,3.29,3.29,3.29,3.3,3.3,3.3,3.3,3.32,3.32,3.32,3.32,3.32,3.26,78.7,1.0,1.0,0.0,1.0,1.0,6755863
1765225260922,0.0,0.0,1.0,10.0,0.0,0.0,0.0,0.0,0.0,0.0,-0.050996,0.018666,0.99064,-0.56,0.28,-0.07,3.31,3.32,3.32,3.31,3.28,3.29,3.29,3.29,3.32,3.32,3.32,3.32,3.28,3.29,3.29,3.29,3.3,3.3,3.3,3.3,3.32,3.32,3.32,3.32,3.32,3.26,78.7,1.0,1.0,0.0,1.0,1.0,6755896
1765225260939,0.0,0.0,1.0,10.0,0.0,0.0,0.0,0.0,0.0,0.0,-0.050996,0.018666,0.99064,-0.56,0.28,-0.07,3.31,3.32,3.32,3.31,3.28,3.29,3.29,3.29,3.32,3.32,3.32,3.32,3.28,3.29,3.29,3.29,3.3,3.3,3.3,3.3,3.32,3.32,3.32,3.32,3.32,3.26,78.7,1.0,1.0,0.0,1.0,1.0,6755913
1765225260973,0.0,0.0,1.0,10.0,0.0,0.0,0.0,0.0,0.0,0.0,-0.050996,0.018666,0.99064,-0.56,0.28,-0.07,3.31,3.32,3.32,3.31,3.28,3.29,3.29,3.29,3.32,3.32,3.32,3.32,3.28,3.29,3.29,3.29,3.3,3.3,3.3,3.3,3.32,3.32,3.32,3.32,3.32,3.26,78.7,1.0,1.0,0.0,1.0,1.0,6755947
1765225261039,0.0,0.0,1.0,10.0,0.0,0.0,0.0,0.0,0.0,0.0,-0.05307,0.020007999999999998,0.989664,-0.56,0.28,-0.07,3.31,3.32,3.32,3.31,3.28,3.29,3.29,3.29,3.32,3.32,3.32,3.32,3.28,3.29,3.29,3.29,3.3,3.3,3.3,3.3,3.32,3.32,3.32,3.32,3.32,3.26,78.7,1.0,1.0,0.0,1.0,1.0,6756013
1765225261057,0.0,0.0,1.0,10.0,0.0,0.0,0.0,0.0,0.0,0.0,-0.05307,0.020007999999999998,0.989664,-0.6300000000000001,0.35000000000000003,0.0,3.31,3.32,3.32,3.31,3.28,3.29,3.29,3.29,3.32,3.32,3.32,3.32,3.28,3.29,3.29,3.29,3.3,3.3,3.3,3.3,3.32,3.32,3.32,3.32,3.32,3.26,78.7,1.0,1.0,0.0,1.0,1.0,6756031
1765225261106,0.0,0.0,1.0,10.0,0.0,0.0,0.0,0.0,0.0,0.0,-0.05307,0.020007999999999998,0.989664,-0.6300000000000001,0.35000000000000003,0.0,3.31,3.32,3.32,3.31,3.28,3.29,3.29,3.29,3.32,3.32,3.32,3.32,3.28,3.29,3.29,3.29,3.3,3.3,3.3,3.3,3.32,3.32,3.32,3.32,3.32,3.26,78.7,1.0,1.0,0.0,1.0,1.0,6756080
1765225261123,0.0,0.0,1.0,10.0,0.0,0.0,0.0,0.0,0.0,0.0,-0.05307,0.020007999999999998,0.989664,-0.6300000000000001,0.35000000000000003,0.0,3.31,3.32,3.32,3.31,3.28,3.29,3.29,3.29,3.32,3.32,3.32,3.32,3.28,3.29,3.29,3.29,3.3,3.3,3.3,3.3,3.32,3.32,3.32,3.32,3.32,3.26,78.7,1.0,1.0,0.0,1.0,1.0,6756097
1765225261139,0.0,0.0,1.0,10.0,0.0,0.0,0.0,0.0,0.0,0.0,-0.05307,0.020007999999999998,0.989664,-0.6300000000000001,0.35000000000000003,0.0,3.31,3.32,3.32,3.31,3.28,3.29,3.29,3.29,3.32,3.32,3.32,3.32,3.28,3.29,3.29,3.29,3.3,3.3,3.3,3.3,3.32,3.32,3.32,3.32,3.32,3.26,78.7,1.0,1.0,0.0,1.0,1.0,6756113
1765225261156,0.0,0.0,1.0,10.0,0.0,0.0,0.0,0.0,0.0,0.0,-0.050508,0.020007999999999998,0.992714,-0.6300000000000001,0.35000000000000003,0.0,3.31,3.32,3.32,3.31,3.28,3.29,3.29,3.29,3.32,3.32,3.32,3.32,3.28,3.29,3.29,3.29,3.3,3.3,3.3,3.3,3.32,3.32,3.32,3.32,3.32,3.26,78.7,1.0,1.0,0.0,1.0,1.0,6756130
1765225261173,0.0,0.0,1.0,10.0,0.0,0.0,0.0,0.0,0.0,0.0,-0.050508,0.020007999999999998,0.992714,-0.6300000000000001,0.35000000000000003,0.0,3.31,3.32,3.32,3.31,3.28,3.29,3.29,3.29,3.32,3.32,3.32,3.32,3.28,3.29,3.29,3.29,3.3,3.3,3.3,3.3,3.32,3.32,3.32,3.32,3.32,3.26,78.7,1.0,1.0,0.0,1.0,1.0,6756147
1765225261222,0.0,0.0,1.0,10.0,0.0,0.0,0.0,0.0,0.0,0.0,-0.050508,0.020007999999999998,0.992714,-0.6300000000000001,0.21000000000000002,-0.07,3.31,3.32,3.32,3.31,3.28,3.29,3.29,3.29,3.32,3.32,3.32,3.32,3.28,3.29,3.29,3.29,3.3,3.3,3.3,3.3,3.32,3.32,3.32,3.32,3.32,3.26,78.7,1.0,1.0,0.0,1.0,1.0,6756196
1765225261239,0.0,0.0,1.0,10.0,0.0,0.0,0.0,0.0,0.0,0.0,-0.050508,0.020007999999999998,0.992714,-0.6300000000000001,0.21000000000000002,-0.07,3.31,3.32,3.32,3.31,3.28,3.29,3.29,3.29,3.32,3.32,3.32,3.32,3.28,3.29,3.29,3.29,3.3,3.3,3.3,3.3,3.32,3.32,3.32,3.32,3.32,3.26,78.7,1.0,1.0,0.0,1.0,1.0,6756213
1765225261323,0.0,0.0,1.0,10.0,0.0,0.0,0.0,0.0,0.0,0.0,-0.045628,0.020007999999999998,0.99247,-0.6300000000000001,0.21000000000000002,-0.07,3.31,3.32,3.32,3.31,3.28,3.29,3.29,3.29,3.32,3.32,3.32,3.32,3.28,3.29,3.29,3.29,3.3,3.3,3.3,3.3,3.32,3.32,3.32,3.32,3.32,3.26,78.7,1.0,1.0,0.0,1.0,1.0,6756297
1765225261356,0.0,0.0,1.0,10.0,0.0,0.0,0.0,0.0,0.0,0.0,-0.045628,0.020007999999999998,0.99247,-0.56,0.42000000000000004,-0.14,3.31,3.32,3.32,3.31,3.28,3.29,3.29,3.29,3.32,3.32,3.32,3.32,3.28,3.29,3.29,3.29,3.3,3.3,3.3,3.3,3.32,3.32,3.32,3.32,3.32,3.26,78.7,1.0,1.0,0.0,1.0,1.0,6756330
1765225261390,0.0,0.0,1.0,10.0,0.0,0.0,0.0,0.0,0.0,0.0,-0.045628,0.020007999999999998,0.99247,-0.56,0.42000000000000004,-0.14,3.31,3.32,3.32,3.31,3.28,3.29,3.29,3.29,3.32,3.32,3.32,3.32,3.28,3.29,3.29,3.29,3.3,3.3,3.3,3.3,3.32,3.32,3.32,3.32,3.32,3.26,78.7,1.0,1.0,0.0,1.0,1.0,6756364
1765225261406,0.0,0.0,1.0,10.0,0.0,0.0,0.0,0.0,0.0,0.0,-0.045628,0.020007999999999998,0.99247,-0.56,0.42000000000000004,-0.14,3.31,3.32,3.32,3.31,3.28,3.29,3.29,3.29,3.32,3.32,3.32,3.32,3.28,3.29,3.29,3.29,3.3,3.3,3.3,3.3,3.32,3.32,3.32,3.32,3.32,3.26,78.7,1.0,1.0,0.0,1.0,1.0,6756380
1765225261421,0.0,0.0,1.0,10.0,0.0,0.0,0.0,0.0,0.0,0.0,-0.045628,0.020007999999999998,0.99247,-0.6300000000000001,0.35000000000000003,0.07,3.31,3.32,3.32,3.31,3.28,3.29,3.29,3.29,3.32,3.32,3.32,3.32,3.28,3.29,3.29,3.29,3.3,3.3,3.3,3.3,3.32,3.32,3.32,3.32,3.32,3.26,78.7,1.0,1.0,0.0,1.0,1.0,6756395
1765225261455,0.0,0.0,1.0,10.0,0.0,0.0,0.0,0.0,0.0,0.0,-0.047824,0.021716,0.990152,-0.6300000000000001,0.35000000000000003,0.07,3.31,3.32,3.32,3.31,3.28,3.29,3.29,3.29,3.32,3.32,3.32,3.32,3.28,3.29,3.29,3.29,3.3,3.3,3.3,3.3,3.32,3.32,3.32,3.32,3.32,3.26,78.7,1.0,1.0,0.0,1.0,1.0,6756429
1765225261472,0.0,0.0,1.0,10.0,0.0,0.0,0.0,0.0,0.0,0.0,-0.047824,0.021716,0.990152,-0.7000000000000001,0.49000000000000005,0.0,3.31,3.32,3.32,3.31,3.28,3.29,3.29,3.29,3.32,3.32,3.32,3.32,3.28,3.29,3.29,3.29,3.3,3.3,3.3,3.3,3.32,3.32,3.32,3.32,3.32,3.26,78.7,1.0,1.0,0.0,1.0,1.0,6756446
1765225261505,0.0,0.0,1.0,10.0,0.0,0.0,0.0,0.0,0.0,0.0,-0.047824,0.021716,0.990152,-0.7000000000000001,0.49000000000000005,0.0,3.31,3.32,3.32,3.31,3.28,3.29,3.29,3.29,3.32,3.32,3.32,3.32,3.28,3.29,3.29,3.29,3.3,3.3,3.3,3.3,3.32,3.32,3.32,3.32,3.32,3.26,78.7,1.0,1.0,0.0,1.0,1.0,6756479
1765225261522,0.0,0.0,1.0,10.0,0.0,0.0,0.0,0.0,0.0,0.0,-0.047824,0.021716,0.990152,-0.7000000000000001,0.49000000000000005,0.0,3.31,3.32,3.32,3.31,3.28,3.29,3.29,3.29,3.32,3.32,3.32,3.32,3.28,3.29,3.29,3.29,3.3,3.3,3.3,3.3,3.32,3.32,3.32,3.32,3.32,3.26,78.7,1.0,1.0,0.0,1.0,1.0,6756496
1765225261539,0.0,0.0,1.0,10.0,0.0,0.0,0.0,0.0,0.0,0.0,-0.047824,0.021716,0.990152,-0.7000000000000001,0.49000000000000005,0.0,3.31,3.32,3.32,3.31,3.28,3.29,3.29,3.29,3.32,3.32,3.32,3.32,3.28,3.29,3.29,3.29,3.3,3.3,3.3,3.3,3.32,3.32,3.32,3.32,3.32,3.26,78.7,1.0,1.0,0.0,1.0,1.0,6756513
1765225261587,0.0,0.0,1.0,10.0,0.0,0.0,0.0,0.0,0.0,0.0,-0.047824,0.021716,0.990152,-0.7000000000000001,0.49000000000000005,0.0,3.31,3.32,3.32,3.31,3.28,3.29,3.29,3.29,3.32,3.32,3.32,3.32,3.28,3.29,3.29,3.29,3.3,3.3,3.3,3.3,3.32,3.32,3.32,3.32,3.32,3.26,78.7,1.0,1.0,0.0,1.0,1.0,6756561
1765225261622,0.0,0.0,1.0,10.0,0.0,0.0,0.0,0.0,0.0,0.0,-0.047824,0.021716,0.990152,-0.7000000000000001,0.49000000000000005,0.0,3.31,3.32,3.32,3.31,3.28,3.29,3.29,3.29,3.32,3.32,3.32,3.32,3.28,3.29,3.29,3.29,3.3,3.3,3.3,3.3,3.32,3.32,3.32,3.32,3.32,3.26,78.7,1.0,1.0,0.0,1.0,1.0,6756596
1765225261673,0.0,0.0,1.0,10.0,0.0,0.0,0.0,0.0,0.0,0.0,-0.047824,0.021716,0.990152,-0.7000000000000001,0.49000000000000005,0.0,3.31,3.32,3.32,3.31,3.28,3.29,3.29,3.29,3.32,3.32,3.32,3.32,3.28,3.29,3.29,3.29,3.3,3.3,3.3,3.3,3.32,3.32,3.32,3.32,3.32,3.28,79.3,0.0,1.0,0.0,1.0,1.0,6756647
1765225261706,0.0,0.0,1.0,10.0,0.0,0.0,0.0,0.0,0.0,0.0,-0.050752,0.02135,0.992592,-0.7000000000000001,0.49000000000000005,0.0,3.31,3.32,3.32,3.31,3.28,3.29,3.29,3.29,3.32,3.32,3.32,3.32,3.28,3.29,3.29,3.29,3.3,3.3,3.3,3.3,3.32,3.32,3.32,3.32,3.32,3.28,79.3,0.0,1.0,0.0,1.0,1.0,6756680
1765225261740,0.0,0.0,1.0,10.0,0.0,0.0,0.0,0.0,0.0,0.0,-0.050752,0.02135,0.992592,-0.7000000000000001,0.35000000000000003,-0.07,3.31,3.32,3.32,3.31,3.28,3.29,3.29,3.29,3.32,3.32,3.32,3.32,3.28,3.29,3.29,3.29,3.3,3.3,3.3,3.3,3.32,3.32,3.32,3.32,3.32,3.28,79.3,0.0,1.0,0.0,1.0,1.0,6756714
1765225261789,0.0,0.0,1.0,10.0,0.0,0.0,0.0,0.0,0.0,0.0,-0.050752,0.02135,0.992592,-0.7000000000000001,0.35000000000000003,-0.07,3.31,3.32,3.32,3.31,3.28,3.29,3.29,3.29,3.32,3.32,3.32,3.32,3.28,3.29,3.29,3.29,3.3,3.3,3.3,3.3,3.32,3.32,3.32,3.32,3.32,3.28,79.3,0.0,1.0,0.0,1.0,1.0,6756763
1765225261805,0.0,0.0,1.0,10.0,0.0,0.0,0.0,0.0,0.0,0.0,-0.05124,0.018788,0.991494,-0.7000000000000001,0.35000000000000003,-0.07,3.31,3.32,3.32,3.31,3.28,3.29,3.29,3.29,3.32,3.32,3.32,3.32,3.28,3.29,3.29,3.29,3.3,3.3,3.3,3.3,3.32,3.32,3.32,3.32,3.32,3.28,79.3,0.0,1.0,0.0,1.0,1.0,6756779
1765225261823,0.0,0.0,1.0,10.0,0.0,0.0,0.0,0.0,0.0,0.0,-0.05124,0.018788,0.991494,-0.7000000000000001,0.35000000000000003,-0.07,3.31,3.32,3.32,3.31,3.28,3.29,3.29,3.29,3.32,3.32,3.32,3.32,3.28,3.29,3.29,3.29,3.3,3.3,3.3,3.3,3.32,3.32,3.32,3.32,3.32,3.28,79.3,0.0,1.0,0.0,1.0,1.0,6756797
1765225261839,0.0,0.0,1.0,10.0,0.0,0.0,0.0,0.0,0.0,0.0,-0.05124,0.018788,0.991494,-0.7000000000000001,0.35000000000000003,-0.07,3.31,3.32,3.32,3.31,3.28,3.29,3.29,3.29,3.32,3.32,3.32,3.32,3.28,3.29,3.29,3.29,3.3,3.3,3.3,3.3,3.32,3.32,3.32,3.32,3.32,3.28,79.3,0.0,1.0,0.0,1.0,1.0,6756813
1765225261872,0.0,0.0,1.0,10.0,0.0,0.0,0.0,0.0,0.0,0.0,-0.05124,0.018788,0.991494,-0.56,0.35000000000000003,-0.14,3.31,3.32,3.32,3.31,3.28,3.29,3.29,3.29,3.32,3.32,3.32,3.32,3.28,3.29,3.29,3.29,3.3,3.3,3.3,3.3,3.32,3.32,3.32,3.32,3.32,3.28,79.3,0.0,1.0,0.0,1.0,1.0,6756846
1765225261939,0.0,0.0,1.0,10.0,0.0,0.0,0.0,0.0,0.0,0.0,-0.05124,0.018788,0.991494,-0.56,0.35000000000000003,-0.14,3.31,3.32,3.32,3.31,3.28,3.29,3.29,3.29,3.32,3.32,3.32,3.32,3.28,3.29,3.29,3.29,3.3,3.3,3.3,3.3,3.32,3.32,3.32,3.32,3.32,3.28,79.3,0.0,1.0,0.0,1.0,1.0,6756913
1765225262022,0.0,0.0,1.0,10.0,0.0,0.0,0.0,0.0,0.0,0.0,-0.042578,0.02257,0.989054,-0.7000000000000001,0.42000000000000004,0.0,3.31,3.32,3.32,3.31,3.28,3.29,3.29,3.29,3.32,3.32,3.32,3.32,3.28,3.29,3.29,3.29,3.3,3.3,3.3,3.3,3.32,3.32,3.32,3.32,3.32,3.28,79.3,0.0,1.0,0.0,1.0,1.0,6756996
1765225262088,0.0,0.0,1.0,10.0,0.0,0.0,0.0,0.0,0.0,0.0,-0.042578,0.02257,0.989054,-0.7000000000000001,0.28,0.0,3.31,3.32,3.32,3.31,3.28,3.29,3.29,3.29,3.32,3.32,3.32,3.32,3.28,3.29,3.29,3.29,3.3,3.3,3.3,3.3,3.32,3.32,3.32,3.32,3.32,3.28,79.3,0.0,1.0,0.0,1.0,1.0,6757062
1765225262154,0.0,0.0,1.0,10.0,0.0,0.0,0.0,0.0,0.0,0.0,-0.049409999999999996,0.020007999999999998,0.989664,-0.7000000000000001,0.28,0.0,3.31,3.32,3.32,3.31,3.28,3.29,3.29,3.29,3.32,3.32,3.32,3.32,3.28,3.29,3.29,3.29,3.3,3.3,3.3,3.3,3.32,3.32,3.32,3.32,3.32,3.28,79.3,0.0,1.0,0.0,1.0,1.0,6757128
1765225262173,0.0,0.0,1.0,10.0,0.0,0.0,0.0,0.0,0.0,0.0,-0.049409999999999996,0.020007999999999998,0.989664,-0.6300000000000001,0.42000000000000004,0.0,3.31,3.32,3.32,3.31,3.28,3.29,3.29,3.29,3.32,3.32,3.32,3.32,3.28,3.29,3.29,3.29,3.3,3.3,3.3,3.3,3.32,3.32,3.32,3.32,3.32,3.28,79.3,0.0,1.0,0.0,1.0,1.0,6757147
1765225262188,0.0,0.0,1.0,10.0,0.0,0.0,0.0,0.0,0.0,0.0,-0.049409999999999996,0.020007999999999998,0.989664,-0.6300000000000001,0.42000000000000004,0.0,3.31,3.32,3.32,3.31,3.28,3.29,3.29,3.29,3.32,3.32,3.32,3.32,3.28,3.29,3.29,3.29,3.3,3.3,3.3,3.3,3.32,3.32,3.32,3.32,3.32,3.28,79.3,0.0,1.0,0.0,1.0,1.0,6757162
1765225262206,0.0,0.0,1.0,10.0,0.0,0.0,0.0,0.0,0.0,0.0,-0.049409999999999996,0.020007999999999998,0.989664,-0.6300000000000001,0.42000000000000004,0.0,3.31,3.32,3.32,3.31,3.28,3.29,3.29,3.29,3.32,3.32,3.32,3.32,3.28,3.29,3.29,3.29,3.3,3.3,3.3,3.3,3.32,3.32,3.32,3.32,3.32,3.28,79.3,0.0,1.0,0.0,1.0,1.0,6757180
1765225262239,0.0,0.0,1.0,10.0,0.0,0.0,0.0,0.0,0.0,0.0,-0.049409999999999996,0.020007999999999998,0.989664,-0.6300000000000001,0.42000000000000004,0.0,3.31,3.32,3.32,3.31,3.28,3.29,3.29,3.29,3.32,3.32,3.32,3.32,3.28,3.29,3.29,3.29,3.3,3.3,3.3,3.3,3.32,3.32,3.32,3.32,3.32,3.28,79.3,0.0,1.0,0.0,1.0,1.0,6757213
1765225262272,0.0,0.0,1.0,10.0,0.0,0.0,0.0,0.0,0.0,0.0,-0.049409999999999996,0.020007999999999998,0.989664,-0.6300000000000001,0.42000000000000004,0.0,3.31,3.32,3.32,3.31,3.28,3.29,3.29,3.29,3.32,3.32,3.32,3.32,3.28,3.29,3.29,3.29,3.3,3.3,3.3,3.3,3.32,3.32,3.32,3.32,3.32,3.28,79.3,0.0,1.0,0.0,1.0,1.0,6757246
1765225262322,0.0,0.0,1.0,10.0,0.0,0.0,0.0,0.0,0.0,0.0,-0.049409999999999996,0.020007999999999998,0.989664,-0.6300000000000001,0.42000000000000004,0.0,3.31,3.32,3.32,3.31,3.28,3.29,3.29,3.29,3.32,3.32,3.32,3.32,3.28,3.29,3.29,3.29,3.3,3.3,3.3,3.3,3.32,3.32,3.32,3.32,3.32,3.28,79.3,0.0,1.0,0.0,1.0,1.0,6757296
1765225262389,0.0,0.0,1.0,10.0,0.0,0.0,0.0,0.0,0.0,0.0,-0.053924,0.019642,0.9940559999999999,-0.6300000000000001,0.42000000000000004,0.0,3.31,3.32,3.32,3.31,3.28,3.29,3.29,3.29,3.32,3.32,3.32,3.32,3.28,3.29,3.29,3.29,3.3,3.3,3.3,3.3,3.32,3.32,3.32,3.32,3.32,3.28,79.3,0.0,1.0,0.0,1.0,1.0,6757363
1765225262406,0.0,0.0,1.0,10.0,0.0,0.0,0.0,0.0,0.0,0.0,-0.053924,0.019642,0.9940559999999999,-0.6300000000000001,0.42000000000000004,0.0,3.31,3.32,3.32,3.31,3.28,3.29,3.29,3.29,3.32,3.32,3.32,3.32,3.28,3.29,3.29,3.29,3.3,3.3,3.3,3.3,3.32,3.32,3.32,3.32,3.32,3.28,79.3,0.0,1.0,0.0,1.0,1.0,6757380
1765225262439,0.0,0.0,1.0,10.0,0.0,0.0,0.0,0.0,0.0,0.0,-0.053924,0.019642,0.9940559999999999,-0.6300000000000001,0.42000000000000004,0.0,3.31,3.32,3.32,3.31,3.28,3.29,3.29,3.29,3.32,3.32,3.32,3.32,3.28,3.29,3.29,3.29,3.3,3.3,3.3,3.3,3.32,3.32,3.32,3.32,3.32,3.28,79.3,0.0,1.0,0.0,1.0,1.0,6757413
1765225262456,0.0,0.0,1.0,10.0,0.0,0.0,0.0,0.0,0.0,0.0,-0.053924,0.019642,0.9940559999999999,-0.7000000000000001,0.35000000000000003,0.0,3.31,3.32,3.32,3.31,3.28,3.29,3.29,3.29,3.32,3.32,3.32,3.32,3.28,3.29,3.29,3.29,3.3,3.3,3.3,3.3,3.32,3.32,3.32,3.32,3.32,3.28,79.3,0.0,1.0,0.0,1.0,1.0,6757430
1765225262473,0.0,0.0,1.0,10.0,0.0,0.0,0.0,0.0,0.0,0.0,-0.053924,0.019642,0.9940559999999999,-0.7000000000000001,0.35000000000000003,0.0,3.31,3.32,3.32,3.31,3.28,3.29,3.29,3.29,3.32,3.32,3.32,3.32,3.28,3.29,3.29,3.29,3.3,3.3,3.3,3.3,3.32,3.32,3.32,3.32,3.32,3.28,79.3,0.0,1.0,0.0,1.0,1.0,6757447
1765225262539,0.0,0.0,1.0,10.0,0.0,0.0,0.0,0.0,0.0,0.0,-0.053924,0.019642,0.9940559999999999,-0.7000000000000001,0.35000000000000003,0.0,3.31,3.32,3.32,3.31,3.28,3.29,3.29,3.29,3.32,3.32,3.32,3.32,3.28,3.29,3.29,3.29,3.3,3.3,3.3,3.3,3.32,3.32,3.32,3.32,3.32,3.28,79.3,0.0,1.0,0.0,1.0,1.0,6757513
1765225262555,0.0,0.0,1.0,10.0,0.0,0.0,0.0,0.0,0.0,0.0,-0.053924,0.019642,0.9940559999999999,-0.7000000000000001,0.35000000000000003,0.0,3.31,3.32,3.32,3.31,3.28,3.29,3.29,3.29,3.32,3.32,3.32,3.32,3.28,3.29,3.29,3.29,3.3,3.3,3.3,3.3,3.32,3.32,3.32,3.32,3.32,3.28,79.3,0.0,1.0,0.0,1.0,1.0,6757529
1765225262572,0.0,0.0,1.0,10.0,0.0,0.0,0.0,0.0,0.0,0.0,-0.053924,0.019642,0.9940559999999999,-0.7000000000000001,0.35000000000000003,0.0,3.31,3.32,3.32,3.31,3.28,3.29,3.29,3.29,3.32,3.32,3.32,3.32,3.28,3.29,3.29,3.29,3.3,3.3,3.3,3.3,3.32,3.32,3.32,3.32,3.32,3.28,79.3,0.0,1.0,0.0,1.0,1.0,6757546
1765225262605,0.0,0.0,1.0,10.0,0.0,0.0,0.0,0.0,0.0,0.0,-0.053924,0.019642,0.9940559999999999,-0.7000000000000001,0.35000000000000003,0.0,3.31,3.32,3.32,3.31,3.28,3.29,3.29,3.29,3.32,3.32,3.32,3.32,3.28,3.29,3.29,3.29,3.3,3.3,3.3,3.3,3.32,3.32,3.32,3.32,3.32,3.28,79.3,0.0,1.0,0.0,1.0,1.0,6757579
1765225262622,0.0,0.0,1.0,10.0,0.0,0.0,0.0,0.0,0.0,0.0,-0.047335999999999996,0.020984,0.99064,-0.7000000000000001,0.35000000000000003,0.0,3.31,3.32,3.32,3.31,3.28,3.29,3.29,3.29,3.32,3.32,3.32,3.32,3.28,3.29,3.29,3.29,3.3,3.3,3.3,3.3,3.32,3.32,3.32,3.32,3.32,3.28,79.3,0.0,1.0,0.0,1.0,1.0,6757596
1765225262656,0.0,0.0,1.0,10.0,0.0,0.0,0.0,0.0,0.0,0.0,-0.047335999999999996,0.020984,0.99064,-0.7000000000000001,0.35000000000000003,0.0,3.31,3.32,3.32,3.31,3.28,3.29,3.29,3.29,3.32,3.32,3.32,3.32,3.28,3.29,3.29,3.29,3.3,3.3,3.3,3.3,3.32,3.32,3.32,3.32,3.32,3.28,79.3,0.0,1.0,0.0,1.0,1.0,6757630
1765225262673,0.0,0.0,1.0,10.0,0.0,0.0,0.0,0.0,0.0,0.0,-0.047335999999999996,0.020984,0.99064,-0.7000000000000001,0.35000000000000003,0.0,3.31,3.32,3.32,3.31,3.28,3.29,3.29,3.29,3.32,3.32,3.32,3.32,3.28,3.29,3.29,3.29,3.3,3.3,3.3,3.3,3.32,3.32,3.32,3.32,3.32,3.28,79.3,0.0,1.0,0.0,1.0,1.0,6757647
1765225262689,0.0,0.0,1.0,10.0,0.0,0.0,0.0,0.0,0.0,0.0,-0.047335999999999996,0.020984,0.99064,-0.7000000000000001,0.35000000000000003,0.0,3.31,3.32,3.32,3.31,3.28,3.29,3.29,3.29,3.32,3.32,3.32,3.32,3.28,3.29,3.29,3.29,3.3,3.3,3.3,3.3,3.32,3.32,3.32,3.32,3.32,3.28,79.3,0.0,1.0,0.0,1.0,1.0,6757663
1765225262722,0.0,0.0,1.0,10.0,0.0,0.0,0.0,0.0,0.0,0.0,-0.047335999999999996,0.020984,0.99064,-0.7000000000000001,0.35000000000000003,0.0,3.31,3.32,3.32,3.31,3.28,3.29,3.29,3.29,3.32,3.32,3.32,3.32,3.28,3.29,3.29,3.29,3.3,3.3,3.3,3.3,3.32,3.32,3.32,3.32,3.32,3.28,79.3,0.0,1.0,0.0,1.0,1.0,6757696
1765225262772,0.0,0.0,1.0,10.0,0.0,0.0,0.0,0.0,0.0,0.0,-0.047335999999999996,0.020984,0.99064,-0.7000000000000001,0.35000000000000003,0.0,3.31,3.32,3.32,3.31,3.28,3.29,3.29,3.29,3.32,3.32,3.32,3.32,3.28,3.29,3.29,3.29,3.3,3.3,3.3,3.3,3.32,3.32,3.32,3.32,3.32,3.28,79.3,0.0,1.0,0.0,1.0,1.0,6757746
1765225262821,0.0,0.0,1.0,10.0,0.0,0.0,0.0,0.0,0.0,0.0,-0.046604,0.021471999999999998,0.992348,-0.7000000000000001,0.35000000000000003,0.0,3.31,3.32,3.32,3.31,3.28,3.29,3.29,3.29,3.32,3.32,3.32,3.32,3.28,3.29,3.29,3.29,3.3,3.3,3.3,3.3,3.32,3.32,3.32,3.32,3.32,3.28,79.3,0.0,1.0,0.0,1.0,1.0,6757795
1765225262855,0.0,0.0,1.0,10.0,0.0,0.0,0.0,0.0,0.0,0.0,-0.046604,0.021471999999999998,0.992348,-0.7000000000000001,0.42000000000000004,0.0,3.31,3.32,3.32,3.31,3.28,3.29,3.29,3.29,3.32,3.32,3.32,3.32,3.28,3.29,3.29,3.29,3.3,3.3,3.3,3.3,3.32,3.32,3.32,3.32,3.32,3.28,79.3,0.0,1.0,0.0,1.0,1.0,6757829
1765225262906,0.0,0.0,1.0,10.0,0.0,0.0,0.0,0.0,0.0,0.0,-0.048312,0.020739999999999998,0.99064,-0.7000000000000001,0.42000000000000004,0.0,3.31,3.32,3.32,3.31,3.28,3.29,3.29,3.29,3.32,3.32,3.32,3.32,3.28,3.29,3.29,3.29,3.3,3.3,3.3,3.3,3.32,3.32,3.32,3.32,3.32,3.28,79.3,0.0,1.0,0.0,1.0,1.0,6757880
1765225262922,0.0,0.0,1.0,10.0,0.0,0.0,0.0,0.0,0.0,0.0,-0.048312,0.020739999999999998,0.99064,-0.7000000000000001,0.42000000000000004,0.0,3.31,3.32,3.32,3.31,3.28,3.29,3.29,3.29,3.32,3.32,3.32,3.32,3.28,3.29,3.29,3.29,3.3,3.3,3.3,3.3,3.32,3.32,3.32,3.32,3.32,3.28,79.3,0.0,1.0,0.0,1.0,1.0,6757896
1765225262939,0.0,0.0,1.0,10.0,0.0,0.0,0.0,0.0,0.0,0.0,-0.048312,0.020739999999999998,0.99064,-0.6300000000000001,0.49000000000000005,0.0,3.31,3.32,3.32,3.31,3.28,3.29,3.29,3.29,3.32,3.32,3.32,3.32,3.28,3.29,3.29,3.29,3.3,3.3,3.3,3.3,3.32,3.32,3.32,3.32,3.32,3.28,79.3,0.0,1.0,0.0,1.0,1.0,6757913
1765225262972,0.0,0.0,1.0,10.0,0.0,0.0,0.0,0.0,0.0,0.0,-0.048312,0.020739999999999998,0.99064,-0.6300000000000001,0.49000000000000005,0.0,3.31,3.32,3.32,3.31,3.28,3.29,3.29,3.29,3.32,3.32,3.32,3.32,3.28,3.29,3.29,3.29,3.3,3.3,3.3,3.3,3.32,3.32,3.32,3.32,3.32,3.28,79.3,0.0,1.0,0.0,1.0,1.0,6757946
1765225263005,0.0,0.0,1.0,10.0,0.0,0.0,0.0,0.0,0.0,0.0,-0.048312,0.020739999999999998,0.99064,-0.6300000000000001,0.49000000000000005,0.0,3.31,3.32,3.32,3.31,3.28,3.29,3.29,3.29,3.32,3.32,3.32,3.32,3.28,3.29,3.29,3.29,3.3,3.3,3.3,3.3,3.32,3.32,3.32,3.32,3.32,3.28,79.3,0.0,1.0,0.0,1.0,1.0,6757979
1765225263073,0.0,0.0,1.0,10.0,0.0,0.0,0.0,0.0,0.0,0.0,-0.048312,0.020739999999999998,0.99064,-0.6300000000000001,0.49000000000000005,0.0,3.31,3.32,3.32,3.31,3.28,3.29,3.29,3.29,3.32,3.32,3.32,3.32,3.28,3.29,3.29,3.29,3.3,3.3,3.3,3.3,3.32,3.32,3.32,3.32,3.32,3.28,79.3,0.0,1.0,0.0,1.0,1.0,6758047
1765225263137,0.0,0.0,1.0,10.0,0.0,0.0,0.0,0.0,0.0,0.0,-0.051606,0.019764,0.99125,-0.6300000000000001,0.49000000000000005,0.0,3.31,3.32,3.32,3.31,3.28,3.29,3.29,3.29,3.32,3.32,3.32,3.32,3.28,3.29,3.29,3.29,3.3,3.3,3.3,3.3,3.32,3.32,3.32,3.32,3.32,3.28,79.3,0.0,1.0,0.0,1.0,1.0,6758111
1765225263155,0.0,0.0,1.0,10.0,0.0,0.0,0.0,0.0,0.0,0.0,-0.051606,0.019764,0.99125,-0.6300000000000001,0.35000000000000003,-0.07,3.31,3.32,3.32,3.31,3.28,3.29,3.29,3.29,3.32,3.32,3.32,3.32,3.28,3.29,3.29,3.29,3.3,3.3,3.3,3.3,3.32,3.32,3.32,3.32,3.32,3.28,79.3,0.0,1.0,0.0,1.0,1.0,6758129
1765225263190,0.0,0.0,1.0,10.0,0.0,0.0,0.0,0.0,0.0,0.0,-0.051606,0.019764,0.99125,-0.6300000000000001,0.35000000000000003,-0.07,3.31,3.32,3.32,3.31,3.28,3.29,3.29,3.29,3.32,3.32,3.32,3.32,3.28,3.29,3.29,3.29,3.3,3.3,3.3,3.3,3.32,3.32,3.32,3.32,3.32,3.28,79.3,0.0,1.0,0.0,1.0,1.0,6758164
1765225263256,0.0,0.0,1.0,10.0,0.0,0.0,0.0,0.0,0.0,0.0,-0.051606,0.019764,0.99125,-0.6300000000000001,0.35000000000000003,-0.07,3.31,3.32,3.32,3.31,3.28,3.29,3.29,3.29,3.32,3.32,3.32,3.32,3.28,3.29,3.29,3.29,3.3,3.3,3.3,3.3,3.32,3.32,3.32,3.32,3.32,3.28,79.3,0.0,1.0,0.0,1.0,1.0,6758230
1765225263272,0.0,0.0,1.0,10.0,0.0,0.0,0.0,0.0,0.0,0.0,-0.051606,0.019764,0.99125,-0.6300000000000001,0.35000000000000003,-0.07,3.31,3.32,3.32,3.31,3.28,3.29,3.29,3.29,3.32,3.32,3.32,3.32,3.28,3.29,3.29,3.29,3.3,3.3,3.3,3.3,3.32,3.32,3.32,3.32,3.32,3.28,79.3,0.0,1.0,0.0,1.0,1.0,6758246
1765225263288,0.0,0.0,1.0,10.0,0.0,0.0,0.0,0.0,0.0,0.0,-0.051606,0.019764,0.99125,-0.6300000000000001,0.35000000000000003,-0.07,3.31,3.32,3.32,3.31,3.28,3.29,3.29,3.29,3.32,3.32,3.32,3.32,3.28,3.29,3.29,3.29,3.3,3.3,3.3,3.3,3.32,3.32,3.32,3.32,3.32,3.28,79.3,0.0,1.0,0.0,1.0,1.0,6758262
1765225263306,0.0,0.0,1.0,10.0,0.0,0.0,0.0,0.0,0.0,0.0,-0.050508,0.019764,0.991372,-0.6300000000000001,0.35000000000000003,-0.07,3.31,3.32,3.32,3.31,3.28,3.29,3.29,3.29,3.32,3.32,3.32,3.32,3.28,3.29,3.29,3.29,3.3,3.3,3.3,3.3,3.32,3.32,3.32,3.32,3.32,3.28,79.3,0.0,1.0,0.0,1.0,1.0,6758280
1765225263323,0.0,0.0,1.0,10.0,0.0,0.0,0.0,0.0,0.0,0.0,-0.050508,0.019764,0.991372,-0.6300000000000001,0.35000000000000003,-0.07,3.31,3.32,3.32,3.31,3.28,3.29,3.29,3.29,3.32,3.32,3.32,3.32,3.28,3.29,3.29,3.29,3.3,3.3,3.3,3.3,3.32,3.32,3.32,3.32,3.32,3.28,79.3,0.0,1.0,0.0,1.0,1.0,6758297
1765225263339,0.0,0.0,1.0,10.0,0.0,0.0,0.0,0.0,0.0,0.0,-0.050508,0.019764,0.991372,-0.6300000000000001,0.35000000000000003,-0.07,3.31,3.32,3.32,3.31,3.28,3.29,3.29,3.29,3.32,3.32,3.32,3.32,3.28,3.29,3.29,3.29,3.3,3.3,3.3,3.3,3.32,3.32,3.32,3.32,3.32,3.28,79.3,0.0,1.0,0.0,1.0,1.0,6758313
1765225263356,0.0,0.0,1.0,10.0,0.0,0.0,0.0,0.0,0.0,0.0,-0.050508,0.019764,0.991372,-0.6300000000000001,0.35000000000000003,-0.07,3.31,3.32,3.32,3.31,3.28,3.29,3.29,3.29,3.32,3.32,3.32,3.32,3.28,3.29,3.29,3.29,3.3,3.3,3.3,3.3,3.32,3.32,3.32,3.32,3.32,3.28,79.3,0.0,1.0,0.0,1.0,1.0,6758330
1765225263373,0.0,0.0,1.0,10.0,0.0,0.0,0.0,0.0,0.0,0.0,-0.050508,0.019764,0.991372,-0.6300000000000001,0.35000000000000003,-0.07,3.31,3.32,3.32,3.31,3.28,3.29,3.29,3.29,3.32,3.32,3.32,3.32,3.28,3.29,3.29,3.29,3.3,3.3,3.3,3.3,3.32,3.32,3.32,3.32,3.32,3.28,79.3,0.0,1.0,0.0,1.0,1.0,6758347
1765225263407,0.0,0.0,1.0,10.0,0.0,0.0,0.0,0.0,0.0,0.0,-0.050508,0.019764,0.991372,-0.6300000000000001,0.35000000000000003,-0.07,3.31,3.32,3.32,3.31,3.28,3.29,3.29,3.29,3.32,3.32,3.32,3.32,3.28,3.29,3.29,3.29,3.3,3.3,3.3,3.3,3.32,3.32,3.32,3.32,3.32,3.28,79.3,0.0,1.0,0.0,1.0,1.0,6758381
1765225263423,0.0,0.0,1.0,10.0,0.0,0.0,0.0,0.0,0.0,0.0,-0.050508,0.019764,0.991372,-0.6300000000000001,0.35000000000000003,-0.07,3.31,3.32,3.32,3.31,3.28,3.29,3.29,3.29,3.32,3.32,3.32,3.32,3.28,3.29,3.29,3.29,3.3,3.3,3.3,3.3,3.32,3.32,3.32,3.32,3.32,3.28,79.3,0.0,1.0,0.0,1.0,1.0,6758397
1765225263456,0.0,0.0,1.0,10.0,0.0,0.0,0.0,0.0,0.0,0.0,-0.050508,0.019764,0.991372,-0.6300000000000001,0.35000000000000003,-0.07,3.31,3.32,3.32,3.31,3.28,3.29,3.29,3.29,3.32,3.32,3.32,3.32,3.28,3.29,3.29,3.29,3.3,3.3,3.3,3.3,3.32,3.32,3.32,3.32,3.32,3.28,79.3,0.0,1.0,0.0,1.0,1.0,6758430
1765225263488,0.0,0.0,1.0,10.0,0.0,0.0,0.0,0.0,0.0,0.0,-0.049288,0.02013,0.991372,-0.6300000000000001,0.35000000000000003,-0.07,3.31,3.32,3.32,3.31,3.28,3.29,3.29,3.29,3.32,3.32,3.32,3.32,3.28,3.29,3.29,3.29,3.3,3.3,3.3,3.3,3.32,3.32,3.32,3.32,3.32,3.28,79.3,0.0,1.0,0.0,1.0,1.0,6758462
1765225263523,0.0,0.0,1.0,10.0,0.0,0.0,0.0,0.0,0.0,0.0,-0.049288,0.02013,0.991372,-0.6300000000000001,0.35000000000000003,-0.07,3.31,3.32,3.32,3.31,3.28,3.29,3.29,3.29,3.32,3.32,3.32,3.32,3.28,3.29,3.29,3.29,3.3,3.3,3.3,3.3,3.32,3.32,3.32,3.32,3.32,3.28,79.3,0.0,1.0,0.0,1.0,1.0,6758497
1765225263538,0.0,0.0,1.0,10.0,0.0,0.0,0.0,0.0,0.0,0.0,-0.049288,0.02013,0.991372,-0.7000000000000001,0.42000000000000004,-0.07,3.31,3.32,3.32,3.31,3.28,3.29,3.29,3.29,3.32,3.32,3.32,3.32,3.28,3.29,3.29,3.29,3.3,3.3,3.3,3.3,3.32,3.32,3.32,3.32,3.32,3.28,79.3,0.0,1.0,0.0,1.0,1.0,6758512
1765225263622,0.0,0.0,1.0,10.0,0.0,0.0,0.0,0.0,0.0,0.0,-0.049776,0.020862,0.9916159999999999,-0.7000000000000001,0.42000000000000004,-0.07,3.31,3.32,3.32,3.31,3.28,3.29,3.29,3.29,3.32,3.32,3.32,3.32,3.28,3.29,3.29,3.29,3.3,3.3,3.3,3.3,3.32,3.32,3.32,3.32,3.32,3.28,79.3,0.0,1.0,0.0,1.0,1.0,6758596
1765225263639,0.0,0.0,1.0,10.0,0.0,0.0,0.0,0.0,0.0,0.0,-0.049776,0.020862,0.9916159999999999,-0.7000000000000001,0.35000000000000003,-0.07,3.31,3.32,3.32,3.31,3.28,3.29,3.29,3.29,3.32,3.32,3.32,3.32,3.28,3.29,3.29,3.29,3.3,3.3,3.3,3.3,3.32,3.32,3.32,3.32,3.32,3.28,79.3,0.0,1.0,0.0,1.0,1.0,6758613
1765225263673,0.0,0.0,1.0,10.0,0.0,0.0,0.0,0.0,0.0,0.0,-0.049776,0.020862,0.9916159999999999,-0.7000000000000001,0.35000000000000003,-0.07,3.31,3.32,3.32,3.31,3.28,3.29,3.29,3.29,3.32,3.32,3.32,3.32,3.28,3.29,3.29,3.29,3.3,3.3,3.3,3.3,3.32,3.32,3.32,3.32,3.32,3.28,79.3,0.0,1.0,0.0,1.0,1.0,6758647
1765225263688,0.0,0.0,1.0,10.0,0.0,0.0,0.0,0.0,0.0,0.0,-0.049776,0.020862,0.9916159999999999,-0.7000000000000001,0.35000000000000003,-0.07,3.31,3.32,3.32,3.31,3.28,3.29,3.29,3.29,3.32,3.32,3.32,3.32,3.28,3.29,3.29,3.29,3.3,3.3,3.3,3.3,3.32,3.32,3.32,3.32,3.32,3.28,79.3,0.0,1.0,0.0,1.0,1.0,6758662
1765225263705,0.0,0.0,1.0,10.0,0.0,0.0,0.0,0.0,0.0,0.0,-0.049776,0.020862,0.9916159999999999,-0.7000000000000001,0.35000000000000003,-0.07,3.31,3.32,3.32,3.31,3.28,3.29,3.29,3.29,3.32,3.32,3.32,3.32,3.28,3.29,3.29,3.29,3.3,3.3,3.3,3.3,3.32,3.32,3.32,3.32,3.32,3.28,79.3,0.0,1.0,0.0,1.0,1.0,6758679
1765225263739,0.0,0.0,1.0,10.0,0.0,0.0,0.0,0.0,0.0,0.0,-0.049776,0.020862,0.9916159999999999,-0.7000000000000001,0.35000000000000003,-0.07,3.31,3.32,3.32,3.31,3.28,3.29,3.29,3.29,3.32,3.32,3.32,3.32,3.28,3.29,3.29,3.29,3.3,3.3,3.3,3.3,3.32,3.32,3.32,3.32,3.32,3.28,79.3,0.0,1.0,0.0,1.0,1.0,6758713
1765225263806,0.0,0.0,1.0,10.0,0.0,0.0,0.0,0.0,0.0,0.0,-0.049776,0.020862,0.9916159999999999,-0.7000000000000001,0.35000000000000003,-0.07,3.31,3.32,3.32,3.31,3.28,3.29,3.29,3.29,3.32,3.32,3.32,3.32,3.28,3.29,3.29,3.29,3.3,3.3,3.3,3.3,3.32,3.32,3.32,3.32,3.32,3.28,79.3,0.0,1.0,0.0,1.0,1.0,6758780
1765225263822,0.0,0.0,1.0,10.0,0.0,0.0,0.0,0.0,0.0,0.0,-0.050263999999999996,0.019642,0.98942,-0.7000000000000001,0.35000000000000003,-0.07,3.31,3.32,3.32,3.31,3.28,3.29,3.29,3.29,3.32,3.32,3.32,3.32,3.28,3.29,3.29,3.29,3.3,3.3,3.3,3.3,3.32,3.32,3.32,3.32,3.32,3.28,79.3,0.0,1.0,0.0,1.0,1.0,6758796
1765225263873,0.0,0.0,1.0,10.0,0.0,0.0,0.0,0.0,0.0,0.0,-0.050263999999999996,0.019642,0.98942,-0.6300000000000001,0.35000000000000003,-0.07,3.31,3.32,3.32,3.31,3.28,3.29,3.29,3.29,3.32,3.32,3.32,3.32,3.28,3.29,3.29,3.29,3.3,3.3,3.3,3.3,3.32,3.32,3.32,3.32,3.32,3.28,79.3,0.0,1.0,0.0,1.0,1.0,6758847
1765225263922,0.0,0.0,1.0,10.0,0.0,0.0,0.0,0.0,0.0,0.0,-0.049044,0.021106,0.9922259999999999,-0.6300000000000001,0.35000000000000003,-0.07,3.31,3.32,3.32,3.31,3.28,3.29,3.29,3.29,3.32,3.32,3.32,3.32,3.28,3.29,3.29,3.29,3.3,3.3,3.3,3.3,3.32,3.32,3.32,3.32,3.32,3.28,79.3,0.0,1.0,0.0,1.0,1.0,6758896
1765225264004,0.0,0.0,1.0,10.0,0.0,0.0,0.0,0.0,0.0,0.0,-0.051362,0.020862,0.9903959999999999,-0.6300000000000001,0.28,0.0,3.31,3.32,3.32,3.31,3.28,3.29,3.29,3.29,3.32,3.32,3.32,3.32,3.28,3.29,3.29,3.29,3.3,3.3,3.3,3.3,3.32,3.32,3.32,3.32,3.32,3.28,79.3,0.0,1.0,0.0,1.0,1.0,6758978
1765225264057,0.0,0.0,1.0,10.0,0.0,0.0,0.0,0.0,0.0,0.0,-0.051362,0.020862,0.9903959999999999,-0.6300000000000001,0.28,0.0,3.31,3.32,3.32,3.31,3.28,3.29,3.29,3.29,3.32,3.32,3.32,3.32,3.28,3.29,3.29,3.29,3.3,3.3,3.3,3.3,3.32,3.32,3.32,3.32,3.32,3.28,79.3,0.0,1.0,0.0,1.0,1.0,6759031
1765225264073,0.0,0.0,1.0,10.0,0.0,0.0,0.0,0.0,0.0,0.0,-0.051362,0.020862,0.9903959999999999,-0.6300000000000001,0.28,0.0,3.31,3.32,3.32,3.31,3.28,3.29,3.29,3.29,3.32,3.32,3.32,3.32,3.28,3.29,3.29,3.29,3.3,3.3,3.3,3.3,3.32,3.32,3.32,3.32,3.32,3.28,79.3,0.0,1.0,0.0,1.0,1.0,6759047
1765225264090,0.0,0.0,1.0,10.0,0.0,0.0,0.0,0.0,0.0,0.0,-0.04758,0.021838,0.991494,-0.6300000000000001,0.28,0.0,3.31,3.32,3.32,3.31,3.28,3.29,3.29,3.29,3.32,3.32,3.32,3.32,3.28,3.29,3.29,3.29,3.3,3.3,3.3,3.3,3.32,3.32,3.32,3.32,3.32,3.28,79.3,0.0,1.0,0.0,1.0,1.0,6759064
1765225264122,0.0,0.0,1.0,10.0,0.0,0.0,0.0,0.0,0.0,0.0,-0.04758,0.021838,0.991494,-0.6300000000000001,0.28,0.0,3.31,3.32,3.32,3.31,3.28,3.29,3.29,3.29,3.32,3.32,3.32,3.32,3.28,3.29,3.29,3.29,3.3,3.3,3.3,3.3,3.32,3.32,3.32,3.32,3.32,3.28,79.3,0.0,1.0,0.0,1.0,1.0,6759096
1765225264139,0.0,0.0,1.0,10.0,0.0,0.0,0.0,0.0,0.0,0.0,-0.04758,0.021838,0.991494,-0.6300000000000001,0.28,0.0,3.31,3.32,3.32,3.31,3.28,3.29,3.29,3.29,3.32,3.32,3.32,3.32,3.28,3.29,3.29,3.29,3.3,3.3,3.3,3.3,3.32,3.32,3.32,3.32,3.32,3.28,79.3,0.0,1.0,0.0,1.0,1.0,6759113
1765225264156,0.0,0.0,1.0,10.0,0.0,0.0,0.0,0.0,0.0,0.0,-0.04758,0.021838,0.991494,-0.6300000000000001,0.28,0.0,3.31,3.32,3.32,3.31,3.28,3.29,3.29,3.29,3.32,3.32,3.32,3.32,3.28,3.29,3.29,3.29,3.3,3.3,3.3,3.3,3.32,3.32,3.32,3.32,3.32,3.28,79.3,0.0,1.0,0.0,1.0,1.0,6759130
1765225264172,0.0,0.0,1.0,10.0,0.0,0.0,0.0,0.0,0.0,0.0,-0.04758,0.021838,0.991494,-0.6300000000000001,0.28,0.0,3.31,3.32,3.32,3.31,3.28,3.29,3.29,3.29,3.32,3.32,3.32,3.32,3.28,3.29,3.29,3.29,3.3,3.3,3.3,3.3,3.32,3.32,3.32,3.32,3.32,3.28,79.3,0.0,1.0,0.0,1.0,1.0,6759146
1765225264188,0.0,0.0,1.0,10.0,0.0,0.0,0.0,0.0,0.0,0.0,-0.04758,0.021838,0.991494,-0.6300000000000001,0.28,0.0,3.31,3.32,3.32,3.31,3.28,3.29,3.29,3.29,3.32,3.32,3.32,3.32,3.28,3.29,3.29,3.29,3.3,3.3,3.3,3.3,3.32,3.32,3.32,3.32,3.32,3.28,79.3,0.0,1.0,0.0,1.0,1.0,6759162
1765225264222,0.0,0.0,1.0,10.0,0.0,0.0,0.0,0.0,0.0,0.0,-0.04758,0.021838,0.991494,-0.6300000000000001,0.28,0.0,3.31,3.32,3.32,3.31,3.28,3.29,3.29,3.29,3.32,3.32,3.32,3.32,3.28,3.29,3.29,3.29,3.3,3.3,3.3,3.3,3.32,3.32,3.32,3.32,3.32,3.28,79.3,0.0,1.0,0.0,1.0,1.0,6759196
1765225264256,0.0,0.0,1.0,10.0,0.0,0.0,0.0,0.0,0.0,0.0,-0.04758,0.021838,0.991494,-0.6300000000000001,0.28,0.0,3.31,3.32,3.32,3.31,3.28,3.29,3.29,3.29,3.32,3.32,3.32,3.32,3.28,3.29,3.29,3.29,3.3,3.3,3.3,3.3,3.32,3.32,3.32,3.32,3.32,3.28,79.3,0.0,1.0,0.0,1.0,1.0,6759230
1765225264272,0.0,0.0,1.0,10.0,0.0,0.0,0.0,0.0,0.0,0.0,-0.04758,0.021838,0.991494,-0.56,0.42000000000000004,0.0,3.31,3.32,3.32,3.31,3.28,3.29,3.29,3.29,3.32,3.32,3.32,3.32,3.28,3.29,3.29,3.29,3.3,3.3,3.3,3.3,3.32,3.32,3.32,3.32,3.32,3.28,79.3,0.0,1.0,0.0,1.0,1.0,6759246
1765225264373,0.0,0.0,1.0,10.0,0.0,0.0,0.0,0.0,0.0,0.0,-0.05063,0.020007999999999998,0.990884,-0.6300000000000001,0.49000000000000005,-0.14,3.31,3.32,3.32,3.31,3.28,3.29,3.29,3.29,3.32,3.32,3.32,3.32,3.28,3.29,3.29,3.29,3.3,3.3,3.3,3.3,3.32,3.32,3.32,3.32,3.32,3.28,79.3,0.0,1.0,0.0,1.0,1.0,6759347
1765225264406,0.0,0.0,1.0,10.0,0.0,0.0,0.0,0.0,0.0,0.0,-0.05063,0.020007999999999998,0.990884,-0.6300000000000001,0.49000000000000005,-0.14,3.31,3.32,3.32,3.31,3.28,3.29,3.29,3.29,3.32,3.32,3.32,3.32,3.28,3.29,3.29,3.29,3.3,3.3,3.3,3.3,3.32,3.32,3.32,3.32,3.32,3.28,79.3,0.0,1.0,0.0,1.0,1.0,6759380
1765225264423,0.0,0.0,1.0,10.0,0.0,0.0,0.0,0.0,0.0,0.0,-0.05063,0.020007999999999998,0.990884,-0.6300000000000001,0.49000000000000005,-0.14,3.31,3.32,3.32,3.31,3.28,3.29,3.29,3.29,3.32,3.32,3.32,3.32,3.28,3.29,3.29,3.29,3.3,3.3,3.3,3.3,3.32,3.32,3.32,3.32,3.32,3.28,79.3,0.0,1.0,0.0,1.0,1.0,6759397
1765225264439,0.0,0.0,1.0,10.0,0.0,0.0,0.0,0.0,0.0,0.0,-0.05063,0.020007999999999998,0.990884,-0.6300000000000001,0.49000000000000005,-0.14,3.31,3.32,3.32,3.31,3.28,3.29,3.29,3.29,3.32,3.32,3.32,3.32,3.28,3.29,3.29,3.29,3.3,3.3,3.3,3.3,3.32,3.32,3.32,3.32,3.32,3.28,79.3,0.0,1.0,0.0,1.0,1.0,6759413
1765225264456,0.0,0.0,1.0,10.0,0.0,0.0,0.0,0.0,0.0,0.0,-0.05063,0.020007999999999998,0.990884,-0.6300000000000001,0.49000000000000005,-0.14,3.31,3.32,3.32,3.31,3.28,3.29,3.29,3.29,3.32,3.32,3.32,3.32,3.28,3.29,3.29,3.29,3.3,3.3,3.3,3.3,3.32,3.32,3.32,3.32,3.32,3.28,79.3,0.0,1.0,0.0,1.0,1.0,6759430
1765225264489,0.0,0.0,1.0,10.0,0.0,0.0,0.0,0.0,0.0,0.0,-0.05063,0.020007999999999998,0.990884,-0.6300000000000001,0.49000000000000005,-0.14,3.31,3.32,3.32,3.31,3.28,3.29,3.29,3.29,3.32,3.32,3.32,3.32,3.28,3.29,3.29,3.29,3.3,3.3,3.3,3.3,3.32,3.32,3.32,3.32,3.32,3.28,79.3,0.0,1.0,0.0,1.0,1.0,6759463
1765225264539,0.0,0.0,1.0,10.0,0.0,0.0,0.0,0.0,0.0,0.0,-0.05063,0.020007999999999998,0.990884,-0.6300000000000001,0.49000000000000005,-0.14,3.31,3.32,3.32,3.31,3.28,3.29,3.29,3.29,3.32,3.32,3.32,3.32,3.28,3.29,3.29,3.29,3.3,3.3,3.3,3.3,3.32,3.32,3.32,3.32,3.32,3.28,79.3,0.0,1.0,0.0,1.0,1.0,6759513
1765225264556,0.0,0.0,1.0,10.0,0.0,0.0,0.0,0.0,0.0,0.0,-0.05063,0.020007999999999998,0.990884,-0.6300000000000001,0.49000000000000005,-0.14,3.31,3.32,3.32,3.31,3.28,3.29,3.29,3.29,3.32,3.32,3.32,3.32,3.28,3.29,3.29,3.29,3.3,3.3,3.3,3.3,3.32,3.32,3.32,3.32,3.32,3.28,79.3,0.0,1.0,0.0,1.0,1.0,6759530
1765225264573,0.0,0.0,1.0,10.0,0.0,0.0,0.0,0.0,0.0,0.0,-0.05063,0.020007999999999998,0.990884,-0.6300000000000001,0.42000000000000004,0.0,3.31,3.32,3.32,3.31,3.28,3.29,3.29,3.29,3.32,3.32,3.32,3.32,3.28,3.29,3.29,3.29,3.3,3.3,3.3,3.3,3.32,3.32,3.32,3.32,3.32,3.28,79.3,0.0,1.0,0.0,1.0,1.0,6759547
1765225264589,0.0,0.0,1.0,10.0,0.0,0.0,0.0,0.0,0.0,0.0,-0.05063,0.020007999999999998,0.990884,-0.6300000000000001,0.42000000000000004,0.0,3.31,3.32,3.32,3.31,3.28,3.29,3.29,3.29,3.32,3.32,3.32,3.32,3.28,3.29,3.29,3.29,3.3,3.3,3.3,3.3,3.32,3.32,3.32,3.32,3.32,3.28,79.3,0.0,1.0,0.0,1.0,1.0,6759563
1765225264622,0.0,0.0,1.0,10.0,0.0,0.0,0.0,0.0,0.0,0.0,-0.05063,0.020007999999999998,0.990884,-0.6300000000000001,0.42000000000000004,0.0,3.31,3.32,3.32,3.31,3.28,3.29,3.29,3.29,3.32,3.32,3.32,3.32,3.28,3.29,3.29,3.29,3.3,3.3,3.3,3.3,3.32,3.32,3.32,3.32,3.32,3.28,79.3,0.0,1.0,0.0,1.0,1.0,6759596
1765225264673,0.0,0.0,1.0,10.0,0.0,0.0,0.0,0.0,0.0,0.0,-0.05063,0.020007999999999998,0.990884,-0.6300000000000001,0.42000000000000004,0.0,3.31,3.32,3.32,3.31,3.28,3.29,3.29,3.29,3.32,3.32,3.32,3.32,3.28,3.29,3.29,3.29,3.3,3.3,3.3,3.3,3.32,3.32,3.32,3.32,3.32,3.28,79.3,0.0,1.0,0.0,1.0,1.0,6759647
1765225264739,0.0,0.0,1.0,10.0,0.0,0.0,0.0,0.0,0.0,0.0,-0.048312,0.020618,0.991982,-0.6300000000000001,0.42000000000000004,0.0,3.31,3.32,3.32,3.31,3.28,3.29,3.29,3.29,3.32,3.32,3.32,3.32,3.28,3.29,3.29,3.29,3.3,3.3,3.3,3.3,3.32,3.32,3.32,3.32,3.32,3.28,79.3,0.0,1.0,0.0,1.0,1.0,6759713
1765225264755,0.0,0.0,1.0,10.0,0.0,0.0,0.0,0.0,0.0,0.0,-0.048312,0.020618,0.991982,-0.6300000000000001,0.42000000000000004,-0.07,3.31,3.32,3.32,3.31,3.28,3.29,3.29,3.29,3.32,3.32,3.32,3.32,3.28,3.29,3.29,3.29,3.3,3.3,3.3,3.3,3.32,3.32,3.32,3.32,3.32,3.28,79.3,0.0,1.0,0.0,1.0,1.0,6759729
1765225264822,0.0,0.0,1.0,10.0,0.0,0.0,0.0,0.0,0.0,0.0,-0.048312,0.020618,0.991982,-0.6300000000000001,0.42000000000000004,-0.07,3.31,3.32,3.32,3.31,3.28,3.29,3.29,3.29,3.32,3.32,3.32,3.32,3.28,3.29,3.29,3.29,3.3,3.3,3.3,3.3,3.32,3.32,3.32,3.32,3.32,3.28,79.3,0.0,1.0,0.0,1.0,1.0,6759796
1765225264840,0.0,0.0,1.0,10.0,0.0,0.0,0.0,0.0,0.0,0.0,-0.049044,0.021471999999999998,0.99064,-0.6300000000000001,0.42000000000000004,-0.07,3.31,3.32,3.32,3.31,3.28,3.29,3.29,3.29,3.32,3.32,3.32,3.32,3.28,3.29,3.29,3.29,3.3,3.3,3.3,3.3,3.32,3.32,3.32,3.32,3.32,3.28,79.3,0.0,1.0,0.0,1.0,1.0,6759814
1765225264854,0.0,0.0,1.0,10.0,0.0,0.0,0.0,0.0,0.0,0.0,-0.049044,0.021471999999999998,0.99064,-0.6300000000000001,0.42000000000000004,-0.07,3.31,3.32,3.32,3.31,3.28,3.29,3.29,3.29,3.32,3.32,3.32,3.32,3.28,3.29,3.29,3.29,3.3,3.3,3.3,3.3,3.32,3.32,3.32,3.32,3.32,3.28,79.3,0.0,1.0,0.0,1.0,1.0,6759828
1765225264887,0.0,0.0,1.0,10.0,0.0,0.0,0.0,0.0,0.0,0.0,-0.049044,0.021471999999999998,0.99064,-0.6300000000000001,0.42000000000000004,-0.07,3.31,3.32,3.32,3.31,3.28,3.29,3.29,3.29,3.32,3.32,3.32,3.32,3.28,3.29,3.29,3.29,3.3,3.3,3.3,3.3,3.32,3.32,3.32,3.32,3.32,3.28,79.3,0.0,1.0,0.0,1.0,1.0,6759861
1765225264906,0.0,0.0,1.0,10.0,0.0,0.0,0.0,0.0,0.0,0.0,-0.049044,0.021471999999999998,0.99064,-0.56,0.35000000000000003,-0.07,3.31,3.32,3.32,3.31,3.28,3.29,3.29,3.29,3.32,3.32,3.32,3.32,3.28,3.29,3.29,3.29,3.3,3.3,3.3,3.3,3.32,3.32,3.32,3.32,3.32,3.28,79.3,0.0,1.0,0.0,1.0,1.0,6759880
1765225264956,0.0,0.0,1.0,10.0,0.0,0.0,0.0,0.0,0.0,0.0,-0.049044,0.021471999999999998,0.99064,-0.56,0.35000000000000003,-0.07,3.31,3.32,3.32,3.31,3.28,3.29,3.29,3.29,3.32,3.32,3.32,3.32,3.28,3.29,3.29,3.29,3.3,3.3,3.3,3.3,3.32,3.32,3.32,3.32,3.32,3.28,79.3,0.0,1.0,0.0,1.0,1.0,6759930
1765225265039,0.0,0.0,1.0,10.0,0.0,0.0,0.0,0.0,0.0,0.0,-0.049044,0.021471999999999998,0.99064,-0.56,0.35000000000000003,-0.07,3.31,3.32,3.32,3.31,3.28,3.29,3.29,3.29,3.32,3.32,3.32,3.32,3.28,3.29,3.29,3.29,3.3,3.3,3.3,3.3,3.32,3.32,3.32,3.32,3.32,3.28,79.3,-1.0,1.0,0.0,1.0,1.0,6760013
1765225265056,0.0,0.0,1.0,10.0,0.0,0.0,0.0,0.0,0.0,0.0,-0.049044,0.021471999999999998,0.99064,-0.56,0.35000000000000003,-0.07,3.31,3.32,3.32,3.31,3.28,3.29,3.29,3.29,3.32,3.32,3.32,3.32,3.28,3.29,3.29,3.29,3.3,3.3,3.3,3.3,3.32,3.32,3.32,3.32,3.32,3.28,79.3,-1.0,1.0,0.0,1.0,1.0,6760030
1765225265071,0.0,0.0,1.0,10.0,0.0,0.0,0.0,0.0,0.0,0.0,-0.05063,0.020862,0.991128,-0.56,0.35000000000000003,-0.07,3.31,3.32,3.32,3.31,3.28,3.29,3.29,3.29,3.32,3.32,3.32,3.32,3.28,3.29,3.29,3.29,3.3,3.3,3.3,3.3,3.32,3.32,3.32,3.32,3.32,3.28,79.3,-1.0,1.0,0.0,1.0,1.0,6760045
1765225265088,0.0,0.0,1.0,10.0,0.0,0.0,0.0,0.0,0.0,0.0,-0.05063,0.020862,0.991128,-0.6300000000000001,0.28,-0.07,3.31,3.32,3.32,3.31,3.28,3.29,3.29,3.29,3.32,3.32,3.32,3.32,3.28,3.29,3.29,3.29,3.3,3.3,3.3,3.3,3.32,3.32,3.32,3.32,3.32,3.28,79.3,-1.0,1.0,0.0,1.0,1.0,6760062
1765225265139,0.0,0.0,1.0,10.0,0.0,0.0,0.0,0.0,0.0,0.0,-0.05063,0.020862,0.991128,-0.6300000000000001,0.28,-0.07,3.31,3.32,3.32,3.31,3.28,3.29,3.29,3.29,3.32,3.32,3.32,3.32,3.28,3.29,3.29,3.29,3.3,3.3,3.3,3.3,3.32,3.32,3.32,3.32,3.32,3.28,79.3,-1.0,1.0,0.0,1.0,1.0,6760113
1765225265156,0.0,0.0,1.0,10.0,0.0,0.0,0.0,0.0,0.0,0.0,-0.05063,0.020862,0.991128,-0.6300000000000001,0.28,-0.07,3.31,3.32,3.32,3.31,3.28,3.29,3.29,3.29,3.32,3.32,3.32,3.32,3.28,3.29,3.29,3.29,3.3,3.3,3.3,3.3,3.32,3.32,3.32,3.32,3.32,3.28,79.3,-1.0,1.0,0.0,1.0,1.0,6760130
1765225265189,0.0,0.0,1.0,10.0,0.0,0.0,0.0,0.0,0.0,0.0,-0.05063,0.020862,0.991128,-0.6300000000000001,0.28,-0.07,3.31,3.32,3.32,3.31,3.28,3.29,3.29,3.29,3.32,3.32,3.32,3.32,3.28,3.29,3.29,3.29,3.3,3.3,3.3,3.3,3.32,3.32,3.32,3.32,3.32,3.28,79.3,-1.0,1.0,0.0,1.0,1.0,6760163
1765225265206,0.0,0.0,1.0,10.0,0.0,0.0,0.0,0.0,0.0,0.0,-0.047458,0.020618,0.9910059999999999,-0.6300000000000001,0.28,-0.07,3.31,3.32,3.32,3.31,3.28,3.29,3.29,3.29,3.32,3.32,3.32,3.32,3.28,3.29,3.29,3.29,3.3,3.3,3.3,3.3,3.32,3.32,3.32,3.32,3.32,3.28,79.3,-1.0,1.0,0.0,1.0,1.0,6760180
1765225265223,0.0,0.0,1.0,10.0,0.0,0.0,0.0,0.0,0.0,0.0,-0.047458,0.020618,0.9910059999999999,-0.49000000000000005,0.42000000000000004,0.07,3.31,3.32,3.32,3.31,3.28,3.29,3.29,3.29,3.32,3.32,3.32,3.32,3.28,3.29,3.29,3.29,3.3,3.3,3.3,3.3,3.32,3.32,3.32,3.32,3.32,3.28,79.3,-1.0,1.0,0.0,1.0,1.0,6760197
1765225265256,0.0,0.0,1.0,10.0,0.0,0.0,0.0,0.0,0.0,0.0,-0.047458,0.020618,0.9910059999999999,-0.49000000000000005,0.42000000000000004,0.07,3.31,3.32,3.32,3.31,3.28,3.29,3.29,3.29,3.32,3.32,3.32,3.32,3.28,3.29,3.29,3.29,3.3,3.3,3.3,3.3,3.32,3.32,3.32,3.32,3.32,3.28,79.3,-1.0,1.0,0.0,1.0,1.0,6760230
1765225265272,0.0,0.0,1.0,10.0,0.0,0.0,0.0,0.0,0.0,0.0,-0.047458,0.020618,0.9910059999999999,-0.49000000000000005,0.42000000000000004,0.07,3.31,3.32,3.32,3.31,3.28,3.29,3.29,3.29,3.32,3.32,3.32,3.32,3.28,3.29,3.29,3.29,3.3,3.3,3.3,3.3,3.32,3.32,3.32,3.32,3.32,3.28,79.3,-1.0,1.0,0.0,1.0,1.0,6760246
1765225265289,0.0,0.0,1.0,10.0,0.0,0.0,0.0,0.0,0.0,0.0,-0.047458,0.020618,0.9910059999999999,-0.49000000000000005,0.42000000000000004,0.07,3.31,3.32,3.32,3.31,3.28,3.29,3.29,3.29,3.32,3.32,3.32,3.32,3.28,3.29,3.29,3.29,3.3,3.3,3.3,3.3,3.32,3.32,3.32,3.32,3.32,3.28,79.3,-1.0,1.0,0.0,1.0,1.0,6760263
1765225265306,0.0,0.0,1.0,10.0,0.0,0.0,0.0,0.0,0.0,0.0,-0.047458,0.020618,0.9910059999999999,-0.49000000000000005,0.42000000000000004,0.07,3.31,3.32,3.32,3.31,3.28,3.29,3.29,3.29,3.32,3.32,3.32,3.32,3.28,3.29,3.29,3.29,3.3,3.3,3.3,3.3,3.32,3.32,3.32,3.32,3.32,3.28,79.3,-1.0,1.0,0.0,1.0,1.0,6760280
1765225265323,0.0,0.0,1.0,10.0,0.0,0.0,0.0,0.0,0.0,0.0,-0.047458,0.020618,0.9910059999999999,-0.49000000000000005,0.42000000000000004,0.07,3.31,3.32,3.32,3.31,3.28,3.29,3.29,3.29,3.32,3.32,3.32,3.32,3.28,3.29,3.29,3.29,3.3,3.3,3.3,3.3,3.32,3.32,3.32,3.32,3.32,3.28,79.3,-1.0,1.0,0.0,1.0,1.0,6760297
1765225265390,0.0,0.0,1.0,10.0,0.0,0.0,0.0,0.0,0.0,0.0,-0.047458,0.020618,0.9910059999999999,-0.49000000000000005,0.42000000000000004,0.07,3.31,3.32,3.32,3.31,3.28,3.29,3.29,3.29,3.32,3.32,3.32,3.32,3.28,3.29,3.29,3.29,3.3,3.3,3.3,3.3,3.32,3.32,3.32,3.32,3.32,3.28,79.3,-1.0,1.0,0.0,1.0,1.0,6760364
1765225265405,0.0,0.0,1.0,10.0,0.0,0.0,0.0,0.0,0.0,0.0,-0.04636,0.01952,0.994178,-0.49000000000000005,0.42000000000000004,0.07,3.31,3.32,3.32,3.31,3.28,3.29,3.29,3.29,3.32,3.32,3.32,3.32,3.28,3.29,3.29,3.29,3.3,3.3,3.3,3.3,3.32,3.32,3.32,3.32,3.32,3.28,79.3,-1.0,1.0,0.0,1.0,1.0,6760379
1765225265455,0.0,0.0,1.0,10.0,0.0,0.0,0.0,0.0,0.0,0.0,-0.04636,0.01952,0.994178,-0.6300000000000001,0.49000000000000005,0.0,3.31,3.32,3.32,3.31,3.28,3.29,3.29,3.29,3.32,3.32,3.32,3.32,3.28,3.29,3.29,3.29,3.3,3.3,3.3,3.3,3.32,3.32,3.32,3.32,3.32,3.28,79.3,-1.0,1.0,0.0,1.0,1.0,6760429
1765225265505,0.0,0.0,1.0,10.0,0.0,0.0,0.0,0.0,0.0,0.0,-0.050996,0.019764,0.99125,-0.6300000000000001,0.49000000000000005,0.0,3.31,3.32,3.32,3.31,3.28,3.29,3.29,3.29,3.32,3.32,3.32,3.32,3.28,3.29,3.29,3.29,3.3,3.3,3.3,3.3,3.32,3.32,3.32,3.32,3.32,3.28,79.3,-1.0,1.0,0.0,1.0,1.0,6760479
1765225265539,0.0,0.0,1.0,10.0,0.0,0.0,0.0,0.0,0.0,0.0,-0.050996,0.019764,0.99125,-0.6300000000000001,0.49000000000000005,0.0,3.31,3.32,3.32,3.31,3.28,3.29,3.29,3.29,3.32,3.32,3.32,3.32,3.28,3.29,3.29,3.29,3.3,3.3,3.3,3.3,3.32,3.32,3.32,3.32,3.32,3.28,79.3,-1.0,1.0,0.0,1.0,1.0,6760513
1765225265555,0.0,0.0,1.0,10.0,0.0,0.0,0.0,0.0,0.0,0.0,-0.050996,0.019764,0.99125,-0.7000000000000001,0.42000000000000004,0.0,3.31,3.32,3.32,3.31,3.28,3.29,3.29,3.29,3.32,3.32,3.32,3.32,3.28,3.29,3.29,3.29,3.3,3.3,3.3,3.3,3.32,3.32,3.32,3.32,3.32,3.28,79.3,-1.0,1.0,0.0,1.0,1.0,6760529
1765225265572,0.0,0.0,1.0,10.0,0.0,0.0,0.0,0.0,0.0,0.0,-0.050996,0.019764,0.99125,-0.7000000000000001,0.42000000000000004,0.0,3.31,3.32,3.32,3.31,3.28,3.29,3.29,3.29,3.32,3.32,3.32,3.32,3.28,3.29,3.29,3.29,3.3,3.3,3.3,3.3,3.32,3.32,3.32,3.32,3.32,3.28,79.3,-1.0,1.0,0.0,1.0,1.0,6760546
1765225265622,0.0,0.0,1.0,10.0,0.0,0.0,0.0,0.0,0.0,0.0,-0.050996,0.019764,0.99125,-0.7000000000000001,0.42000000000000004,0.0,3.31,3.32,3.32,3.31,3.28,3.29,3.29,3.29,3.32,3.32,3.32,3.32,3.28,3.29,3.29,3.29,3.3,3.3,3.3,3.3,3.32,3.32,3.32,3.32,3.32,3.28,79.3,-1.0,1.0,0.0,1.0,1.0,6760596
1765225265673,0.0,0.0,1.0,10.0,0.0,0.0,0.0,0.0,0.0,0.0,-0.050996,0.019764,0.99125,-0.7000000000000001,0.42000000000000004,0.0,3.31,3.32,3.32,3.31,3.28,3.29,3.29,3.29,3.32,3.32,3.32,3.32,3.28,3.29,3.29,3.29,3.3,3.3,3.3,3.3,3.32,3.32,3.32,3.32,3.32,3.28,79.3,-1.0,1.0,0.0,1.0,1.0,6760647
1765225265738,0.0,0.0,1.0,10.0,0.0,0.0,0.0,0.0,0.0,0.0,-0.053314,0.020984,0.9910059999999999,-0.7000000000000001,0.42000000000000004,0.0,3.31,3.32,3.32,3.31,3.28,3.29,3.29,3.29,3.32,3.32,3.32,3.32,3.28,3.29,3.29,3.29,3.3,3.3,3.3,3.3,3.32,3.32,3.32,3.32,3.32,3.28,79.3,-1.0,1.0,0.0,1.0,1.0,6760712
1765225265755,0.0,0.0,1.0,10.0,0.0,0.0,0.0,0.0,0.0,0.0,-0.053314,0.020984,0.9910059999999999,-0.7000000000000001,0.42000000000000004,0.0,3.31,3.32,3.32,3.31,3.28,3.29,3.29,3.29,3.32,3.32,3.32,3.32,3.28,3.29,3.29,3.29,3.3,3.3,3.3,3.3,3.32,3.32,3.32,3.32,3.32,3.28,79.3,-1.0,1.0,0.0,1.0,1.0,6760729
1765225265772,0.0,0.0,1.0,10.0,0.0,0.0,0.0,0.0,0.0,0.0,-0.053314,0.020984,0.9910059999999999,-0.7000000000000001,0.42000000000000004,0.0,3.31,3.32,3.32,3.31,3.28,3.29,3.29,3.29,3.32,3.32,3.32,3.32,3.28,3.29,3.29,3.29,3.3,3.3,3.3,3.3,3.32,3.32,3.32,3.32,3.32,3.28,79.3,-1.0,1.0,0.0,1.0,1.0,6760746
1765225265788,0.0,0.0,1.0,10.0,0.0,0.0,0.0,0.0,0.0,0.0,-0.053314,0.020984,0.9910059999999999,-0.7000000000000001,0.42000000000000004,0.0,3.31,3.32,3.32,3.31,3.28,3.29,3.29,3.29,3.32,3.32,3.32,3.32,3.28,3.29,3.29,3.29,3.3,3.3,3.3,3.3,3.32,3.32,3.32,3.32,3.32,3.28,79.3,-1.0,1.0,0.0,1.0,1.0,6760762
1765225265872,0.0,0.0,1.0,10.0,0.0,0.0,0.0,0.0,0.0,0.0,-0.054412,0.0183,0.99003,-0.7000000000000001,0.42000000000000004,0.0,3.31,3.32,3.32,3.31,3.28,3.29,3.29,3.29,3.32,3.32,3.32,3.32,3.28,3.29,3.29,3.29,3.3,3.3,3.3,3.3,3.32,3.32,3.32,3.32,3.32,3.28,79.3,-1.0,1.0,0.0,1.0,1.0,6760846
1765225265890,0.0,0.0,1.0,10.0,0.0,0.0,0.0,0.0,0.0,0.0,-0.054412,0.0183,0.99003,-0.7000000000000001,0.42000000000000004,0.0,3.31,3.32,3.32,3.31,3.28,3.29,3.29,3.29,3.32,3.32,3.32,3.32,3.28,3.29,3.29,3.29,3.3,3.3,3.3,3.3,3.32,3.32,3.32,3.32,3.32,3.28,79.3,-1.0,1.0,0.0,1.0,1.0,6760864
1765225265922,0.0,0.0,1.0,10.0,0.0,0.0,0.0,0.0,0.0,0.0,-0.054412,0.0183,0.99003,-0.7000000000000001,0.42000000000000004,0.0,3.31,3.32,3.32,3.31,3.28,3.29,3.29,3.29,3.32,3.32,3.32,3.32,3.28,3.29,3.29,3.29,3.3,3.3,3.3,3.3,3.32,3.32,3.32,3.32,3.32,3.28,79.3,-1.0,1.0,0.0,1.0,1.0,6760896
1765225265938,0.0,0.0,1.0,10.0,0.0,0.0,0.0,0.0,0.0,0.0,-0.054412,0.0183,0.99003,-0.7000000000000001,0.42000000000000004,0.0,3.31,3.32,3.32,3.31,3.28,3.29,3.29,3.29,3.32,3.32,3.32,3.32,3.28,3.29,3.29,3.29,3.3,3.3,3.3,3.3,3.32,3.32,3.32,3.32,3.32,3.28,79.3,-1.0,1.0,0.0,1.0,1.0,6760912
1765225265955,0.0,0.0,1.0,10.0,0.0,0.0,0.0,0.0,0.0,0.0,-0.054412,0.0183,0.99003,-0.6300000000000001,0.28,-0.07,3.31,3.32,3.32,3.31,3.28,3.29,3.29,3.29,3.32,3.32,3.32,3.32,3.28,3.29,3.29,3.29,3.3,3.3,3.3,3.3,3.32,3.32,3.32,3.32,3.32,3.28,79.3,-1.0,1.0,0.0,1.0,1.0,6760929
1765225265988,0.0,0.0,1.0,10.0,0.0,0.0,0.0,0.0,0.0,0.0,-0.054412,0.0183,0.99003,-0.6300000000000001,0.28,-0.07,3.31,3.32,3.32,3.31,3.28,3.29,3.29,3.29,3.32,3.32,3.32,3.32,3.28,3.29,3.29,3.29,3.3,3.3,3.3,3.3,3.32,3.32,3.32,3.32,3.32,3.28,79.3,-1.0,1.0,0.0,1.0,1.0,6760962
1765225266004,0.0,0.0,1.0,10.0,0.0,0.0,0.0,0.0,0.0,0.0,-0.054412,0.0183,0.99003,-0.6300000000000001,0.28,-0.07,3.31,3.32,3.32,3.31,3.28,3.29,3.29,3.29,3.32,3.32,3.32,3.32,3.28,3.29,3.29,3.29,3.3,3.3,3.3,3.3,3.32,3.32,3.32,3.32,3.32,3.28,79.3,-1.0,1.0,0.0,1.0,1.0,6760978
1765225266022,0.0,0.0,1.0,10.0,0.0,0.0,0.0,0.0,0.0,0.0,-0.054412,0.0183,0.99003,-0.6300000000000001,0.28,-0.07,3.31,3.32,3.32,3.31,3.28,3.29,3.29,3.29,3.32,3.32,3.32,3.32,3.28,3.29,3.29,3.29,3.3,3.3,3.3,3.3,3.32,3.32,3.32,3.32,3.32,3.28,79.3,-1.0,1.0,0.0,1.0,1.0,6760996
1765225266038,0.0,0.0,1.0,10.0,0.0,0.0,0.0,0.0,0.0,0.0,-0.054412,0.0183,0.99003,-0.6300000000000001,0.28,-0.07,3.31,3.32,3.32,3.31,3.28,3.29,3.29,3.29,3.32,3.32,3.32,3.32,3.28,3.29,3.29,3.29,3.3,3.3,3.3,3.3,3.32,3.32,3.32,3.32,3.32,3.28,79.3,-1.0,1.0,0.0,1.0,1.0,6761012
1765225266072,0.0,0.0,1.0,10.0,0.0,0.0,0.0,0.0,0.0,0.0,-0.054412,0.0183,0.99003,-0.6300000000000001,0.28,-0.07,3.31,3.32,3.32,3.31,3.28,3.29,3.29,3.29,3.32,3.32,3.32,3.32,3.28,3.29,3.29,3.29,3.3,3.3,3.3,3.3,3.32,3.32,3.32,3.32,3.32,3.28,79.3,-1.0,1.0,0.0,1.0,1.0,6761046
1765225266121,0.0,0.0,1.0,10.0,0.0,0.0,0.0,0.0,0.0,0.0,-0.054412,0.0183,0.99003,-0.6300000000000001,0.28,-0.07,3.31,3.32,3.32,3.31,3.28,3.29,3.29,3.29,3.32,3.32,3.32,3.32,3.28,3.29,3.29,3.29,3.3,3.3,3.3,3.3,3.32,3.32,3.32,3.32,3.32,3.28,79.3,-1.0,1.0,0.0,1.0,1.0,6761095
1765225266172,0.0,0.0,1.0,10.0,0.0,0.0,0.0,0.0,0.0,0.0,-0.045628,0.02562,0.993812,-0.6300000000000001,0.28,-0.07,3.31,3.32,3.32,3.31,3.28,3.29,3.29,3.29,3.32,3.32,3.32,3.32,3.28,3.29,3.29,3.29,3.3,3.3,3.3,3.3,3.32,3.32,3.32,3.32,3.32,3.28,79.3,-1.0,1.0,0.0,1.0,1.0,6761146
1765225266205,0.0,0.0,1.0,10.0,0.0,0.0,0.0,0.0,0.0,0.0,-0.045628,0.02562,0.993812,-0.7000000000000001,0.42000000000000004,0.0,3.31,3.32,3.32,3.31,3.28,3.29,3.29,3.29,3.32,3.32,3.32,3.32,3.28,3.29,3.29,3.29,3.3,3.3,3.3,3.3,3.32,3.32,3.32,3.32,3.32,3.28,79.3,-1.0,1.0,0.0,1.0,1.0,6761179
1765225266255,0.0,0.0,1.0,10.0,0.0,0.0,0.0,0.0,0.0,0.0,-0.04819,0.021228,0.9882,-0.7000000000000001,0.42000000000000004,0.0,3.31,3.32,3.32,3.31,3.28,3.29,3.29,3.29,3.32,3.32,3.32,3.32,3.28,3.29,3.29,3.29,3.3,3.3,3.3,3.3,3.32,3.32,3.32,3.32,3.32,3.28,79.3,-1.0,1.0,0.0,1.0,1.0,6761229
1765225266271,0.0,0.0,1.0,10.0,0.0,0.0,0.0,0.0,0.0,0.0,-0.04819,0.021228,0.9882,-0.7000000000000001,0.42000000000000004,0.0,3.31,3.32,3.32,3.31,3.28,3.29,3.29,3.29,3.32,3.32,3.32,3.32,3.28,3.29,3.29,3.29,3.3,3.3,3.3,3.3,3.32,3.32,3.32,3.32,3.32,3.28,79.3,-1.0,1.0,0.0,1.0,1.0,6761245
1765225266289,0.0,0.0,1.0,10.0,0.0,0.0,0.0,0.0,0.0,0.0,-0.04819,0.021228,0.9882,-0.7000000000000001,0.42000000000000004,0.0,3.31,3.32,3.32,3.31,3.28,3.29,3.29,3.29,3.32,3.32,3.32,3.32,3.28,3.29,3.29,3.29,3.3,3.3,3.3,3.3,3.32,3.32,3.32,3.32,3.32,3.28,79.3,-1.0,1.0,0.0,1.0,1.0,6761263
1765225266306,0.0,0.0,1.0,10.0,0.0,0.0,0.0,0.0,0.0,0.0,-0.04819,0.021228,0.9882,-0.6300000000000001,0.21000000000000002,-0.14,3.31,3.32,3.32,3.31,3.28,3.29,3.29,3.29,3.32,3.32,3.32,3.32,3.28,3.29,3.29,3.29,3.3,3.3,3.3,3.3,3.32,3.32,3.32,3.32,3.32,3.28,79.3,-1.0,1.0,0.0,1.0,1.0,6761280
1765225266324,0.0,0.0,1.0,10.0,0.0,0.0,0.0,0.0,0.0,0.0,-0.04819,0.021228,0.9882,-0.6300000000000001,0.21000000000000002,-0.14,3.31,3.32,3.32,3.31,3.28,3.29,3.29,3.29,3.32,3.32,3.32,3.32,3.28,3.29,3.29,3.29,3.3,3.3,3.3,3.3,3.32,3.32,3.32,3.32,3.32,3.28,79.3,-1.0,1.0,0.0,1.0,1.0,6761298
1765225266354,0.0,0.0,1.0,10.0,0.0,0.0,0.0,0.0,0.0,0.0,-0.04819,0.021228,0.9882,-0.6300000000000001,0.21000000000000002,-0.14,3.31,3.32,3.32,3.31,3.28,3.29,3.29,3.29,3.32,3.32,3.32,3.32,3.28,3.29,3.29,3.29,3.3,3.3,3.3,3.3,3.32,3.32,3.32,3.32,3.32,3.28,79.3,-1.0,1.0,0.0,1.0,1.0,6761328
1765225266406,0.0,0.0,1.0,10.0,0.0,0.0,0.0,0.0,0.0,0.0,-0.04819,0.021228,0.9882,-0.6300000000000001,0.21000000000000002,-0.14,3.31,3.32,3.32,3.31,3.28,3.29,3.29,3.29,3.32,3.32,3.32,3.32,3.28,3.29,3.29,3.29,3.3,3.3,3.3,3.3,3.32,3.32,3.32,3.32,3.32,3.28,79.3,-1.0,1.0,0.0,1.0,1.0,6761380
1765225266439,0.0,0.0,1.0,10.0,0.0,0.0,0.0,0.0,0.0,0.0,-0.04819,0.021228,0.9882,-0.6300000000000001,0.21000000000000002,-0.14,3.31,3.32,3.32,3.31,3.28,3.29,3.29,3.29,3.32,3.32,3.32,3.32,3.28,3.29,3.29,3.29,3.3,3.3,3.3,3.3,3.32,3.32,3.32,3.32,3.32,3.28,79.3,-1.0,1.0,0.0,1.0,1.0,6761413
1765225266456,0.0,0.0,1.0,10.0,0.0,0.0,0.0,0.0,0.0,0.0,-0.045871999999999996,0.0183,0.986248,-0.6300000000000001,0.21000000000000002,-0.14,3.31,3.32,3.32,3.31,3.28,3.29,3.29,3.29,3.32,3.32,3.32,3.32,3.28,3.29,3.29,3.29,3.3,3.3,3.3,3.3,3.32,3.32,3.32,3.32,3.32,3.28,79.3,-1.0,1.0,0.0,1.0,1.0,6761430
1765225266473,0.0,0.0,1.0,10.0,0.0,0.0,0.0,0.0,0.0,0.0,-0.045871999999999996,0.0183,0.986248,-0.6300000000000001,0.21000000000000002,-0.14,3.31,3.32,3.32,3.31,3.28,3.29,3.29,3.29,3.32,3.32,3.32,3.32,3.28,3.29,3.29,3.29,3.3,3.3,3.3,3.3,3.32,3.32,3.32,3.32,3.32,3.28,79.3,-1.0,1.0,0.0,1.0,1.0,6761447
1765225266522,0.0,0.0,1.0,10.0,0.0,0.0,0.0,0.0,0.0,0.0,-0.045871999999999996,0.0183,0.986248,-0.7000000000000001,0.42000000000000004,-0.07,3.31,3.32,3.32,3.31,3.28,3.29,3.29,3.29,3.32,3.32,3.32,3.32,3.28,3.29,3.29,3.29,3.3,3.3,3.3,3.3,3.32,3.32,3.32,3.32,3.32,3.28,79.3,-1.0,1.0,0.0,1.0,1.0,6761496
