timestamp,THROTTLE,BRAKE,ECU_MODE_ID,TORQUE_GAIN,TORQUE_REF_LEFT_MOTOR,TORQUE_REF_RIGHT_MOTOR,LEFT_MOTOR_SPEED,RIGHT_MOTOR_SPEED,REAR_LEFT_WHEEL_SPEED,REAR_RIGHT_WHEEL_SPEED,ACCEL_LONGITUDINAL,ACCEL_LATERAL,ACCEL_NORMAL,VEL_ANGULAR_YAW,VEL_ANGULAR_PITCH,VEL_ANGULAR_ROLL,STACK_1_CELL_1,STACK_1_CELL_2,STACK_1_CELL_3,STACK_1_CELL_4,STACK_2_CELL_1,STACK_2_CELL_2,STACK_2_CELL_3,STACK_2_CELL_4,STACK_3_CELL_1,STACK_3_CELL_2,STACK_3_CELL_3,STACK_3_CELL_4,STACK_4_CELL_1,STACK_4_CELL_2,STACK_4_CELL_3,STACK_4_CELL_4,STACK_5_CELL_1,STACK_5_CELL_2,STACK_5_CELL_3,STACK_5_CELL_4,STACK_6_CELL_1,STACK_6_CELL_2,STACK_6_CELL_3,STACK_6_CELL_4,MAX_VOLTAGE,MIN_VOLTAGE,TOTAL_VOLTAGE,SHUNT_CURRENT,BMS_MODE_ID,BMS_ERROR_ID,AIR_P,AIR_N,t,LEFT_MOTOR_RPM,RIGHT_MOTOR_RPM
1765219080053,0.0,0.0,1.0,10.0,0.0,0.0,0.0,0.0,0.0,0.0,-0.022326,0.0034159999999999998,0.996252,-0.7000000000000001,0.6300000000000001,0.0,3.32,3.33,3.32,3.28,3.32,3.32,3.32,3.31,3.36,3.36,3.36,3.34,3.32,3.32,3.32,3.33,3.33,3.33,3.32,3.32,3.35,3.35,3.34,3.34,3.36,3.28,79.9,2.0,1.0,0.0,1.0,1.0,575027,0.0,0.0
1765219080071,0.0,0.0,1.0,10.0,0.0,0.0,0.0,0.0,0.0,0.0,-0.022326,0.0034159999999999998,0.996252,-0.7000000000000001,0.6300000000000001,0.0,3.32,3.33,3.32,3.28,3.32,3.32,3.32,3.31,3.36,3.36,3.36,3.34,3.32,3.32,3.32,3.33,3.33,3.33,3.32,3.32,3.35,3.35,3.34,3.34,3.35,3.29,79.9,-1.0,1.0,0.0,1.0,1.0,575045,0.0,0.0
1765219080106,0.0,0.0,1.0,10.0,0.0,0.0,0.0,0.0,0.0,0.0,-0.022326,0.0034159999999999998,0.996252,-0.7000000000000001,0.6300000000000001,0.0,3.32,3.33,3.32,3.28,3.32,3.32,3.32,3.31,3.36,3.36,3.36,3.34,3.32,3.32,3.32,3.33,3.33,3.33,3.32,3.32,3.35,3.35,3.34,3.34,3.35,3.29,79.9,-1.0,1.0,0.0,1.0,1.0,575080,0.0,0.0
1765219080139,0.0,0.0,1.0,10.0,0.0,0.0,0.0,0.0,0.0,0.0,-0.012565999999999999,0.0050019999999999995,0.9922259999999999,-0.7000000000000001,0.6300000000000001,0.0,3.32,3.33,3.32,3.28,3.32,3.32,3.32,3.31,3.36,3.36,3.36,3.34,3.32,3.32,3.32,3.33,3.33,3.33,3.32,3.32,3.35,3.35,3.34,3.34,3.35,3.29,79.9,-1.0,1.0,0.0,1.0,1.0,575113,0.0,0.0
1765219080172,0.0,0.0,1.0,10.0,0.0,0.0,0.0,0.0,0.0,0.0,-0.012565999999999999,0.0050019999999999995,0.9922259999999999,-0.7000000000000001,0.6300000000000001,0.0,3.32,3.33,3.32,3.28,3.32,3.32,3.32,3.31,3.36,3.36,3.36,3.34,3.32,3.32,3.32,3.33,3.33,3.33,3.32,3.32,3.35,3.35,3.34,3.34,3.35,3.29,79.9,-1.0,1.0,0.0,1.0,1.0,575146,0.0,0.0
1765219080189,0.0,0.0,2.0,25.0,0.0,0.0,0.0,0.0,0.0,0.0,-0.012565999999999999,0.0050019999999999995,0.9922259999999999,-0.7000000000000001,0.49000000000000005,0.0,3.32,3.33,3.32,3.28,3.32,3.32,3.32,3.31,3.36,3.36,3.36,3.34,3.32,3.32,3.32,3.33,3.33,3.33,3.32,3.32,3.35,3.35,3.34,3.34,3.35,3.29,79.9,-1.0,1.0,0.0,1.0,1.0,575163,0.0,0.0
1765219080206,0.0,0.0,2.0,25.0,0.0,0.0,0.0,0.0,0.0,0.0,-0.012565999999999999,0.0050019999999999995,0.9922259999999999,-0.7000000000000001,0.49000000000000005,0.0,3.32,3.33,3.32,3.28,3.32,3.32,3.32,3.31,3.36,3.36,3.36,3.34,3.32,3.32,3.32,3.33,3.33,3.33,3.32,3.32,3.35,3.35,3.34,3.34,3.35,3.29,79.9,-1.0,1.0,0.0,1.0,1.0,575180,0.0,0.0
1765219080222,0.0,0.0,2.0,25.0,0.0,0.0,0.0,0.0,0.0,0.0,-0.012565999999999999,0.0050019999999999995,0.9922259999999999,-0.7000000000000001,0.49000000000000005,0.0,3.32,3.33,3.32,3.28,3.32,3.32,3.32,3.31,3.36,3.36,3.36,3.34,3.32,3.32,3.32,3.33,3.33,3.33,3.32,3.32,3.35,3.35,3.34,3.34,3.35,3.29,79.9,-1.0,1.0,0.0,1.0,1.0,575196,0.0,0.0
1765219080255,0.0,0.0,2.0,25.0,0.0,0.0,0.0,0.0,0.0,0.0,-0.012565999999999999,0.0050019999999999995,0.9922259999999999,-0.7000000000000001,0.49000000000000005,0.0,3.32,3.33,3.32,3.28,3.32,3.32,3.32,3.31,3.36,3.36,3.36,3.34,3.32,3.32,3.32,3.33,3.33,3.33,3.32,3.32,3.35,3.35,3.34,3.34,3.35,3.29,79.9,-1.0,1.0,0.0,1.0,1.0,575229,0.0,0.0
1765219080305,0.0,0.0,2.0,25.0,0.0,0.0,0.0,0.0,0.0,0.0,-0.012565999999999999,0.0050019999999999995,0.9922259999999999,-0.7000000000000001,0.49000000000000005,0.0,3.32,3.33,3.32,3.28,3.32,3.32,3.32,3.31,3.36,3.36,3.36,3.34,3.32,3.32,3.32,3.33,3.33,3.33,3.32,3.32,3.35,3.35,3.34,3.34,3.35,3.29,79.9,-1.0,1.0,0.0,1.0,1.0,575279,0.0,0.0
1765219080321,0.0,0.0,2.0,25.0,0.0,0.0,0.0,0.0,0.0,0.0,-0.012565999999999999,0.0050019999999999995,0.9922259999999999,-0.7000000000000001,0.49000000000000005,0.0,3.32,3.33,3.32,3.28,3.32,3.32,3.32,3.31,3.36,3.36,3.36,3.34,3.32,3.32,3.32,3.33,3.33,3.33,3.32,3.32,3.35,3.35,3.34,3.34,3.35,3.29,79.9,-1.0,1.0,0.0,1.0,1.0,575295,0.0,0.0
1765219080338,0.0,0.0,2.0,25.0,0.0,0.0,0.0,0.0,0.0,0.0,-0.012565999999999999,0.0050019999999999995,0.9922259999999999,-0.7000000000000001,0.49000000000000005,0.0,3.32,3.33,3.32,3.28,3.32,3.32,3.32,3.31,3.36,3.36,3.36,3.34,3.32,3.32,3.32,3.33,3.33,3.33,3.32,3.32,3.35,3.35,3.34,3.34,3.35,3.29,79.9,-1.0,1.0,0.0,1.0,1.0,575312,0.0,0.0
1765219080371,0.0,0.0,2.0,25.0,0.0,0.0,0.0,0.0,0.0,0.0,-0.01098,0.00488,0.9943,-0.7000000000000001,0.49000000000000005,0.0,3.32,3.33,3.32,3.28,3.32,3.32,3.32,3.31,3.36,3.36,3.36,3.34,3.32,3.32,3.32,3.33,3.33,3.33,3.32,3.32,3.35,3.35,3.34,3.34,3.35,3.29,79.9,-1.0,1.0,0.0,1.0,1.0,575345,0.0,0.0
1765219080388,0.0,0.0,2.0,25.0,0.0,0.0,0.0,0.0,0.0,0.0,-0.01098,0.00488,0.9943,-0.7000000000000001,0.49000000000000005,0.0,3.32,3.33,3.32,3.28,3.32,3.32,3.32,3.31,3.36,3.36,3.36,3.34,3.32,3.32,3.32,3.33,3.33,3.33,3.32,3.32,3.35,3.35,3.34,3.34,3.35,3.29,79.9,-1.0,1.0,0.0,1.0,1.0,575362,0.0,0.0
1765219080423,0.0,0.0,2.0,25.0,0.0,0.0,0.0,0.0,0.0,0.0,-0.01098,0.00488,0.9943,-0.7000000000000001,0.42000000000000004,-0.07,3.32,3.33,3.32,3.28,3.32,3.32,3.32,3.31,3.36,3.36,3.36,3.34,3.32,3.32,3.32,3.33,3.33,3.33,3.32,3.32,3.35,3.35,3.34,3.34,3.35,3.29,79.9,-1.0,1.0,0.0,1.0,1.0,575397,0.0,0.0
1765219080440,0.0,0.0,2.0,25.0,0.0,0.0,0.0,0.0,0.0,0.0,-0.01098,0.00488,0.9943,-0.7000000000000001,0.42000000000000004,-0.07,3.32,3.33,3.32,3.28,3.32,3.32,3.32,3.31,3.36,3.36,3.36,3.34,3.32,3.32,3.32,3.33,3.33,3.33,3.32,3.32,3.35,3.35,3.34,3.34,3.35,3.29,79.9,-1.0,1.0,0.0,1.0,1.0,575414,0.0,0.0
1765219080537,0.0,0.0,2.0,25.0,0.0,0.0,0.0,0.0,0.0,0.0,-0.010248,0.005856,0.99369,-0.7000000000000001,0.42000000000000004,-0.07,3.32,3.33,3.32,3.28,3.32,3.32,3.32,3.31,3.36,3.36,3.36,3.34,3.32,3.32,3.32,3.33,3.33,3.33,3.32,3.32,3.35,3.35,3.34,3.34,3.35,3.29,79.9,-1.0,1.0,0.0,1.0,1.0,575511,0.0,0.0
1765219080554,0.0,0.0,2.0,25.0,0.0,0.0,0.0,0.0,0.0,0.0,-0.010248,0.005856,0.99369,-0.7000000000000001,0.56,-0.07,3.32,3.33,3.32,3.28,3.32,3.32,3.32,3.31,3.36,3.36,3.36,3.34,3.32,3.32,3.32,3.33,3.33,3.33,3.32,3.32,3.35,3.35,3.34,3.34,3.35,3.29,79.9,-1.0,1.0,0.0,1.0,1.0,575528,0.0,0.0
1765219080587,0.0,0.0,2.0,25.0,0.0,0.0,0.0,0.0,0.0,0.0,-0.010248,0.005856,0.99369,-0.7000000000000001,0.56,-0.07,3.32,3.33,3.32,3.28,3.32,3.32,3.32,3.31,3.36,3.36,3.36,3.34,3.32,3.32,3.32,3.33,3.33,3.33,3.32,3.32,3.35,3.35,3.34,3.34,3.35,3.29,79.9,-1.0,1.0,0.0,1.0,1.0,575561,0.0,0.0
1765219080605,0.0,0.0,2.0,25.0,0.0,0.0,0.0,0.0,0.0,0.0,-0.010248,0.005856,0.99369,-0.7000000000000001,0.56,-0.07,3.32,3.33,3.32,3.28,3.32,3.32,3.32,3.31,3.36,3.36,3.36,3.34,3.32,3.32,3.32,3.33,3.33,3.33,3.32,3.32,3.35,3.35,3.34,3.34,3.35,3.29,79.9,-1.0,1.0,0.0,1.0,1.0,575579,0.0,0.0
1765219080620,0.0,0.0,2.0,25.0,0.0,0.0,0.0,0.0,0.0,0.0,-0.010248,0.005856,0.99369,-0.7000000000000001,0.56,-0.07,3.32,3.33,3.32,3.28,3.32,3.32,3.32,3.31,3.36,3.36,3.36,3.34,3.32,3.32,3.32,3.33,3.33,3.33,3.32,3.32,3.35,3.35,3.34,3.34,3.35,3.29,79.9,-1.0,1.0,0.0,1.0,1.0,575594,0.0,0.0
1765219080637,0.0,0.0,2.0,25.0,0.0,0.0,0.0,0.0,0.0,0.0,-0.010248,0.005856,0.99369,-0.7000000000000001,0.56,-0.07,3.32,3.33,3.32,3.28,3.32,3.32,3.32,3.31,3.36,3.36,3.36,3.34,3.32,3.32,3.32,3.33,3.33,3.33,3.32,3.32,3.35,3.35,3.34,3.34,3.35,3.29,79.9,-1.0,1.0,0.0,1.0,1.0,575611,0.0,0.0
1765219080653,0.0,0.0,2.0,25.0,0.0,0.0,0.0,0.0,0.0,0.0,-0.010248,0.005856,0.99369,-0.7000000000000001,0.56,-0.07,3.32,3.33,3.32,3.28,3.32,3.32,3.32,3.31,3.36,3.36,3.36,3.34,3.32,3.32,3.32,3.33,3.33,3.33,3.32,3.32,3.35,3.35,3.34,3.34,3.35,3.29,79.9,-1.0,1.0,0.0,1.0,1.0,575627,0.0,0.0
1765219080704,0.0,0.0,2.0,25.0,0.0,0.0,0.0,0.0,0.0,0.0,-0.012199999999999999,0.0057339999999999995,0.993568,-0.7000000000000001,0.56,-0.07,3.32,3.33,3.32,3.28,3.32,3.32,3.32,3.31,3.36,3.36,3.36,3.34,3.32,3.32,3.32,3.33,3.33,3.33,3.32,3.32,3.35,3.35,3.34,3.34,3.35,3.29,79.9,-1.0,1.0,0.0,1.0,1.0,575678,0.0,0.0
1765219080720,0.0,0.0,2.0,25.0,0.0,0.0,0.0,0.0,0.0,0.0,-0.012199999999999999,0.0057339999999999995,0.993568,-0.7000000000000001,0.56,-0.07,3.32,3.33,3.32,3.28,3.32,3.32,3.32,3.31,3.36,3.36,3.36,3.34,3.32,3.32,3.32,3.33,3.33,3.33,3.32,3.32,3.35,3.35,3.34,3.34,3.35,3.29,79.9,-1.0,1.0,0.0,1.0,1.0,575694,0.0,0.0
1765219080772,0.0,0.0,2.0,25.0,0.0,0.0,0.0,0.0,0.0,0.0,-0.012199999999999999,0.0057339999999999995,0.993568,-0.7000000000000001,0.42000000000000004,0.0,3.32,3.33,3.32,3.28,3.32,3.32,3.32,3.31,3.36,3.36,3.36,3.34,3.32,3.32,3.32,3.33,3.33,3.33,3.32,3.32,3.35,3.35,3.34,3.34,3.35,3.29,79.9,-1.0,1.0,0.0,1.0,1.0,575746,0.0,0.0
1765219080822,0.0,0.0,2.0,25.0,0.0,0.0,0.0,0.0,0.0,0.0,-0.012199999999999999,0.0057339999999999995,0.993568,-0.7000000000000001,0.42000000000000004,0.0,3.33,3.33,3.33,3.29,3.32,3.32,3.32,3.31,3.36,3.36,3.36,3.34,3.32,3.32,3.32,3.33,3.33,3.33,3.32,3.32,3.35,3.35,3.34,3.34,3.35,3.29,79.9,-1.0,1.0,0.0,1.0,1.0,575796,0.0,0.0
1765219080838,0.0,0.0,2.0,25.0,0.0,0.0,0.0,0.0,0.0,0.0,-0.012199999999999999,0.0057339999999999995,0.993568,-0.7000000000000001,0.42000000000000004,0.0,3.33,3.33,3.33,3.29,3.33,3.33,3.33,3.32,3.34,3.35,3.35,3.33,3.32,3.32,3.32,3.33,3.33,3.33,3.32,3.32,3.35,3.35,3.34,3.34,3.35,3.29,79.9,-1.0,1.0,0.0,1.0,1.0,575812,0.0,0.0
1765219080856,0.0,0.0,2.0,25.0,0.0,0.0,0.0,0.0,0.0,0.0,-0.012199999999999999,0.0057339999999999995,0.993568,-0.7000000000000001,0.42000000000000004,0.0,3.33,3.33,3.33,3.29,3.33,3.33,3.33,3.32,3.34,3.35,3.35,3.33,3.33,3.33,3.33,3.33,3.33,3.33,3.32,3.32,3.35,3.35,3.34,3.34,3.35,3.29,79.9,-1.0,1.0,0.0,1.0,1.0,575830,0.0,0.0
1765219080905,0.0,0.0,2.0,25.0,0.0,0.0,0.0,0.0,0.0,0.0,-0.011101999999999999,0.004392,0.995032,-0.7000000000000001,0.42000000000000004,0.0,3.33,3.33,3.33,3.29,3.33,3.33,3.33,3.32,3.34,3.35,3.35,3.33,3.33,3.33,3.33,3.33,3.33,3.33,3.32,3.32,3.35,3.35,3.34,3.34,3.35,3.29,79.9,-1.0,1.0,0.0,1.0,1.0,575879,0.0,0.0
1765219080938,0.0,0.0,2.0,25.0,0.0,0.0,0.0,0.0,0.0,0.0,-0.011101999999999999,0.004392,0.995032,-0.6300000000000001,0.49000000000000005,-0.07,3.33,3.33,3.33,3.29,3.33,3.33,3.33,3.32,3.34,3.35,3.35,3.33,3.33,3.33,3.33,3.33,3.33,3.33,3.32,3.32,3.35,3.35,3.34,3.34,3.35,3.29,79.9,-1.0,1.0,0.0,1.0,1.0,575912,0.0,0.0
1765219080956,0.0,0.0,2.0,25.0,0.0,0.0,0.0,0.0,0.0,0.0,-0.011101999999999999,0.004392,0.995032,-0.6300000000000001,0.49000000000000005,-0.07,3.33,3.33,3.33,3.3,3.33,3.33,3.33,3.32,3.34,3.35,3.35,3.33,3.33,3.33,3.33,3.33,3.33,3.33,3.32,3.32,3.35,3.35,3.34,3.34,3.35,3.29,79.9,-1.0,1.0,0.0,1.0,1.0,575930,0.0,0.0
1765219080988,0.0,0.0,2.0,25.0,0.0,0.0,0.0,0.0,0.0,0.0,-0.011101999999999999,0.004392,0.995032,-0.6300000000000001,0.49000000000000005,-0.07,3.33,3.33,3.33,3.3,3.33,3.33,3.33,3.32,3.34,3.35,3.35,3.33,3.33,3.33,3.33,3.33,3.33,3.33,3.32,3.32,3.35,3.35,3.34,3.34,3.35,3.29,79.9,-1.0,1.0,0.0,1.0,1.0,575962,0.0,0.0
1765219081005,0.0,0.0,2.0,25.0,0.0,0.0,0.0,0.0,0.0,0.0,-0.011101999999999999,0.004392,0.995032,-0.6300000000000001,0.49000000000000005,-0.07,3.33,3.33,3.33,3.3,3.33,3.33,3.33,3.32,3.34,3.35,3.35,3.33,3.33,3.33,3.33,3.33,3.33,3.33,3.33,3.33,3.35,3.35,3.34,3.34,3.35,3.29,79.9,-1.0,1.0,0.0,1.0,1.0,575979,0.0,0.0
1765219081022,0.0,0.0,2.0,25.0,0.0,0.0,0.0,0.0,0.0,0.0,-0.011101999999999999,0.004392,0.995032,-0.6300000000000001,0.49000000000000005,-0.07,3.33,3.33,3.33,3.3,3.33,3.33,3.33,3.32,3.34,3.35,3.35,3.33,3.33,3.33,3.33,3.33,3.33,3.33,3.33,3.33,3.34,3.34,3.34,3.34,3.35,3.29,79.9,-1.0,1.0,0.0,1.0,1.0,575996,0.0,0.0
1765219081039,0.0,0.0,2.0,25.0,0.0,0.0,0.0,0.0,0.0,0.0,-0.011101999999999999,0.004392,0.995032,-0.6300000000000001,0.49000000000000005,-0.07,3.33,3.33,3.33,3.3,3.33,3.33,3.33,3.32,3.34,3.35,3.35,3.33,3.33,3.33,3.33,3.33,3.33,3.33,3.33,3.33,3.34,3.34,3.34,3.34,3.35,3.29,79.9,-1.0,1.0,0.0,1.0,1.0,576013,0.0,0.0
1765219081055,0.0,0.0,2.0,25.0,0.0,0.0,0.0,0.0,0.0,0.0,-0.011101999999999999,0.004392,0.995032,-0.6300000000000001,0.49000000000000005,-0.07,3.33,3.33,3.33,3.3,3.33,3.33,3.33,3.32,3.34,3.35,3.35,3.33,3.33,3.33,3.33,3.33,3.33,3.33,3.33,3.33,3.34,3.34,3.34,3.34,3.35,3.29,79.9,-1.0,1.0,0.0,1.0,1.0,576029,0.0,0.0
1765219081072,0.0,0.0,2.0,25.0,0.0,0.0,0.0,0.0,0.0,0.0,-0.011101999999999999,0.004392,0.995032,-0.6300000000000001,0.49000000000000005,-0.07,3.33,3.33,3.33,3.3,3.33,3.33,3.33,3.32,3.34,3.35,3.35,3.33,3.33,3.33,3.33,3.33,3.33,3.33,3.33,3.33,3.34,3.34,3.34,3.34,3.35,3.29,79.9,-1.0,1.0,0.0,1.0,1.0,576046,0.0,0.0
1765219081089,0.0,0.0,2.0,25.0,0.0,0.0,0.0,0.0,0.0,0.0,-0.011101999999999999,0.004392,0.995032,-0.6300000000000001,0.49000000000000005,-0.07,3.33,3.33,3.33,3.3,3.33,3.33,3.33,3.32,3.34,3.35,3.35,3.33,3.33,3.33,3.33,3.33,3.33,3.33,3.33,3.33,3.34,3.34,3.34,3.34,3.35,3.29,79.9,-1.0,1.0,0.0,1.0,1.0,576063,0.0,0.0
1765219081122,0.0,0.0,2.0,25.0,0.0,0.0,0.0,0.0,0.0,0.0,-0.011101999999999999,0.004392,0.995032,-0.6300000000000001,0.49000000000000005,-0.07,3.33,3.33,3.33,3.3,3.33,3.33,3.33,3.32,3.34,3.35,3.35,3.33,3.33,3.33,3.33,3.33,3.33,3.33,3.33,3.33,3.34,3.34,3.34,3.34,3.35,3.29,79.9,-1.0,1.0,0.0,1.0,1.0,576096,0.0,0.0
1765219081155,0.0,0.0,2.0,25.0,0.0,0.0,0.0,0.0,0.0,0.0,-0.011101999999999999,0.004392,0.995032,-0.6300000000000001,0.49000000000000005,-0.07,3.33,3.33,3.33,3.3,3.33,3.33,3.33,3.32,3.34,3.35,3.35,3.33,3.33,3.33,3.33,3.33,3.33,3.33,3.33,3.33,3.34,3.34,3.34,3.34,3.35,3.29,79.9,-1.0,1.0,0.0,1.0,1.0,576129,0.0,0.0
1765219081172,0.0,0.0,2.0,25.0,0.0,0.0,0.0,0.0,0.0,0.0,-0.009637999999999999,0.005856,0.9928359999999999,-0.6300000000000001,0.49000000000000005,-0.07,3.33,3.33,3.33,3.3,3.33,3.33,3.33,3.32,3.34,3.35,3.35,3.33,3.33,3.33,3.33,3.33,3.33,3.33,3.33,3.33,3.34,3.34,3.34,3.34,3.35,3.29,79.9,-1.0,1.0,0.0,1.0,1.0,576146,0.0,0.0
1765219081239,0.0,0.0,2.0,25.0,0.0,0.0,0.0,0.0,0.0,0.0,-0.009637999999999999,0.005856,0.9928359999999999,-0.77,0.49000000000000005,0.0,3.33,3.33,3.33,3.3,3.33,3.33,3.33,3.32,3.34,3.35,3.35,3.33,3.33,3.33,3.33,3.33,3.33,3.33,3.33,3.33,3.34,3.34,3.34,3.34,3.35,3.29,79.9,-1.0,1.0,0.0,1.0,1.0,576213,0.0,0.0
1765219081288,0.0,0.0,2.0,25.0,0.0,0.0,0.0,0.0,0.0,0.0,-0.012444,0.0046359999999999995,0.992714,-0.77,0.49000000000000005,0.0,3.33,3.33,3.33,3.3,3.33,3.33,3.33,3.32,3.34,3.35,3.35,3.33,3.33,3.33,3.33,3.33,3.33,3.33,3.33,3.33,3.34,3.34,3.34,3.34,3.35,3.29,79.9,-1.0,1.0,0.0,1.0,1.0,576262,0.0,0.0
1765219081306,0.0,0.0,2.0,25.0,0.0,0.0,0.0,0.0,0.0,0.0,-0.012444,0.0046359999999999995,0.992714,-0.6300000000000001,0.49000000000000005,0.0,3.33,3.33,3.33,3.3,3.33,3.33,3.33,3.32,3.34,3.35,3.35,3.33,3.33,3.33,3.33,3.33,3.33,3.33,3.33,3.33,3.34,3.34,3.34,3.34,3.35,3.29,79.9,-1.0,1.0,0.0,1.0,1.0,576280,0.0,0.0
1765219081322,0.0,0.0,2.0,25.0,0.0,0.0,0.0,0.0,0.0,0.0,-0.012444,0.0046359999999999995,0.992714,-0.6300000000000001,0.49000000000000005,0.0,3.33,3.33,3.33,3.3,3.33,3.33,3.33,3.32,3.34,3.35,3.35,3.33,3.33,3.33,3.33,3.33,3.33,3.33,3.33,3.33,3.34,3.34,3.34,3.34,3.35,3.29,79.9,-1.0,1.0,0.0,1.0,1.0,576296,0.0,0.0
1765219081337,0.0,0.0,2.0,25.0,0.0,0.0,0.0,0.0,0.0,0.0,-0.012444,0.0046359999999999995,0.992714,-0.6300000000000001,0.49000000000000005,0.0,3.33,3.33,3.33,3.3,3.33,3.33,3.33,3.32,3.34,3.35,3.35,3.33,3.33,3.33,3.33,3.33,3.33,3.33,3.33,3.33,3.34,3.34,3.34,3.34,3.35,3.29,79.9,-1.0,1.0,0.0,1.0,1.0,576311,0.0,0.0
1765219081372,0.0,0.0,2.0,25.0,0.0,0.0,0.0,0.0,0.0,0.0,-0.012444,0.0046359999999999995,0.992714,-0.6300000000000001,0.49000000000000005,0.0,3.33,3.33,3.33,3.3,3.33,3.33,3.33,3.32,3.34,3.35,3.35,3.33,3.33,3.33,3.33,3.33,3.33,3.33,3.33,3.33,3.34,3.34,3.34,3.34,3.35,3.29,79.9,-1.0,1.0,0.0,1.0,1.0,576346,0.0,0.0
1765219081406,0.0,0.0,2.0,25.0,0.0,0.0,0.0,0.0,0.0,0.0,-0.012444,0.0046359999999999995,0.992714,-0.6300000000000001,0.49000000000000005,0.0,3.33,3.33,3.33,3.3,3.33,3.33,3.33,3.32,3.34,3.35,3.35,3.33,3.33,3.33,3.33,3.33,3.33,3.33,3.33,3.33,3.34,3.34,3.34,3.34,3.35,3.29,79.9,-1.0,1.0,0.0,1.0,1.0,576380,0.0,0.0
1765219081455,0.0,0.0,2.0,25.0,0.0,0.0,0.0,0.0,0.0,0.0,-0.012444,0.0046359999999999995,0.992714,-0.6300000000000001,0.49000000000000005,0.0,3.33,3.33,3.33,3.3,3.33,3.33,3.33,3.32,3.34,3.35,3.35,3.33,3.33,3.33,3.33,3.33,3.33,3.33,3.33,3.33,3.34,3.34,3.34,3.34,3.35,3.29,79.9,-1.0,1.0,0.0,1.0,1.0,576429,0.0,0.0
1765219081505,0.0,0.0,2.0,25.0,0.0,0.0,0.0,0.0,0.0,0.0,-0.012444,0.0046359999999999995,0.992714,-0.6300000000000001,0.49000000000000005,0.0,3.33,3.33,3.33,3.3,3.33,3.33,3.33,3.32,3.34,3.35,3.35,3.33,3.33,3.33,3.33,3.33,3.33,3.33,3.33,3.33,3.34,3.34,3.34,3.34,3.35,3.29,79.9,-1.0,1.0,0.0,1.0,1.0,576479,0.0,0.0
1765219081571,0.0,0.0,2.0,25.0,0.0,0.0,0.0,0.0,0.0,0.0,-0.012444,0.0046359999999999995,0.992714,-0.6300000000000001,0.49000000000000005,0.0,3.33,3.33,3.33,3.3,3.33,3.33,3.33,3.32,3.34,3.35,3.35,3.33,3.33,3.33,3.33,3.33,3.33,3.33,3.33,3.33,3.34,3.34,3.34,3.34,3.35,3.29,79.9,-1.0,1.0,0.0,1.0,1.0,576545,0.0,0.0
1765219081637,0.0,0.0,2.0,25.0,0.0,0.0,0.0,0.0,0.0,0.0,-0.012931999999999999,0.0053679999999999995,0.9928359999999999,-0.6300000000000001,0.49000000000000005,0.0,3.33,3.33,3.33,3.3,3.33,3.33,3.33,3.32,3.34,3.35,3.35,3.33,3.33,3.33,3.33,3.33,3.33,3.33,3.33,3.33,3.34,3.34,3.34,3.34,3.35,3.29,79.9,-1.0,1.0,0.0,1.0,1.0,576611,0.0,0.0
1765219081656,0.0,0.0,2.0,25.0,0.0,0.0,0.0,0.0,0.0,0.0,-0.012931999999999999,0.0053679999999999995,0.9928359999999999,-0.6300000000000001,0.42000000000000004,-0.07,3.33,3.33,3.33,3.3,3.33,3.33,3.33,3.32,3.34,3.35,3.35,3.33,3.33,3.33,3.33,3.33,3.33,3.33,3.33,3.33,3.34,3.34,3.34,3.34,3.35,3.29,79.9,-1.0,1.0,0.0,1.0,1.0,576630,0.0,0.0
1765219081704,0.0,0.0,2.0,25.0,0.0,0.0,0.0,0.0,0.0,0.0,-0.012931999999999999,0.0053679999999999995,0.9928359999999999,-0.6300000000000001,0.42000000000000004,-0.07,3.33,3.33,3.33,3.3,3.33,3.33,3.33,3.32,3.34,3.35,3.35,3.33,3.33,3.33,3.33,3.33,3.33,3.33,3.33,3.33,3.34,3.34,3.34,3.34,3.35,3.29,79.9,-1.0,1.0,0.0,1.0,1.0,576678,0.0,0.0
1765219081754,0.0,0.0,2.0,25.0,0.0,0.0,0.0,0.0,0.0,0.0,-0.012931999999999999,0.0053679999999999995,0.9928359999999999,-0.6300000000000001,0.42000000000000004,-0.07,3.33,3.33,3.33,3.3,3.33,3.33,3.33,3.32,3.34,3.35,3.35,3.33,3.33,3.33,3.33,3.33,3.33,3.33,3.33,3.33,3.34,3.34,3.34,3.34,3.35,3.29,79.9,-1.0,1.0,0.0,1.0,1.0,576728,0.0,0.0
1765219081805,0.0,0.0,2.0,25.0,0.0,0.0,0.0,0.0,0.0,0.0,-0.012931999999999999,0.0053679999999999995,0.9928359999999999,-0.6300000000000001,0.42000000000000004,-0.07,3.33,3.33,3.33,3.3,3.33,3.33,3.33,3.32,3.34,3.35,3.35,3.33,3.33,3.33,3.33,3.33,3.33,3.33,3.33,3.33,3.34,3.34,3.34,3.34,3.35,3.29,79.9,-1.0,1.0,0.0,1.0,1.0,576779,0.0,0.0
1765219081822,0.0,0.0,2.0,25.0,0.0,0.0,0.0,0.0,0.0,0.0,-0.012931999999999999,0.0053679999999999995,0.9928359999999999,-0.6300000000000001,0.42000000000000004,-0.07,3.33,3.33,3.33,3.3,3.33,3.33,3.33,3.32,3.34,3.35,3.35,3.33,3.33,3.33,3.33,3.33,3.33,3.33,3.33,3.33,3.34,3.34,3.34,3.34,3.35,3.29,79.9,-1.0,1.0,0.0,1.0,1.0,576796,0.0,0.0
1765219081855,0.0,0.0,2.0,25.0,0.0,0.0,0.0,0.0,0.0,0.0,-0.012931999999999999,0.0053679999999999995,0.9928359999999999,-0.7000000000000001,0.35000000000000003,-0.07,3.33,3.33,3.33,3.3,3.33,3.33,3.33,3.32,3.34,3.35,3.35,3.33,3.33,3.33,3.33,3.33,3.33,3.33,3.33,3.33,3.34,3.34,3.34,3.34,3.35,3.29,79.9,-1.0,1.0,0.0,1.0,1.0,576829,0.0,0.0
1765219081873,0.0,0.0,2.0,25.0,0.0,0.0,0.0,0.0,0.0,0.0,-0.012931999999999999,0.0053679999999999995,0.9928359999999999,-0.7000000000000001,0.35000000000000003,-0.07,3.33,3.33,3.33,3.3,3.33,3.33,3.33,3.32,3.34,3.35,3.35,3.33,3.33,3.33,3.33,3.33,3.33,3.33,3.33,3.33,3.34,3.34,3.34,3.34,3.35,3.29,79.9,-1.0,1.0,0.0,1.0,1.0,576847,0.0,0.0
1765219081972,0.0,0.0,2.0,25.0,0.0,0.0,0.0,0.0,0.0,0.0,-0.012444,0.0034159999999999998,0.9946659999999999,-0.7000000000000001,0.35000000000000003,-0.07,3.33,3.33,3.33,3.3,3.33,3.33,3.33,3.32,3.34,3.35,3.35,3.33,3.33,3.33,3.33,3.33,3.33,3.33,3.33,3.33,3.34,3.34,3.34,3.34,3.35,3.29,79.9,-1.0,1.0,0.0,1.0,1.0,576946,0.0,0.0
1765219081989,0.0,0.0,2.0,25.0,0.0,0.0,0.0,0.0,0.0,0.0,-0.012444,0.0034159999999999998,0.9946659999999999,-0.77,0.49000000000000005,-0.07,3.33,3.33,3.33,3.3,3.33,3.33,3.33,3.32,3.34,3.35,3.35,3.33,3.33,3.33,3.33,3.33,3.33,3.33,3.33,3.33,3.34,3.34,3.34,3.34,3.35,3.29,79.9,-1.0,1.0,0.0,1.0,1.0,576963,0.0,0.0
1765219082038,0.0,0.0,2.0,25.0,0.0,0.0,0.0,0.0,0.0,0.0,-0.012444,0.0034159999999999998,0.9946659999999999,-0.77,0.49000000000000005,-0.07,3.33,3.33,3.33,3.3,3.33,3.33,3.33,3.32,3.34,3.35,3.35,3.33,3.33,3.33,3.33,3.33,3.33,3.33,3.33,3.33,3.34,3.34,3.34,3.34,3.35,3.29,79.9,-1.0,1.0,0.0,1.0,1.0,577012,0.0,0.0
1765219082054,0.0,0.0,2.0,25.0,0.0,0.0,0.0,0.0,0.0,0.0,-0.012444,0.0034159999999999998,0.9946659999999999,-0.77,0.49000000000000005,-0.07,3.33,3.33,3.33,3.3,3.33,3.33,3.33,3.32,3.34,3.35,3.35,3.33,3.33,3.33,3.33,3.33,3.33,3.33,3.33,3.33,3.34,3.34,3.34,3.34,3.35,3.29,79.9,-1.0,1.0,0.0,1.0,1.0,577028,0.0,0.0
1765219082072,0.0,0.0,2.0,25.0,0.0,0.0,0.0,0.0,0.0,0.0,-0.012444,0.0034159999999999998,0.9946659999999999,-0.77,0.49000000000000005,-0.07,3.33,3.33,3.33,3.3,3.33,3.33,3.33,3.32,3.34,3.35,3.35,3.33,3.33,3.33,3.33,3.33,3.33,3.33,3.33,3.33,3.34,3.34,3.34,3.34,3.35,3.29,79.9,-1.0,1.0,0.0,1.0,1.0,577046,0.0,0.0
1765219082104,0.0,0.0,2.0,25.0,0.0,0.0,0.0,0.0,0.0,0.0,-0.012444,0.0034159999999999998,0.9946659999999999,-0.77,0.49000000000000005,-0.07,3.33,3.33,3.33,3.3,3.33,3.33,3.33,3.32,3.34,3.35,3.35,3.33,3.33,3.33,3.33,3.33,3.33,3.33,3.33,3.33,3.34,3.34,3.34,3.34,3.35,3.29,79.9,-1.0,1.0,0.0,1.0,1.0,577078,0.0,0.0
1765219082138,0.0,0.0,2.0,25.0,0.0,0.0,0.0,0.0,0.0,0.0,-0.011101999999999999,0.0053679999999999995,0.995764,-0.77,0.49000000000000005,-0.07,3.33,3.33,3.33,3.3,3.33,3.33,3.33,3.32,3.34,3.35,3.35,3.33,3.33,3.33,3.33,3.33,3.33,3.33,3.33,3.33,3.34,3.34,3.34,3.34,3.35,3.29,79.9,-1.0,1.0,0.0,1.0,1.0,577112,0.0,0.0
1765219082153,0.0,0.0,2.0,25.0,0.0,0.0,0.0,0.0,0.0,0.0,-0.011101999999999999,0.0053679999999999995,0.995764,-0.77,0.49000000000000005,-0.07,3.33,3.33,3.33,3.3,3.33,3.33,3.33,3.32,3.34,3.35,3.35,3.33,3.33,3.33,3.33,3.33,3.33,3.33,3.33,3.33,3.34,3.34,3.34,3.34,3.35,3.29,79.9,-1.0,1.0,0.0,1.0,1.0,577127,0.0,0.0
1765219082171,0.0,0.0,2.0,25.0,0.0,0.0,0.0,0.0,0.0,0.0,-0.011101999999999999,0.0053679999999999995,0.995764,-0.77,0.49000000000000005,-0.07,3.33,3.33,3.33,3.3,3.33,3.33,3.33,3.32,3.34,3.35,3.35,3.33,3.33,3.33,3.33,3.33,3.33,3.33,3.33,3.33,3.34,3.34,3.34,3.34,3.35,3.29,79.9,-1.0,1.0,0.0,1.0,1.0,577145,0.0,0.0
1765219082186,0.0,0.0,2.0,25.0,0.0,0.0,0.0,0.0,0.0,0.0,-0.011101999999999999,0.0053679999999999995,0.995764,-0.77,0.49000000000000005,-0.07,3.33,3.33,3.33,3.3,3.33,3.33,3.33,3.32,3.34,3.35,3.35,3.33,3.33,3.33,3.33,3.33,3.33,3.33,3.33,3.33,3.34,3.34,3.34,3.34,3.35,3.29,79.9,-1.0,1.0,0.0,1.0,1.0,577160,0.0,0.0
1765219082205,0.0,0.0,2.0,25.0,0.0,0.0,0.0,0.0,0.0,0.0,-0.011101999999999999,0.0053679999999999995,0.995764,-0.77,0.49000000000000005,-0.07,3.33,3.33,3.33,3.3,3.33,3.33,3.33,3.32,3.34,3.35,3.35,3.33,3.33,3.33,3.33,3.33,3.33,3.33,3.33,3.33,3.34,3.34,3.34,3.34,3.35,3.29,79.9,-1.0,1.0,0.0,1.0,1.0,577179,0.0,0.0
1765219082223,0.0,0.0,2.0,25.0,0.0,0.0,0.0,0.0,0.0,0.0,-0.011101999999999999,0.0053679999999999995,0.995764,-0.77,0.49000000000000005,-0.07,3.33,3.33,3.33,3.3,3.33,3.33,3.33,3.32,3.34,3.35,3.35,3.33,3.33,3.33,3.33,3.33,3.33,3.33,3.33,3.33,3.34,3.34,3.34,3.34,3.35,3.29,79.9,-1.0,1.0,0.0,1.0,1.0,577197,0.0,0.0
1765219082272,0.0,0.0,2.0,25.0,0.0,0.0,0.0,0.0,0.0,0.0,-0.011101999999999999,0.0053679999999999995,0.995764,-0.77,0.49000000000000005,-0.07,3.33,3.33,3.33,3.3,3.33,3.33,3.33,3.32,3.34,3.35,3.35,3.33,3.33,3.33,3.33,3.33,3.33,3.33,3.33,3.33,3.34,3.34,3.34,3.34,3.35,3.29,79.9,-1.0,1.0,0.0,1.0,1.0,577246,0.0,0.0
1765219082305,0.0,0.0,2.0,25.0,0.0,0.0,0.0,0.0,0.0,0.0,-0.009637999999999999,0.0046359999999999995,0.99186,-0.77,0.49000000000000005,-0.07,3.33,3.33,3.33,3.3,3.33,3.33,3.33,3.32,3.34,3.35,3.35,3.33,3.33,3.33,3.33,3.33,3.33,3.33,3.33,3.33,3.34,3.34,3.34,3.34,3.35,3.29,79.9,-1.0,1.0,0.0,1.0,1.0,577279,0.0,0.0
1765219082353,0.0,0.0,2.0,25.0,0.0,0.0,0.0,0.0,0.0,0.0,-0.009637999999999999,0.0046359999999999995,0.99186,-0.6300000000000001,0.49000000000000005,-0.07,3.33,3.33,3.33,3.3,3.33,3.33,3.33,3.32,3.34,3.35,3.35,3.33,3.33,3.33,3.33,3.33,3.33,3.33,3.33,3.33,3.34,3.34,3.34,3.34,3.35,3.29,79.9,-1.0,1.0,0.0,1.0,1.0,577327,0.0,0.0
1765219082388,0.0,0.0,2.0,25.0,0.0,0.0,0.0,0.0,0.0,0.0,-0.010735999999999999,0.004148,0.993812,-0.6300000000000001,0.49000000000000005,-0.07,3.33,3.33,3.33,3.3,3.33,3.33,3.33,3.32,3.34,3.35,3.35,3.33,3.33,3.33,3.33,3.33,3.33,3.33,3.33,3.33,3.34,3.34,3.34,3.34,3.35,3.29,79.9,-1.0,1.0,0.0,1.0,1.0,577362,0.0,0.0
1765219082421,0.0,0.0,2.0,25.0,0.0,0.0,0.0,0.0,0.0,0.0,-0.010735999999999999,0.004148,0.993812,-0.6300000000000001,0.49000000000000005,-0.07,3.33,3.33,3.33,3.3,3.33,3.33,3.33,3.32,3.34,3.35,3.35,3.33,3.33,3.33,3.33,3.33,3.33,3.33,3.33,3.33,3.34,3.34,3.34,3.34,3.35,3.29,79.9,-1.0,1.0,0.0,1.0,1.0,577395,0.0,0.0
1765219082439,0.0,0.0,2.0,25.0,0.0,0.0,0.0,0.0,0.0,0.0,-0.010735999999999999,0.004148,0.993812,-0.6300000000000001,0.42000000000000004,-0.07,3.33,3.33,3.33,3.3,3.33,3.33,3.33,3.32,3.34,3.35,3.35,3.33,3.33,3.33,3.33,3.33,3.33,3.33,3.33,3.33,3.34,3.34,3.34,3.34,3.35,3.29,79.9,-1.0,1.0,0.0,1.0,1.0,577413,0.0,0.0
1765219082455,0.0,0.0,2.0,25.0,0.0,0.0,0.0,0.0,0.0,0.0,-0.010735999999999999,0.004148,0.993812,-0.6300000000000001,0.42000000000000004,-0.07,3.33,3.33,3.33,3.3,3.33,3.33,3.33,3.32,3.34,3.35,3.35,3.33,3.33,3.33,3.33,3.33,3.33,3.33,3.33,3.33,3.34,3.34,3.34,3.34,3.35,3.29,79.9,-1.0,1.0,0.0,1.0,1.0,577429,0.0,0.0
1765219082487,0.0,0.0,2.0,25.0,0.0,0.0,0.0,0.0,0.0,0.0,-0.010735999999999999,0.004148,0.993812,-0.6300000000000001,0.42000000000000004,-0.07,3.33,3.33,3.33,3.3,3.33,3.33,3.33,3.32,3.34,3.35,3.35,3.33,3.33,3.33,3.33,3.33,3.33,3.33,3.33,3.33,3.34,3.34,3.34,3.34,3.35,3.29,79.9,-1.0,1.0,0.0,1.0,1.0,577461,0.0,0.0
1765219082522,0.0,0.0,2.0,25.0,0.0,0.0,0.0,0.0,0.0,0.0,-0.010735999999999999,0.004148,0.993812,-0.6300000000000001,0.42000000000000004,-0.07,3.33,3.33,3.33,3.29,3.33,3.33,3.33,3.32,3.34,3.35,3.35,3.33,3.33,3.33,3.33,3.33,3.33,3.33,3.33,3.33,3.34,3.34,3.34,3.34,3.35,3.29,79.9,-1.0,1.0,0.0,1.0,1.0,577496,0.0,0.0
1765219082555,0.0,0.0,2.0,25.0,0.0,0.0,0.0,0.0,0.0,0.0,-0.010735999999999999,0.004148,0.993812,-0.6300000000000001,0.42000000000000004,-0.07,3.33,3.33,3.33,3.29,3.33,3.33,3.33,3.32,3.34,3.35,3.35,3.33,3.33,3.33,3.33,3.33,3.33,3.33,3.33,3.33,3.34,3.34,3.34,3.34,3.35,3.29,79.9,-1.0,1.0,0.0,1.0,1.0,577529,0.0,0.0
1765219082587,0.0,0.0,2.0,25.0,0.0,0.0,0.0,0.0,0.0,0.0,-0.010735999999999999,0.004148,0.993812,-0.6300000000000001,0.42000000000000004,-0.07,3.33,3.33,3.33,3.29,3.33,3.33,3.33,3.32,3.34,3.35,3.35,3.33,3.33,3.33,3.33,3.33,3.33,3.33,3.33,3.33,3.34,3.34,3.34,3.34,3.35,3.29,79.9,-1.0,1.0,0.0,1.0,1.0,577561,0.0,0.0
1765219082605,0.0,0.0,2.0,25.0,0.0,0.0,0.0,0.0,0.0,0.0,-0.010735999999999999,0.004148,0.993812,-0.6300000000000001,0.42000000000000004,-0.07,3.33,3.33,3.33,3.29,3.33,3.33,3.33,3.32,3.34,3.35,3.35,3.33,3.33,3.33,3.33,3.33,3.33,3.33,3.33,3.33,3.34,3.34,3.34,3.34,3.35,3.29,79.9,-1.0,1.0,0.0,1.0,1.0,577579,0.0,0.0
1765219082621,0.0,0.0,2.0,25.0,0.0,0.0,0.0,0.0,0.0,0.0,-0.010735999999999999,0.004148,0.993812,-0.6300000000000001,0.42000000000000004,-0.07,3.33,3.33,3.33,3.29,3.33,3.33,3.33,3.32,3.34,3.35,3.35,3.33,3.33,3.33,3.33,3.33,3.33,3.33,3.33,3.33,3.34,3.34,3.34,3.34,3.35,3.29,79.9,-1.0,1.0,0.0,1.0,1.0,577595,0.0,0.0
1765219082637,0.0,0.0,2.0,25.0,0.0,0.0,0.0,0.0,0.0,0.0,-0.010735999999999999,0.004148,0.993812,-0.6300000000000001,0.42000000000000004,-0.07,3.33,3.33,3.33,3.29,3.33,3.33,3.33,3.32,3.34,3.35,3.35,3.33,3.33,3.33,3.33,3.33,3.33,3.33,3.33,3.33,3.34,3.34,3.34,3.34,3.35,3.29,79.9,-1.0,1.0,0.0,1.0,1.0,577611,0.0,0.0
1765219082654,0.0,0.0,2.0,25.0,0.0,0.0,0.0,0.0,0.0,0.0,-0.010735999999999999,0.004148,0.993812,-0.6300000000000001,0.42000000000000004,-0.07,3.33,3.33,3.33,3.29,3.33,3.33,3.33,3.32,3.34,3.35,3.35,3.33,3.33,3.33,3.33,3.33,3.33,3.33,3.33,3.33,3.34,3.34,3.34,3.34,3.35,3.29,79.9,-1.0,1.0,0.0,1.0,1.0,577628,0.0,0.0
1765219082705,0.0,0.0,2.0,25.0,0.0,0.0,0.0,0.0,0.0,0.0,-0.010492,0.0046359999999999995,0.993324,-0.6300000000000001,0.42000000000000004,-0.07,3.33,3.33,3.33,3.29,3.33,3.33,3.33,3.32,3.34,3.35,3.35,3.33,3.33,3.33,3.33,3.33,3.33,3.33,3.33,3.33,3.34,3.34,3.34,3.34,3.35,3.29,79.9,-1.0,1.0,0.0,1.0,1.0,577679,0.0,0.0
1765219082722,0.0,0.0,2.0,25.0,0.0,0.0,0.0,0.0,0.0,0.0,-0.010492,0.0046359999999999995,0.993324,-0.6300000000000001,0.42000000000000004,0.0,3.33,3.33,3.33,3.29,3.33,3.33,3.33,3.32,3.34,3.35,3.35,3.33,3.33,3.33,3.33,3.33,3.33,3.33,3.33,3.33,3.34,3.34,3.34,3.34,3.35,3.29,79.9,-1.0,1.0,0.0,1.0,1.0,577696,0.0,0.0
1765219082771,0.0,0.0,2.0,25.0,0.0,0.0,0.0,0.0,0.0,0.0,-0.010492,0.0046359999999999995,0.993324,-0.6300000000000001,0.42000000000000004,0.0,3.33,3.33,3.33,3.29,3.33,3.33,3.33,3.32,3.34,3.35,3.35,3.33,3.33,3.33,3.33,3.33,3.33,3.33,3.33,3.33,3.34,3.34,3.34,3.34,3.35,3.29,79.9,-1.0,1.0,0.0,1.0,1.0,577745,0.0,0.0
1765219082788,0.0,0.0,2.0,25.0,0.0,0.0,0.0,0.0,0.0,0.0,-0.010492,0.0046359999999999995,0.993324,-0.6300000000000001,0.42000000000000004,0.0,3.33,3.33,3.33,3.29,3.33,3.33,3.33,3.32,3.34,3.35,3.35,3.33,3.33,3.33,3.33,3.33,3.33,3.33,3.33,3.33,3.34,3.34,3.34,3.34,3.35,3.29,79.9,-1.0,1.0,0.0,1.0,1.0,577762,0.0,0.0
1765219082805,0.0,0.0,2.0,25.0,0.0,0.0,0.0,0.0,0.0,0.0,-0.010492,0.0046359999999999995,0.993324,-0.6300000000000001,0.42000000000000004,0.0,3.33,3.33,3.33,3.29,3.33,3.33,3.33,3.32,3.34,3.35,3.35,3.33,3.33,3.33,3.33,3.33,3.33,3.33,3.33,3.33,3.34,3.34,3.34,3.34,3.35,3.29,79.9,-1.0,1.0,0.0,1.0,1.0,577779,0.0,0.0
1765219082822,0.0,0.0,2.0,25.0,0.0,0.0,0.0,0.0,0.0,0.0,-0.010492,0.0046359999999999995,0.993324,-0.6300000000000001,0.42000000000000004,0.0,3.33,3.33,3.33,3.29,3.33,3.33,3.33,3.32,3.34,3.35,3.35,3.33,3.33,3.33,3.33,3.33,3.33,3.33,3.33,3.33,3.34,3.34,3.34,3.34,3.35,3.29,79.9,-1.0,1.0,0.0,1.0,1.0,577796,0.0,0.0
1765219082838,0.0,0.0,2.0,25.0,0.0,0.0,0.0,0.0,0.0,0.0,-0.011833999999999999,0.0060999999999999995,0.9943,-0.6300000000000001,0.42000000000000004,0.0,3.33,3.33,3.33,3.29,3.33,3.33,3.33,3.32,3.34,3.35,3.35,3.33,3.33,3.33,3.33,3.33,3.33,3.33,3.33,3.33,3.34,3.34,3.34,3.34,3.35,3.29,79.9,-1.0,1.0,0.0,1.0,1.0,577812,0.0,0.0
1765219082856,0.0,0.0,2.0,25.0,0.0,0.0,0.0,0.0,0.0,0.0,-0.011833999999999999,0.0060999999999999995,0.9943,-0.7000000000000001,0.49000000000000005,-0.07,3.33,3.33,3.33,3.29,3.33,3.33,3.33,3.32,3.34,3.35,3.35,3.33,3.33,3.33,3.33,3.33,3.33,3.33,3.33,3.33,3.34,3.34,3.34,3.34,3.35,3.29,79.9,-1.0,1.0,0.0,1.0,1.0,577830,0.0,0.0
1765219082905,0.0,0.0,2.0,25.0,0.0,0.0,0.0,0.0,0.0,0.0,-0.011833999999999999,0.0060999999999999995,0.9943,-0.7000000000000001,0.49000000000000005,-0.07,3.33,3.33,3.33,3.29,3.33,3.33,3.33,3.32,3.34,3.35,3.35,3.33,3.33,3.33,3.33,3.33,3.33,3.33,3.33,3.33,3.34,3.34,3.34,3.34,3.35,3.29,79.9,-1.0,1.0,0.0,1.0,1.0,577879,0.0,0.0
1765219082921,0.0,0.0,2.0,25.0,0.0,0.0,0.0,0.0,0.0,0.0,-0.011833999999999999,0.0060999999999999995,0.9943,-0.7000000000000001,0.49000000000000005,-0.07,3.33,3.33,3.33,3.29,3.33,3.33,3.33,3.32,3.34,3.35,3.35,3.33,3.33,3.33,3.33,3.33,3.33,3.33,3.33,3.33,3.34,3.34,3.34,3.34,3.35,3.29,79.9,-1.0,1.0,0.0,1.0,1.0,577895,0.0,0.0
1765219082939,0.0,0.0,2.0,25.0,0.0,0.0,0.0,0.0,0.0,0.0,-0.011833999999999999,0.0060999999999999995,0.9943,-0.7000000000000001,0.49000000000000005,-0.07,3.33,3.33,3.33,3.29,3.33,3.33,3.33,3.32,3.34,3.35,3.35,3.33,3.33,3.33,3.33,3.33,3.33,3.33,3.33,3.33,3.34,3.34,3.34,3.34,3.35,3.29,79.9,-1.0,1.0,0.0,1.0,1.0,577913,0.0,0.0
1765219082971,0.0,0.0,2.0,25.0,0.0,0.0,0.0,0.0,0.0,0.0,-0.011833999999999999,0.0060999999999999995,0.9943,-0.7000000000000001,0.49000000000000005,-0.07,3.33,3.33,3.33,3.29,3.33,3.33,3.33,3.32,3.34,3.35,3.35,3.33,3.33,3.33,3.33,3.33,3.33,3.33,3.33,3.33,3.34,3.34,3.34,3.34,3.35,3.29,79.9,-1.0,1.0,0.0,1.0,1.0,577945,0.0,0.0
1765219083022,0.0,0.0,2.0,25.0,0.0,0.0,0.0,0.0,0.0,0.0,-0.011833999999999999,0.0060999999999999995,0.9943,-0.7000000000000001,0.49000000000000005,-0.07,3.33,3.33,3.33,3.29,3.33,3.33,3.33,3.32,3.34,3.35,3.35,3.33,3.33,3.33,3.33,3.33,3.33,3.33,3.33,3.33,3.34,3.34,3.34,3.34,3.35,3.29,79.9,-1.0,1.0,0.0,1.0,1.0,577996,0.0,0.0
1765219083038,0.0,0.0,2.0,25.0,0.0,0.0,0.0,0.0,0.0,0.0,-0.010126,0.004148,0.992592,-0.7000000000000001,0.49000000000000005,-0.07,3.33,3.33,3.33,3.29,3.33,3.33,3.33,3.32,3.34,3.35,3.35,3.33,3.33,3.33,3.33,3.33,3.33,3.33,3.33,3.33,3.34,3.34,3.34,3.34,3.35,3.29,79.9,-1.0,1.0,0.0,1.0,1.0,578012,0.0,0.0
1765219083088,0.0,0.0,2.0,25.0,0.0,0.0,0.0,0.0,0.0,0.0,-0.010126,0.004148,0.992592,-0.7000000000000001,0.56,-0.07,3.33,3.33,3.33,3.29,3.33,3.33,3.33,3.32,3.34,3.35,3.35,3.33,3.33,3.33,3.33,3.33,3.33,3.33,3.33,3.33,3.34,3.34,3.34,3.34,3.35,3.29,79.9,-1.0,1.0,0.0,1.0,1.0,578062,0.0,0.0
1765219083138,0.0,0.0,2.0,25.0,0.0,0.0,0.0,0.0,0.0,0.0,-0.012199999999999999,0.004026,0.995398,-0.7000000000000001,0.56,-0.07,3.33,3.33,3.33,3.29,3.33,3.33,3.33,3.32,3.34,3.35,3.35,3.33,3.33,3.33,3.33,3.33,3.33,3.33,3.33,3.33,3.34,3.34,3.34,3.34,3.35,3.29,79.9,-1.0,1.0,0.0,1.0,1.0,578112,0.0,0.0
1765219083172,0.0,0.0,2.0,25.0,0.0,0.0,0.0,0.0,0.0,0.0,-0.012199999999999999,0.004026,0.995398,-0.7000000000000001,0.56,-0.07,3.33,3.33,3.33,3.29,3.33,3.33,3.33,3.32,3.34,3.35,3.35,3.33,3.33,3.33,3.33,3.33,3.33,3.33,3.33,3.33,3.34,3.34,3.34,3.34,3.35,3.29,79.9,-1.0,1.0,0.0,1.0,1.0,578146,0.0,0.0
1765219083187,0.0,0.0,2.0,25.0,0.0,0.0,0.0,0.0,0.0,0.0,-0.012199999999999999,0.004026,0.995398,-0.7000000000000001,0.42000000000000004,-0.07,3.33,3.33,3.33,3.29,3.33,3.33,3.33,3.32,3.34,3.35,3.35,3.33,3.33,3.33,3.33,3.33,3.33,3.33,3.33,3.33,3.34,3.34,3.34,3.34,3.35,3.29,79.9,-1.0,1.0,0.0,1.0,1.0,578161,0.0,0.0
1765219083204,0.0,0.0,2.0,25.0,0.0,0.0,0.0,0.0,0.0,0.0,-0.012199999999999999,0.004026,0.995398,-0.7000000000000001,0.42000000000000004,-0.07,3.33,3.33,3.33,3.29,3.33,3.33,3.33,3.32,3.34,3.35,3.35,3.33,3.33,3.33,3.33,3.33,3.33,3.33,3.33,3.33,3.34,3.34,3.34,3.34,3.35,3.29,79.9,-1.0,1.0,0.0,1.0,1.0,578178,0.0,0.0
1765219083221,0.0,0.0,2.0,25.0,0.0,0.0,0.0,0.0,0.0,0.0,-0.012199999999999999,0.004026,0.995398,-0.7000000000000001,0.42000000000000004,-0.07,3.33,3.33,3.33,3.29,3.33,3.33,3.33,3.32,3.34,3.35,3.35,3.33,3.33,3.33,3.33,3.33,3.33,3.33,3.33,3.33,3.34,3.34,3.34,3.34,3.35,3.29,79.9,-1.0,1.0,0.0,1.0,1.0,578195,0.0,0.0
1765219083254,0.0,0.0,2.0,25.0,0.0,0.0,0.0,0.0,0.0,0.0,-0.012199999999999999,0.004026,0.995398,-0.7000000000000001,0.42000000000000004,-0.07,3.33,3.33,3.33,3.29,3.33,3.33,3.33,3.32,3.34,3.35,3.35,3.33,3.33,3.33,3.33,3.33,3.33,3.33,3.33,3.33,3.34,3.34,3.34,3.34,3.35,3.29,79.9,-1.0,1.0,0.0,1.0,1.0,578228,0.0,0.0
1765219083306,0.0,0.0,2.0,25.0,0.0,0.0,0.0,0.0,0.0,0.0,-0.012199999999999999,0.004026,0.995398,-0.7000000000000001,0.42000000000000004,-0.07,3.33,3.33,3.33,3.29,3.33,3.33,3.33,3.32,3.34,3.35,3.35,3.33,3.33,3.33,3.33,3.33,3.33,3.33,3.33,3.33,3.34,3.34,3.34,3.34,3.35,3.29,79.9,-1.0,1.0,0.0,1.0,1.0,578280,0.0,0.0
1765219083370,0.0,0.0,2.0,25.0,0.0,0.0,0.0,0.0,0.0,0.0,-0.012199999999999999,0.004026,0.995398,-0.7000000000000001,0.42000000000000004,-0.07,3.33,3.33,3.33,3.29,3.33,3.33,3.33,3.32,3.34,3.35,3.35,3.33,3.33,3.33,3.33,3.33,3.33,3.33,3.33,3.33,3.34,3.34,3.34,3.34,3.35,3.29,79.9,-1.0,1.0,0.0,1.0,1.0,578344,0.0,0.0
1765219083405,0.0,0.0,2.0,25.0,0.0,0.0,0.0,0.0,0.0,0.0,-0.012199999999999999,0.004026,0.995398,-0.7000000000000001,0.28,-0.07,3.33,3.33,3.33,3.29,3.33,3.33,3.33,3.32,3.34,3.35,3.35,3.33,3.33,3.33,3.33,3.33,3.33,3.33,3.33,3.33,3.34,3.34,3.34,3.34,3.35,3.29,79.9,-1.0,1.0,0.0,1.0,1.0,578379,0.0,0.0
1765219083438,0.0,0.0,2.0,25.0,0.0,0.0,0.0,0.0,0.0,0.0,-0.012199999999999999,0.004026,0.995398,-0.7000000000000001,0.28,-0.07,3.33,3.33,3.33,3.29,3.33,3.33,3.33,3.32,3.34,3.35,3.35,3.33,3.33,3.33,3.33,3.33,3.33,3.33,3.33,3.33,3.34,3.34,3.34,3.34,3.35,3.29,79.9,-1.0,1.0,0.0,1.0,1.0,578412,0.0,0.0
1765219083521,0.0,0.0,2.0,25.0,0.0,0.0,0.0,0.0,0.0,0.0,-0.010369999999999999,0.0053679999999999995,0.996252,-0.7000000000000001,0.28,-0.07,3.33,3.33,3.33,3.29,3.33,3.33,3.33,3.32,3.34,3.35,3.35,3.33,3.33,3.33,3.33,3.33,3.33,3.33,3.33,3.33,3.34,3.34,3.34,3.34,3.35,3.29,79.9,-1.0,1.0,0.0,1.0,1.0,578495,0.0,0.0
1765219083539,0.0,0.0,2.0,25.0,0.0,0.0,0.0,0.0,0.0,0.0,-0.010369999999999999,0.0053679999999999995,0.996252,-0.7000000000000001,0.28,-0.07,3.33,3.33,3.33,3.29,3.33,3.33,3.33,3.32,3.34,3.35,3.35,3.33,3.33,3.33,3.33,3.33,3.33,3.33,3.33,3.33,3.34,3.34,3.34,3.34,3.35,3.29,79.9,1.0,1.0,0.0,1.0,1.0,578513,0.0,0.0
1765219083571,0.0,0.0,2.0,25.0,0.0,0.0,0.0,0.0,0.0,0.0,-0.010369999999999999,0.0053679999999999995,0.996252,-0.7000000000000001,0.28,-0.07,3.33,3.33,3.33,3.29,3.33,3.33,3.33,3.32,3.34,3.35,3.35,3.33,3.33,3.33,3.33,3.33,3.33,3.33,3.33,3.33,3.34,3.34,3.34,3.34,3.35,3.29,79.9,1.0,1.0,0.0,1.0,1.0,578545,0.0,0.0
1765219083588,0.0,0.0,2.0,25.0,0.0,0.0,0.0,0.0,0.0,0.0,-0.010369999999999999,0.0053679999999999995,0.996252,-0.7000000000000001,0.56,0.0,3.33,3.33,3.33,3.29,3.33,3.33,3.33,3.32,3.34,3.35,3.35,3.33,3.33,3.33,3.33,3.33,3.33,3.33,3.33,3.33,3.34,3.34,3.34,3.34,3.35,3.29,79.9,1.0,1.0,0.0,1.0,1.0,578562,0.0,0.0
1765219083621,0.0,0.0,2.0,25.0,0.0,0.0,0.0,0.0,0.0,0.0,-0.010369999999999999,0.0053679999999999995,0.996252,-0.7000000000000001,0.56,0.0,3.33,3.33,3.33,3.29,3.33,3.33,3.33,3.32,3.34,3.35,3.35,3.33,3.33,3.33,3.33,3.33,3.33,3.33,3.33,3.33,3.34,3.34,3.34,3.34,3.35,3.29,79.9,1.0,1.0,0.0,1.0,1.0,578595,0.0,0.0
1765219083638,0.0,0.0,2.0,25.0,0.0,0.0,0.0,0.0,0.0,0.0,-0.010369999999999999,0.0053679999999999995,0.996252,-0.7000000000000001,0.56,0.0,3.33,3.33,3.33,3.29,3.33,3.33,3.33,3.32,3.34,3.35,3.35,3.33,3.33,3.33,3.33,3.33,3.33,3.33,3.33,3.33,3.34,3.34,3.34,3.34,3.35,3.29,79.9,1.0,1.0,0.0,1.0,1.0,578612,0.0,0.0
1765219083655,0.0,0.0,2.0,25.0,0.0,0.0,0.0,0.0,0.0,0.0,-0.010369999999999999,0.0053679999999999995,0.996252,-0.7000000000000001,0.56,0.0,3.33,3.33,3.33,3.29,3.33,3.33,3.33,3.32,3.34,3.35,3.35,3.33,3.33,3.33,3.33,3.33,3.33,3.33,3.33,3.33,3.34,3.34,3.34,3.34,3.35,3.29,79.9,1.0,1.0,0.0,1.0,1.0,578629,0.0,0.0
1765219083671,0.0,0.0,2.0,25.0,0.0,0.0,0.0,0.0,0.0,0.0,-0.010369999999999999,0.0053679999999999995,0.996252,-0.7000000000000001,0.56,0.0,3.33,3.33,3.33,3.29,3.33,3.33,3.33,3.32,3.34,3.35,3.35,3.33,3.33,3.33,3.33,3.33,3.33,3.33,3.33,3.33,3.34,3.34,3.34,3.34,3.35,3.29,79.9,1.0,1.0,0.0,1.0,1.0,578645,0.0,0.0
1765219083688,0.0,0.0,2.0,25.0,0.0,0.0,0.0,0.0,0.0,0.0,-0.010369999999999999,0.0053679999999999995,0.996252,-0.7000000000000001,0.56,0.0,3.33,3.33,3.33,3.29,3.33,3.33,3.33,3.32,3.34,3.35,3.35,3.33,3.33,3.33,3.33,3.33,3.33,3.33,3.33,3.33,3.34,3.34,3.34,3.34,3.35,3.29,79.9,1.0,1.0,0.0,1.0,1.0,578662,0.0,0.0
1765219083755,0.0,0.0,2.0,25.0,0.0,0.0,0.0,0.0,0.0,0.0,-0.013176,0.003904,0.989664,-0.7000000000000001,0.56,0.0,3.33,3.33,3.33,3.29,3.33,3.33,3.33,3.32,3.34,3.35,3.35,3.33,3.33,3.33,3.33,3.33,3.33,3.33,3.33,3.33,3.34,3.34,3.34,3.34,3.35,3.29,79.9,1.0,1.0,0.0,1.0,1.0,578729,0.0,0.0
1765219083788,0.0,0.0,2.0,25.0,0.0,0.0,0.0,0.0,0.0,0.0,-0.013176,0.003904,0.989664,-0.56,0.42000000000000004,-0.14,3.33,3.33,3.33,3.29,3.33,3.33,3.33,3.32,3.34,3.35,3.35,3.33,3.33,3.33,3.33,3.33,3.33,3.33,3.33,3.33,3.34,3.34,3.34,3.34,3.35,3.29,79.9,1.0,1.0,0.0,1.0,1.0,578762,0.0,0.0
1765219083872,0.0,0.0,2.0,25.0,0.0,0.0,0.0,0.0,0.0,0.0,-0.006344,0.005856,0.994178,-0.56,0.42000000000000004,-0.14,3.33,3.33,3.33,3.29,3.33,3.33,3.33,3.32,3.34,3.35,3.35,3.33,3.33,3.33,3.33,3.33,3.33,3.33,3.33,3.33,3.34,3.34,3.34,3.34,3.35,3.29,79.9,1.0,1.0,0.0,1.0,1.0,578846,0.0,0.0
1765219084021,0.0,0.0,2.0,25.0,0.0,0.0,0.0,0.0,0.0,0.0,-0.008539999999999999,0.0060999999999999995,0.994788,-0.56,0.42000000000000004,-0.14,3.33,3.33,3.33,3.29,3.33,3.33,3.33,3.32,3.34,3.35,3.35,3.33,3.33,3.33,3.33,3.33,3.33,3.33,3.33,3.33,3.34,3.34,3.34,3.34,3.35,3.29,79.9,1.0,1.0,0.0,1.0,1.0,578995,0.0,0.0
1765219084038,0.0,0.0,2.0,25.0,0.0,0.0,0.0,0.0,0.0,0.0,-0.008539999999999999,0.0060999999999999995,0.994788,-0.56,0.42000000000000004,-0.14,3.33,3.33,3.33,3.29,3.33,3.33,3.33,3.32,3.34,3.35,3.35,3.33,3.33,3.33,3.33,3.33,3.33,3.33,3.33,3.33,3.34,3.34,3.34,3.34,3.35,3.29,79.9,1.0,1.0,0.0,1.0,1.0,579012,0.0,0.0
1765219084071,0.0,0.0,2.0,25.0,2048.0,0.0,0.0,0.0,0.0,0.0,-0.008539999999999999,0.0060999999999999995,0.994788,-0.77,0.42000000000000004,0.07,3.33,3.33,3.33,3.29,3.33,3.33,3.33,3.32,3.34,3.35,3.35,3.33,3.33,3.33,3.33,3.33,3.33,3.33,3.33,3.33,3.34,3.34,3.34,3.34,3.35,3.29,79.9,1.0,1.0,0.0,1.0,1.0,579045,0.0,0.0
1765219084169,0.0,0.0,2.0,25.0,2048.0,0.0,0.0,0.0,0.0,0.0,-0.008539999999999999,0.0060999999999999995,0.994788,-0.77,0.42000000000000004,0.07,3.33,3.33,3.33,3.29,3.33,3.33,3.33,3.32,3.34,3.35,3.35,3.33,3.33,3.33,3.33,3.33,3.33,3.33,3.33,3.33,3.34,3.34,3.34,3.34,3.35,3.29,79.9,1.0,1.0,0.0,1.0,1.0,579143,0.0,0.0
1765219084253,0.0,0.0,2.0,25.0,2048.0,0.0,0.0,0.0,0.0,0.0,-0.013663999999999999,0.50447,0.992104,-0.77,0.42000000000000004,0.07,3.33,3.33,3.33,3.29,3.33,3.33,3.33,3.32,3.34,3.35,3.35,3.33,3.33,3.33,3.33,3.33,3.33,3.33,3.33,3.33,3.34,3.34,3.34,3.34,3.35,3.29,79.9,1.0,1.0,0.0,1.0,1.0,579227,0.0,0.0
1765219084303,0.0,0.0,2.0,25.0,2048.0,0.0,0.0,0.0,0.0,0.0,-0.013663999999999999,0.50447,0.992104,-0.77,0.42000000000000004,0.07,3.33,3.33,3.33,3.29,3.33,3.33,3.33,3.32,3.34,3.35,3.35,3.33,3.33,3.33,3.33,3.33,3.33,3.33,3.33,3.33,3.34,3.34,3.34,3.34,3.35,3.29,79.9,1.0,1.0,0.0,1.0,1.0,579277,0.0,0.0
1765219084320,0.0,0.0,2.0,25.0,2048.0,0.0,0.0,0.0,0.0,0.0,-0.013663999999999999,0.50447,0.992104,-0.77,0.42000000000000004,0.07,3.33,3.33,3.33,3.29,3.33,3.33,3.33,3.32,3.34,3.35,3.35,3.33,3.33,3.33,3.33,3.33,3.33,3.33,3.33,3.33,3.34,3.34,3.34,3.34,3.35,3.29,79.9,1.0,1.0,0.0,1.0,1.0,579294,0.0,0.0
1765219084337,0.0,0.0,2.0,25.0,2048.0,0.0,0.0,0.0,0.0,0.0,-0.013663999999999999,0.50447,0.992104,-0.77,0.42000000000000004,0.07,3.33,3.33,3.33,3.29,3.33,3.33,3.33,3.32,3.34,3.35,3.35,3.33,3.33,3.33,3.33,3.33,3.33,3.33,3.33,3.33,3.34,3.34,3.34,3.34,3.35,3.29,79.9,1.0,1.0,0.0,1.0,1.0,579311,0.0,0.0
1765219084353,0.0,0.0,2.0,25.0,2048.0,0.0,0.0,0.0,0.0,0.0,-0.013663999999999999,0.50447,0.992104,-0.77,0.42000000000000004,0.07,3.33,3.33,3.33,3.29,3.33,3.33,3.33,3.32,3.34,3.35,3.35,3.33,3.33,3.33,3.33,3.33,3.33,3.33,3.33,3.33,3.34,3.34,3.34,3.34,3.35,3.29,79.9,1.0,1.0,0.0,1.0,1.0,579327,0.0,0.0
1765219084370,0.0,0.0,2.0,25.0,2048.0,0.0,0.0,0.0,0.0,0.0,-0.013663999999999999,0.50447,0.992104,-0.77,0.42000000000000004,0.07,3.33,3.33,3.33,3.29,3.33,3.33,3.33,3.32,3.34,3.35,3.35,3.33,3.33,3.33,3.33,3.33,3.33,3.33,3.33,3.33,3.34,3.34,3.34,3.34,3.35,3.29,79.9,1.0,1.0,0.0,1.0,1.0,579344,0.0,0.0
1765219084387,0.0,0.0,2.0,25.0,2048.0,0.0,0.0,0.0,0.0,0.0,-0.013663999999999999,0.50447,0.992104,-0.77,0.42000000000000004,0.07,3.33,3.33,3.33,3.29,3.33,3.33,3.33,3.32,3.34,3.35,3.35,3.33,3.33,3.33,3.33,3.33,3.33,3.33,3.33,3.33,3.34,3.34,3.34,3.34,3.35,3.29,79.9,1.0,1.0,0.0,1.0,1.0,579361,0.0,0.0
1765219084404,0.0,0.0,2.0,25.0,0.0,0.0,0.0,0.0,0.0,0.0,-0.013663999999999999,0.50447,0.992104,-0.77,0.42000000000000004,0.07,3.33,3.33,3.33,3.29,3.33,3.33,3.33,3.32,3.34,3.35,3.35,3.33,3.33,3.33,3.33,3.33,3.33,3.33,3.33,3.33,3.34,3.34,3.34,3.34,3.35,3.29,79.9,1.0,1.0,0.0,1.0,1.0,579378,0.0,0.0
1765219084420,0.0,0.0,2.0,25.0,0.0,0.0,0.0,0.0,0.0,0.0,-0.013663999999999999,0.50447,0.992104,-0.77,0.42000000000000004,0.07,3.33,3.33,3.33,3.29,3.33,3.33,3.33,3.32,3.34,3.35,3.35,3.33,3.33,3.33,3.33,3.33,3.33,3.33,3.33,3.33,3.34,3.34,3.34,3.34,3.35,3.29,79.9,1.0,1.0,0.0,1.0,1.0,579394,0.0,0.0
1765219084453,0.0,0.0,2.0,25.0,0.0,0.0,0.0,0.0,0.0,0.0,-0.013663999999999999,0.50447,0.992104,-0.77,0.42000000000000004,0.07,3.33,3.33,3.33,3.29,3.33,3.33,3.33,3.32,3.34,3.35,3.35,3.33,3.33,3.33,3.33,3.33,3.33,3.33,3.33,3.33,3.34,3.34,3.34,3.34,3.35,3.29,79.9,1.0,1.0,0.0,1.0,1.0,579427,0.0,0.0
1765219084504,0.0,0.0,2.0,25.0,0.0,0.0,0.0,0.0,0.0,0.0,-0.013663999999999999,0.50447,0.992104,-0.77,0.42000000000000004,0.07,3.33,3.33,3.33,3.29,3.33,3.33,3.33,3.32,3.34,3.35,3.35,3.33,3.33,3.33,3.33,3.33,3.33,3.33,3.33,3.33,3.34,3.34,3.34,3.34,3.35,3.29,79.9,1.0,1.0,0.0,1.0,1.0,579478,0.0,0.0
1765219084519,0.0,0.0,2.0,25.0,0.0,0.0,0.0,0.0,0.0,0.0,-0.009028,0.0026839999999999998,0.995154,-0.77,0.42000000000000004,0.07,3.33,3.33,3.33,3.29,3.33,3.33,3.33,3.32,3.34,3.35,3.35,3.33,3.33,3.33,3.33,3.33,3.33,3.33,3.33,3.33,3.34,3.34,3.34,3.34,3.35,3.29,79.9,1.0,1.0,0.0,1.0,1.0,579493,0.0,0.0
1765219084572,0.0,0.0,2.0,25.0,0.0,0.0,0.0,0.0,0.0,0.0,-0.009028,0.0026839999999999998,0.995154,-0.7000000000000001,0.42000000000000004,-0.07,3.33,3.33,3.33,3.29,3.33,3.33,3.33,3.32,3.34,3.35,3.35,3.33,3.33,3.33,3.33,3.33,3.33,3.33,3.33,3.33,3.34,3.34,3.34,3.34,3.35,3.29,79.9,1.0,1.0,0.0,1.0,1.0,579546,0.0,0.0
1765219084620,0.0,0.0,2.0,25.0,0.0,0.0,0.0,0.0,0.0,0.0,-0.009028,0.0026839999999999998,0.995154,-0.7000000000000001,0.42000000000000004,-0.07,3.33,3.33,3.33,3.29,3.33,3.33,3.33,3.32,3.34,3.35,3.35,3.33,3.33,3.33,3.33,3.33,3.33,3.33,3.33,3.33,3.34,3.34,3.34,3.34,3.35,3.29,79.9,1.0,1.0,0.0,1.0,1.0,579594,0.0,0.0
1765219084705,0.0,0.0,2.0,25.0,0.0,0.0,0.0,0.0,0.0,0.0,-0.01525,0.00366,0.994422,-0.7000000000000001,0.35000000000000003,0.0,3.33,3.33,3.33,3.29,3.33,3.33,3.33,3.32,3.34,3.35,3.35,3.33,3.33,3.33,3.33,3.33,3.33,3.33,3.33,3.33,3.34,3.34,3.34,3.34,3.35,3.29,79.9,1.0,1.0,0.0,1.0,1.0,579679,0.0,0.0
1765219084770,0.0,0.0,2.0,25.0,0.0,0.0,0.0,0.0,0.0,0.0,-0.01525,0.00366,0.994422,-0.7000000000000001,0.35000000000000003,0.0,3.33,3.33,3.33,3.29,3.33,3.33,3.33,3.32,3.34,3.35,3.35,3.33,3.33,3.33,3.33,3.33,3.33,3.33,3.33,3.33,3.34,3.34,3.34,3.34,3.35,3.29,79.9,1.0,1.0,0.0,1.0,1.0,579744,0.0,0.0
1765219084789,0.0,0.0,2.0,25.0,0.0,0.0,0.0,0.0,0.0,0.0,-0.01525,0.00366,0.994422,-0.7000000000000001,0.35000000000000003,0.0,3.33,3.33,3.33,3.29,3.33,3.33,3.33,3.32,3.34,3.35,3.35,3.33,3.33,3.33,3.33,3.33,3.33,3.33,3.33,3.33,3.34,3.34,3.34,3.34,3.35,3.29,79.9,1.0,1.0,0.0,1.0,1.0,579763,0.0,0.0
1765219084804,0.0,0.0,2.0,25.0,0.0,0.0,0.0,0.0,0.0,0.0,-0.01525,0.00366,0.994422,-0.7000000000000001,0.35000000000000003,0.0,3.33,3.33,3.33,3.29,3.33,3.33,3.33,3.32,3.34,3.35,3.35,3.33,3.33,3.33,3.33,3.33,3.33,3.33,3.33,3.33,3.34,3.34,3.34,3.34,3.35,3.29,79.9,1.0,1.0,0.0,1.0,1.0,579778,0.0,0.0
1765219084822,0.0,0.0,2.0,25.0,0.0,0.0,0.0,0.0,0.0,0.0,-0.008784,0.005856,0.99491,-0.7000000000000001,0.35000000000000003,0.0,3.33,3.33,3.33,3.29,3.33,3.33,3.33,3.32,3.34,3.35,3.35,3.33,3.33,3.33,3.33,3.33,3.33,3.33,3.33,3.33,3.34,3.34,3.34,3.34,3.35,3.29,79.9,1.0,1.0,0.0,1.0,1.0,579796,0.0,0.0
1765219084836,0.0,0.0,2.0,25.0,0.0,0.0,0.0,0.0,0.0,0.0,-0.008784,0.005856,0.99491,-0.7000000000000001,0.35000000000000003,0.0,3.33,3.33,3.33,3.29,3.33,3.33,3.33,3.32,3.34,3.35,3.35,3.33,3.33,3.33,3.33,3.33,3.33,3.33,3.33,3.33,3.34,3.34,3.34,3.34,3.35,3.29,79.9,1.0,1.0,0.0,1.0,1.0,579810,0.0,0.0
1765219084869,0.0,0.0,2.0,25.0,0.0,0.0,0.0,0.0,0.0,0.0,-0.008784,0.005856,0.99491,-0.7000000000000001,0.35000000000000003,-0.14,3.33,3.33,3.33,3.29,3.33,3.33,3.33,3.32,3.34,3.35,3.35,3.33,3.33,3.33,3.33,3.33,3.33,3.33,3.33,3.33,3.34,3.34,3.34,3.34,3.35,3.29,79.9,1.0,1.0,0.0,1.0,1.0,579843,0.0,0.0
1765219084903,0.0,0.0,2.0,25.0,0.0,0.0,0.0,0.0,0.0,0.0,-0.008784,0.005856,0.99491,-0.7000000000000001,0.35000000000000003,-0.14,3.33,3.33,3.33,3.29,3.33,3.33,3.33,3.32,3.34,3.35,3.35,3.33,3.33,3.33,3.33,3.33,3.33,3.33,3.33,3.33,3.34,3.34,3.34,3.34,3.35,3.29,79.9,1.0,1.0,0.0,1.0,1.0,579877,0.0,0.0
1765219084988,0.0,0.0,2.0,25.0,0.0,0.0,0.0,0.0,0.0,0.0,-0.011101999999999999,0.0030499999999999998,0.994788,-0.7000000000000001,0.35000000000000003,-0.14,3.33,3.33,3.33,3.29,3.33,3.33,3.33,3.32,3.34,3.35,3.35,3.33,3.33,3.33,3.33,3.33,3.33,3.33,3.33,3.33,3.34,3.34,3.34,3.34,3.35,3.29,79.9,1.0,1.0,0.0,1.0,1.0,579962,0.0,0.0
1765219085002,0.0,0.0,2.0,25.0,0.0,0.0,0.0,0.0,0.0,0.0,-0.011101999999999999,0.0030499999999999998,0.994788,-0.7000000000000001,0.49000000000000005,-0.07,3.33,3.33,3.33,3.29,3.33,3.33,3.33,3.32,3.34,3.35,3.35,3.33,3.33,3.33,3.33,3.33,3.33,3.33,3.33,3.33,3.34,3.34,3.34,3.34,3.35,3.29,79.9,1.0,1.0,0.0,1.0,1.0,579976,0.0,0.0
1765219085054,0.0,0.0,2.0,25.0,0.0,0.0,0.0,0.0,0.0,0.0,-0.011101999999999999,0.0030499999999999998,0.994788,-0.7000000000000001,0.49000000000000005,-0.07,3.33,3.33,3.33,3.29,3.33,3.33,3.33,3.32,3.34,3.35,3.35,3.33,3.33,3.33,3.33,3.33,3.33,3.33,3.33,3.33,3.34,3.34,3.34,3.34,3.35,3.29,79.9,1.0,1.0,0.0,1.0,1.0,580028,0.0,0.0
1765219085070,0.0,0.0,2.0,25.0,0.0,0.0,0.0,0.0,0.0,0.0,-0.011101999999999999,0.0030499999999999998,0.994788,-0.7000000000000001,0.49000000000000005,-0.07,3.33,3.33,3.33,3.29,3.33,3.33,3.33,3.32,3.34,3.35,3.35,3.33,3.33,3.33,3.33,3.33,3.33,3.33,3.33,3.33,3.34,3.34,3.34,3.34,3.35,3.29,79.9,1.0,1.0,0.0,1.0,1.0,580044,0.0,0.0
1765219085088,0.0,0.0,2.0,25.0,0.0,0.0,0.0,0.0,0.0,0.0,-0.011101999999999999,0.0030499999999999998,0.994788,-0.7000000000000001,0.49000000000000005,-0.07,3.33,3.33,3.33,3.29,3.33,3.33,3.33,3.32,3.34,3.35,3.35,3.33,3.33,3.33,3.33,3.33,3.33,3.33,3.33,3.33,3.34,3.34,3.34,3.34,3.35,3.29,79.9,1.0,1.0,0.0,1.0,1.0,580062,0.0,0.0
1765219085121,0.0,0.0,2.0,25.0,0.0,0.0,0.0,0.0,0.0,0.0,-0.011101999999999999,0.0030499999999999998,0.994788,-0.7000000000000001,0.49000000000000005,-0.07,3.33,3.33,3.33,3.29,3.33,3.33,3.33,3.32,3.34,3.35,3.35,3.33,3.33,3.33,3.33,3.33,3.33,3.33,3.33,3.33,3.34,3.34,3.34,3.34,3.35,3.3,79.9,-1.0,1.0,0.0,1.0,1.0,580095,0.0,0.0
1765219085155,0.0,0.0,2.0,25.0,0.0,0.0,0.0,0.0,0.0,0.0,-0.011101999999999999,0.0030499999999999998,0.994788,-0.7000000000000001,0.49000000000000005,-0.07,3.33,3.33,3.33,3.29,3.33,3.33,3.33,3.32,3.34,3.35,3.35,3.33,3.33,3.33,3.33,3.33,3.33,3.33,3.33,3.33,3.34,3.34,3.34,3.34,3.35,3.3,79.9,-1.0,1.0,0.0,1.0,1.0,580129,0.0,0.0
1765219085188,0.0,0.0,2.0,25.0,0.0,0.0,0.0,0.0,0.0,0.0,-0.012322,0.0053679999999999995,0.99674,-0.7000000000000001,0.49000000000000005,-0.07,3.33,3.33,3.33,3.29,3.33,3.33,3.33,3.32,3.34,3.35,3.35,3.33,3.33,3.33,3.33,3.33,3.33,3.33,3.33,3.33,3.34,3.34,3.34,3.34,3.35,3.3,79.9,-1.0,1.0,0.0,1.0,1.0,580162,0.0,0.0
1765219085221,0.0,0.0,2.0,25.0,0.0,0.0,0.0,0.0,0.0,0.0,-0.012322,0.0053679999999999995,0.99674,-0.7000000000000001,0.49000000000000005,-0.07,3.33,3.33,3.33,3.29,3.33,3.33,3.33,3.32,3.34,3.35,3.35,3.33,3.33,3.33,3.33,3.33,3.33,3.33,3.33,3.33,3.34,3.34,3.34,3.34,3.35,3.3,79.9,-1.0,1.0,0.0,1.0,1.0,580195,0.0,0.0
1765219085254,0.0,0.0,2.0,25.0,0.0,0.0,0.0,0.0,0.0,0.0,-0.012322,0.0053679999999999995,0.99674,-0.77,0.42000000000000004,0.0,3.33,3.33,3.33,3.29,3.33,3.33,3.33,3.32,3.34,3.35,3.35,3.33,3.33,3.33,3.33,3.33,3.33,3.33,3.33,3.33,3.34,3.34,3.34,3.34,3.35,3.3,79.9,-1.0,1.0,0.0,1.0,1.0,580228,0.0,0.0
1765219085304,0.0,0.0,2.0,25.0,0.0,0.0,0.0,0.0,0.0,0.0,-0.012322,0.0053679999999999995,0.99674,-0.77,0.42000000000000004,0.0,3.33,3.33,3.33,3.29,3.33,3.33,3.33,3.32,3.34,3.35,3.35,3.33,3.33,3.33,3.33,3.33,3.33,3.33,3.33,3.33,3.34,3.34,3.34,3.34,3.35,3.29,79.9,0.0,1.0,0.0,1.0,1.0,580278,0.0,0.0
1765219085339,0.0,0.0,2.0,25.0,0.0,0.0,0.0,0.0,0.0,0.0,-0.012322,0.0053679999999999995,0.99674,-0.77,0.42000000000000004,0.0,3.33,3.33,3.33,3.29,3.33,3.33,3.33,3.32,3.34,3.35,3.35,3.33,3.33,3.33,3.33,3.33,3.33,3.33,3.33,3.33,3.34,3.34,3.34,3.34,3.35,3.29,79.9,0.0,1.0,0.0,1.0,1.0,580313,0.0,0.0
1765219085388,0.0,0.0,2.0,25.0,0.0,0.0,0.0,0.0,0.0,0.0,-0.010003999999999999,0.0060999999999999995,0.993934,-0.77,0.42000000000000004,0.0,3.33,3.33,3.33,3.29,3.33,3.33,3.33,3.32,3.34,3.35,3.35,3.33,3.33,3.33,3.33,3.33,3.33,3.33,3.33,3.33,3.34,3.34,3.34,3.34,3.35,3.29,79.9,0.0,1.0,0.0,1.0,1.0,580362,0.0,0.0
1765219085406,0.0,0.0,2.0,25.0,0.0,0.0,0.0,0.0,0.0,0.0,-0.010003999999999999,0.0060999999999999995,0.993934,-0.7000000000000001,0.49000000000000005,-0.14,3.33,3.33,3.33,3.29,3.33,3.33,3.33,3.32,3.34,3.35,3.35,3.33,3.33,3.33,3.33,3.33,3.33,3.33,3.33,3.33,3.34,3.34,3.34,3.34,3.35,3.29,79.9,0.0,1.0,0.0,1.0,1.0,580380,0.0,0.0
1765219085472,0.0,0.0,2.0,25.0,0.0,0.0,0.0,0.0,0.0,0.0,-0.014274,0.000488,0.999912,-0.7000000000000001,0.49000000000000005,-0.14,3.33,3.33,3.33,3.29,3.33,3.33,3.33,3.32,3.34,3.35,3.35,3.33,3.33,3.33,3.33,3.33,3.33,3.33,3.33,3.33,3.34,3.34,3.34,3.34,3.35,3.29,79.9,0.0,1.0,0.0,1.0,1.0,580446,0.0,0.0
1765219085487,0.0,0.0,2.0,25.0,0.0,0.0,0.0,0.0,0.0,0.0,-0.014274,0.000488,0.999912,-0.7000000000000001,0.49000000000000005,-0.14,3.33,3.33,3.33,3.29,3.33,3.33,3.33,3.32,3.34,3.35,3.35,3.33,3.33,3.33,3.33,3.33,3.33,3.33,3.33,3.33,3.34,3.34,3.34,3.34,3.35,3.29,79.9,0.0,1.0,0.0,1.0,1.0,580461,0.0,0.0
1765219085504,0.0,0.0,2.0,25.0,0.0,0.0,0.0,0.0,0.0,0.0,-0.014274,0.000488,0.999912,-0.8400000000000001,0.42000000000000004,0.0,3.33,3.33,3.33,3.29,3.33,3.33,3.33,3.32,3.34,3.35,3.35,3.33,3.33,3.33,3.33,3.33,3.33,3.33,3.33,3.33,3.34,3.34,3.34,3.34,3.35,3.29,79.9,0.0,1.0,0.0,1.0,1.0,580478,0.0,0.0
1765219085520,0.0,0.0,2.0,25.0,0.0,0.0,0.0,0.0,0.0,0.0,-0.014274,0.000488,0.999912,-0.8400000000000001,0.42000000000000004,0.0,3.33,3.33,3.33,3.29,3.33,3.33,3.33,3.32,3.34,3.35,3.35,3.33,3.33,3.33,3.33,3.33,3.33,3.33,3.33,3.33,3.34,3.34,3.34,3.34,3.35,3.29,79.9,0.0,1.0,0.0,1.0,1.0,580494,0.0,0.0
1765219085538,0.0,0.0,2.0,25.0,0.0,0.0,0.0,0.0,0.0,0.0,-0.014274,0.000488,0.999912,-0.8400000000000001,0.42000000000000004,0.0,3.33,3.33,3.33,3.29,3.33,3.33,3.33,3.32,3.34,3.35,3.35,3.33,3.33,3.33,3.33,3.33,3.33,3.33,3.33,3.33,3.34,3.34,3.34,3.34,3.35,3.29,79.9,0.0,1.0,0.0,1.0,1.0,580512,0.0,0.0
1765219085572,0.0,0.0,2.0,25.0,0.0,0.0,0.0,0.0,0.0,0.0,-0.014274,0.000488,0.999912,-0.8400000000000001,0.42000000000000004,0.0,3.33,3.33,3.33,3.29,3.33,3.33,3.33,3.32,3.34,3.35,3.35,3.33,3.33,3.33,3.33,3.33,3.33,3.33,3.33,3.33,3.34,3.34,3.34,3.34,3.35,3.29,79.9,0.0,1.0,0.0,1.0,1.0,580546,0.0,0.0
1765219085623,0.0,0.0,2.0,25.0,0.0,0.0,0.0,0.0,0.0,0.0,-0.014274,0.000488,0.999912,-0.8400000000000001,0.42000000000000004,0.0,3.33,3.33,3.33,3.29,3.33,3.33,3.33,3.32,3.34,3.35,3.35,3.33,3.33,3.33,3.33,3.33,3.33,3.33,3.33,3.33,3.34,3.34,3.34,3.34,3.35,3.29,79.9,0.0,1.0,0.0,1.0,1.0,580597,0.0,0.0
1765219085704,0.0,0.0,2.0,25.0,0.0,0.0,0.0,0.0,0.0,0.0,-0.01159,0.002562,0.995032,-0.8400000000000001,0.56,-0.07,3.33,3.33,3.33,3.29,3.33,3.33,3.33,3.32,3.34,3.35,3.35,3.33,3.33,3.33,3.33,3.33,3.33,3.33,3.33,3.33,3.34,3.34,3.34,3.34,3.35,3.29,79.9,0.0,1.0,0.0,1.0,1.0,580678,0.0,0.0
1765219085753,0.0,0.0,2.0,25.0,0.0,0.0,0.0,0.0,0.0,0.0,-0.01159,0.002562,0.995032,-0.8400000000000001,0.56,-0.07,3.33,3.33,3.33,3.29,3.33,3.33,3.33,3.32,3.34,3.35,3.35,3.33,3.33,3.33,3.33,3.33,3.33,3.33,3.33,3.33,3.34,3.34,3.34,3.34,3.35,3.29,79.9,0.0,1.0,0.0,1.0,1.0,580727,0.0,0.0
1765219085771,0.0,0.0,2.0,25.0,0.0,0.0,0.0,0.0,0.0,0.0,-0.01159,0.002562,0.995032,-0.8400000000000001,0.56,-0.07,3.33,3.33,3.33,3.29,3.33,3.33,3.33,3.32,3.34,3.35,3.35,3.33,3.33,3.33,3.33,3.33,3.33,3.33,3.33,3.33,3.34,3.34,3.34,3.34,3.35,3.29,79.9,0.0,1.0,0.0,1.0,1.0,580745,0.0,0.0
1765219085788,0.0,0.0,2.0,25.0,0.0,0.0,0.0,0.0,0.0,0.0,-0.01159,0.002562,0.995032,-0.8400000000000001,0.56,-0.07,3.33,3.33,3.33,3.29,3.33,3.33,3.33,3.32,3.34,3.35,3.35,3.33,3.33,3.33,3.33,3.33,3.33,3.33,3.33,3.33,3.34,3.34,3.34,3.34,3.35,3.29,79.9,0.0,1.0,0.0,1.0,1.0,580762,0.0,0.0
1765219085803,0.0,0.0,2.0,25.0,0.0,0.0,0.0,0.0,0.0,0.0,-0.014884,0.0064659999999999995,0.99064,-0.8400000000000001,0.56,-0.07,3.33,3.33,3.33,3.29,3.33,3.33,3.33,3.32,3.34,3.35,3.35,3.33,3.33,3.33,3.33,3.33,3.33,3.33,3.33,3.33,3.34,3.34,3.34,3.34,3.35,3.29,79.9,0.0,1.0,0.0,1.0,1.0,580777,0.0,0.0
1765219085819,0.0,0.0,2.0,25.0,0.0,0.0,0.0,0.0,0.0,0.0,-0.014884,0.0064659999999999995,0.99064,-0.8400000000000001,0.56,-0.07,3.33,3.33,3.33,3.29,3.33,3.33,3.33,3.32,3.34,3.35,3.35,3.33,3.33,3.33,3.33,3.33,3.33,3.33,3.33,3.33,3.34,3.34,3.34,3.34,3.35,3.29,79.9,0.0,1.0,0.0,1.0,1.0,580793,0.0,0.0
1765219085837,0.0,0.0,2.0,25.0,0.0,0.0,0.0,0.0,0.0,0.0,-0.014884,0.0064659999999999995,0.99064,-0.8400000000000001,0.56,-0.07,3.33,3.33,3.33,3.29,3.33,3.33,3.33,3.32,3.34,3.35,3.35,3.33,3.33,3.33,3.33,3.33,3.33,3.33,3.33,3.33,3.34,3.34,3.34,3.34,3.35,3.29,79.9,0.0,1.0,0.0,1.0,1.0,580811,0.0,0.0
1765219085853,0.0,0.0,2.0,25.0,0.0,0.0,0.0,0.0,0.0,0.0,-0.014884,0.0064659999999999995,0.99064,-0.6300000000000001,0.42000000000000004,0.07,3.33,3.33,3.33,3.29,3.33,3.33,3.33,3.32,3.34,3.35,3.35,3.33,3.33,3.33,3.33,3.33,3.33,3.33,3.33,3.33,3.34,3.34,3.34,3.34,3.35,3.29,79.9,0.0,1.0,0.0,1.0,1.0,580827,0.0,0.0
1765219085886,0.0,0.0,2.0,25.0,0.0,0.0,0.0,0.0,0.0,0.0,-0.014884,0.0064659999999999995,0.99064,-0.6300000000000001,0.42000000000000004,0.07,3.33,3.33,3.33,3.3,3.33,3.33,3.33,3.32,3.34,3.35,3.35,3.33,3.33,3.33,3.33,3.33,3.33,3.33,3.33,3.33,3.34,3.34,3.34,3.34,3.35,3.29,79.9,0.0,1.0,0.0,1.0,1.0,580860,0.0,0.0
1765219085903,0.0,0.0,2.0,25.0,0.0,0.0,0.0,0.0,0.0,0.0,-0.014884,0.0064659999999999995,0.99064,-0.6300000000000001,0.42000000000000004,0.07,3.33,3.33,3.33,3.3,3.33,3.33,3.33,3.32,3.34,3.35,3.35,3.33,3.33,3.33,3.33,3.33,3.33,3.33,3.33,3.33,3.34,3.34,3.34,3.34,3.35,3.29,79.9,0.0,1.0,0.0,1.0,1.0,580877,0.0,0.0
1765219085920,0.0,0.0,2.0,25.0,0.0,0.0,0.0,0.0,0.0,0.0,-0.014884,0.0064659999999999995,0.99064,-0.6300000000000001,0.42000000000000004,0.07,3.33,3.33,3.33,3.3,3.33,3.33,3.33,3.32,3.34,3.35,3.35,3.33,3.33,3.33,3.33,3.33,3.33,3.33,3.33,3.33,3.34,3.34,3.34,3.34,3.35,3.29,79.9,0.0,1.0,0.0,1.0,1.0,580894,0.0,0.0
1765219085937,0.0,0.0,2.0,25.0,0.0,0.0,0.0,0.0,0.0,0.0,-0.014884,0.0064659999999999995,0.99064,-0.6300000000000001,0.42000000000000004,0.07,3.33,3.33,3.33,3.3,3.33,3.33,3.33,3.32,3.34,3.35,3.35,3.33,3.33,3.33,3.33,3.33,3.33,3.33,3.33,3.33,3.34,3.34,3.34,3.34,3.35,3.29,79.9,0.0,1.0,0.0,1.0,1.0,580911,0.0,0.0
1765219085953,0.0,0.0,2.0,25.0,0.0,0.0,0.0,0.0,0.0,0.0,-0.014884,0.0064659999999999995,0.99064,-0.6300000000000001,0.42000000000000004,0.07,3.33,3.33,3.33,3.3,3.33,3.33,3.33,3.32,3.34,3.35,3.35,3.33,3.33,3.33,3.33,3.33,3.33,3.33,3.33,3.33,3.34,3.34,3.34,3.34,3.35,3.29,79.9,0.0,1.0,0.0,1.0,1.0,580927,0.0,0.0
1765219086019,0.0,0.0,2.0,25.0,0.0,0.0,0.0,0.0,0.0,0.0,-0.006344,0.005856,0.996008,-0.6300000000000001,0.42000000000000004,0.07,3.33,3.33,3.33,3.3,3.33,3.33,3.33,3.32,3.34,3.35,3.35,3.33,3.33,3.33,3.33,3.33,3.33,3.33,3.33,3.33,3.34,3.34,3.34,3.34,3.35,3.29,79.9,0.0,1.0,0.0,1.0,1.0,580993,0.0,0.0
1765219086037,0.0,0.0,2.0,25.0,0.0,0.0,0.0,0.0,0.0,0.0,-0.006344,0.005856,0.996008,-0.6300000000000001,0.42000000000000004,0.07,3.33,3.33,3.33,3.29,3.33,3.33,3.33,3.32,3.34,3.35,3.35,3.33,3.33,3.33,3.33,3.33,3.33,3.33,3.33,3.33,3.34,3.34,3.34,3.34,3.35,3.29,79.9,0.0,1.0,0.0,1.0,1.0,581011,0.0,0.0
1765219086071,0.0,0.0,2.0,25.0,0.0,0.0,0.0,0.0,0.0,0.0,-0.006344,0.005856,0.996008,-0.6300000000000001,0.42000000000000004,0.07,3.33,3.33,3.33,3.29,3.33,3.33,3.33,3.32,3.34,3.35,3.35,3.33,3.33,3.33,3.33,3.33,3.33,3.33,3.33,3.33,3.34,3.34,3.34,3.34,3.35,3.29,79.9,0.0,1.0,0.0,1.0,1.0,581045,0.0,0.0
1765219086104,0.0,0.0,2.0,25.0,0.0,0.0,0.0,0.0,0.0,0.0,-0.006344,0.005856,0.996008,-0.6300000000000001,0.42000000000000004,0.07,3.33,3.33,3.33,3.29,3.33,3.33,3.33,3.32,3.34,3.35,3.35,3.33,3.33,3.33,3.33,3.33,3.33,3.33,3.33,3.33,3.34,3.34,3.34,3.34,3.35,3.29,79.9,0.0,1.0,0.0,1.0,1.0,581078,0.0,0.0
1765219086120,0.0,0.0,2.0,25.0,0.0,0.0,0.0,0.0,0.0,0.0,-0.006344,0.005856,0.996008,-0.6300000000000001,0.42000000000000004,0.07,3.33,3.33,3.33,3.29,3.33,3.33,3.33,3.32,3.34,3.35,3.35,3.33,3.33,3.33,3.33,3.33,3.33,3.33,3.33,3.33,3.34,3.34,3.34,3.34,3.35,3.29,79.9,0.0,1.0,0.0,1.0,1.0,581094,0.0,0.0
1765219086137,0.0,0.0,2.0,25.0,0.0,0.0,0.0,0.0,0.0,0.0,-0.006344,0.005856,0.996008,-0.7000000000000001,0.49000000000000005,0.0,3.33,3.33,3.33,3.29,3.33,3.33,3.33,3.32,3.34,3.35,3.35,3.33,3.33,3.33,3.33,3.33,3.33,3.33,3.33,3.33,3.34,3.34,3.34,3.34,3.35,3.29,79.9,0.0,1.0,0.0,1.0,1.0,581111,0.0,0.0
1765219086152,0.0,0.0,2.0,25.0,0.0,0.0,0.0,0.0,0.0,0.0,-0.006344,0.005856,0.996008,-0.7000000000000001,0.49000000000000005,0.0,3.33,3.33,3.33,3.29,3.33,3.33,3.33,3.32,3.34,3.35,3.35,3.33,3.33,3.33,3.33,3.33,3.33,3.33,3.33,3.33,3.34,3.34,3.34,3.34,3.35,3.29,79.9,0.0,1.0,0.0,1.0,1.0,581126,0.0,0.0
1765219086221,0.0,0.0,2.0,25.0,0.0,0.0,0.0,0.0,0.0,0.0,-0.006344,0.005856,0.996008,-0.7000000000000001,0.49000000000000005,0.0,3.33,3.33,3.33,3.29,3.33,3.33,3.33,3.32,3.34,3.35,3.35,3.33,3.33,3.33,3.33,3.33,3.33,3.33,3.33,3.33,3.34,3.34,3.34,3.34,3.35,3.29,79.9,0.0,1.0,0.0,1.0,1.0,581195,0.0,0.0
