timestamp,THROTTLE,BRAKE,ECU_MODE_ID,TORQUE_GAIN,TORQUE_REF_LEFT_MOTOR,TORQUE_REF_RIGHT_MOTOR,LEFT_MOTOR_SPEED,RIGHT_MOTOR_SPEED,REAR_LEFT_WHEEL_SPEED,REAR_RIGHT_WHEEL_SPEED,ACCEL_LONGITUDINAL,ACCEL_LATERAL,ACCEL_NORMAL,VEL_ANGULAR_YAW,VEL_ANGULAR_PITCH,VEL_ANGULAR_ROLL,STACK_1_CELL_1,STACK_1_CELL_2,STACK_1_CELL_3,STACK_1_CELL_4,STACK_2_CELL_1,STACK_2_CELL_2,STACK_2_CELL_3,STACK_2_CELL_4,STACK_3_CELL_1,STACK_3_CELL_2,STACK_3_CELL_3,STACK_3_CELL_4,STACK_4_CELL_1,STACK_4_CELL_2,STACK_4_CELL_3,STACK_4_CELL_4,STACK_5_CELL_1,STACK_5_CELL_2,STACK_5_CELL_3,STACK_5_CELL_4,STACK_6_CELL_1,STACK_6_CELL_2,STACK_6_CELL_3,STACK_6_CELL_4,MAX_VOLTAGE,MIN_VOLTAGE,TOTAL_VOLTAGE,SHUNT_CURRENT,BMS_MODE_ID,BMS_ERROR_ID,AIR_P,AIR_N,t
1765222740005,0.0,0.0,0.0,0.0,0.0,0.0,33.60615137142858,33.67239214285714,33.60615137142858,33.67239214285714,-0.142252,-0.169458,0.984296,-23.87,1.12,0.49000000000000005,3.31,3.32,3.31,3.29,3.29,3.3,3.29,3.32,3.31,3.32,3.32,3.31,3.28,3.3,3.29,3.3,3.31,3.32,3.31,3.31,3.32,3.32,3.32,3.31,3.32,3.29,79.3,-45.0,1.0,2.0,0.0,0.0,4234979
1765222740022,0.0,0.0,0.0,0.0,0.0,0.0,33.60615137142858,33.67239214285714,0.0,0.0,-0.142252,-0.169458,0.984296,-23.87,1.12,0.49000000000000005,3.31,3.32,3.31,3.29,3.29,3.3,3.29,3.32,3.31,3.32,3.32,3.31,3.28,3.3,3.29,3.3,3.31,3.32,3.31,3.31,3.32,3.32,3.32,3.31,3.32,3.29,79.3,-45.0,1.0,2.0,0.0,0.0,4234996
1765222740055,0.0,0.0,0.0,0.0,0.0,0.0,0.0,33.67239214285714,0.0,0.0,-0.142252,-0.169458,0.984296,-23.87,1.12,0.49000000000000005,3.31,3.32,3.31,3.29,3.29,3.3,3.29,3.32,3.31,3.32,3.32,3.31,3.28,3.3,3.29,3.3,3.31,3.32,3.31,3.31,3.32,3.32,3.32,3.31,3.32,3.29,79.3,-45.0,1.0,2.0,0.0,0.0,4235029
1765222740089,0.0,0.0,0.0,0.0,0.0,0.0,0.0,33.67239214285714,0.0,0.0,-0.142252,-0.169458,0.984296,-23.87,1.12,0.49000000000000005,3.32,3.33,3.33,3.31,3.29,3.3,3.29,3.32,3.31,3.32,3.32,3.31,3.28,3.3,3.29,3.3,3.31,3.32,3.31,3.31,3.32,3.32,3.32,3.31,3.32,3.29,79.3,-45.0,1.0,2.0,0.0,0.0,4235063
1765222740122,0.0,0.0,0.0,0.0,0.0,0.0,0.0,0.0,0.0,0.0,-0.142252,-0.169458,0.984296,-23.87,1.12,0.49000000000000005,3.32,3.33,3.33,3.31,3.3,3.31,3.3,3.31,3.31,3.32,3.32,3.31,3.28,3.3,3.29,3.3,3.31,3.32,3.31,3.31,3.32,3.32,3.32,3.31,3.32,3.29,79.3,-45.0,1.0,2.0,0.0,0.0,4235096
1765222740139,0.0,0.0,0.0,0.0,0.0,0.0,0.0,0.0,0.0,0.0,-0.142252,-0.169458,0.984296,-23.87,1.12,0.49000000000000005,3.32,3.33,3.33,3.31,3.3,3.31,3.3,3.31,3.33,3.33,3.33,3.32,3.28,3.3,3.29,3.3,3.31,3.32,3.31,3.31,3.32,3.32,3.32,3.31,3.32,3.29,79.3,-45.0,1.0,2.0,0.0,0.0,4235113
1765222740155,0.0,0.0,0.0,0.0,0.0,0.0,0.0,0.0,0.0,0.0,-0.142252,-0.169458,0.984296,-23.87,1.12,0.49000000000000005,3.32,3.33,3.33,3.31,3.3,3.31,3.3,3.31,3.33,3.33,3.33,3.32,3.29,3.31,3.3,3.3,3.31,3.32,3.31,3.31,3.32,3.32,3.32,3.31,3.32,3.29,79.3,-45.0,1.0,2.0,0.0,0.0,4235129
1765222740189,0.0,0.0,0.0,0.0,0.0,0.0,0.0,0.0,0.0,0.0,-0.142252,-0.169458,0.984296,-23.87,1.12,0.49000000000000005,3.32,3.33,3.33,3.31,3.3,3.31,3.3,3.31,3.33,3.33,3.33,3.32,3.29,3.31,3.3,3.3,3.32,3.33,3.33,3.32,3.32,3.32,3.32,3.31,3.32,3.29,79.3,-45.0,1.0,2.0,0.0,0.0,4235163
1765222740222,0.0,0.0,0.0,0.0,0.0,0.0,0.0,0.0,0.0,0.0,-0.142252,-0.169458,0.984296,-23.87,1.12,0.49000000000000005,3.32,3.33,3.33,3.31,3.3,3.31,3.3,3.31,3.33,3.33,3.33,3.32,3.29,3.31,3.3,3.3,3.32,3.33,3.33,3.32,3.33,3.33,3.33,3.33,3.32,3.29,79.3,-45.0,1.0,2.0,0.0,0.0,4235196
1765222740239,0.0,0.0,0.0,0.0,0.0,0.0,0.0,0.0,0.0,0.0,-0.026108,0.015006,0.9916159999999999,-23.87,1.12,0.49000000000000005,3.32,3.33,3.33,3.31,3.3,3.31,3.3,3.31,3.33,3.33,3.33,3.32,3.29,3.31,3.3,3.3,3.32,3.33,3.33,3.32,3.33,3.33,3.33,3.33,3.32,3.29,79.3,-45.0,1.0,2.0,0.0,0.0,4235213
1765222740255,0.0,0.0,0.0,0.0,0.0,0.0,0.0,0.0,0.0,0.0,-0.026108,0.015006,0.9916159999999999,-0.56,0.42000000000000004,-0.07,3.32,3.33,3.33,3.31,3.3,3.31,3.3,3.31,3.33,3.33,3.33,3.32,3.29,3.31,3.3,3.3,3.32,3.33,3.33,3.32,3.33,3.33,3.33,3.33,3.32,3.29,79.3,-45.0,1.0,2.0,0.0,0.0,4235229
1765222740305,0.0,0.0,0.0,0.0,0.0,0.0,0.0,0.0,0.0,0.0,-0.026108,0.015006,0.9916159999999999,-0.56,0.42000000000000004,-0.07,3.32,3.33,3.33,3.31,3.3,3.31,3.3,3.31,3.33,3.33,3.33,3.32,3.29,3.31,3.3,3.3,3.32,3.33,3.33,3.32,3.33,3.33,3.33,3.33,3.32,3.29,79.3,-45.0,1.0,2.0,0.0,0.0,4235279
1765222740322,0.0,0.0,1.0,10.0,0.0,0.0,0.0,0.0,0.0,0.0,-0.026108,0.015006,0.9916159999999999,-0.56,0.42000000000000004,-0.07,3.32,3.33,3.33,3.31,3.3,3.31,3.3,3.31,3.33,3.33,3.33,3.32,3.29,3.31,3.3,3.3,3.32,3.33,3.33,3.32,3.33,3.33,3.33,3.33,3.32,3.29,79.3,-45.0,1.0,2.0,0.0,0.0,4235296
1765222740339,0.0,0.0,1.0,10.0,0.0,0.0,0.0,0.0,0.0,0.0,-0.026718,0.014395999999999999,0.992104,-0.56,0.42000000000000004,-0.07,3.32,3.33,3.33,3.31,3.3,3.31,3.3,3.31,3.33,3.33,3.33,3.32,3.29,3.31,3.3,3.3,3.32,3.33,3.33,3.32,3.33,3.33,3.33,3.33,3.32,3.29,79.3,-45.0,1.0,2.0,0.0,0.0,4235313
1765222740355,0.0,0.0,1.0,10.0,0.0,0.0,0.0,0.0,0.0,0.0,-0.026718,0.014395999999999999,0.992104,-0.56,0.42000000000000004,-0.07,3.32,3.33,3.33,3.31,3.3,3.31,3.3,3.31,3.33,3.33,3.33,3.32,3.29,3.31,3.3,3.3,3.32,3.33,3.33,3.32,3.33,3.33,3.33,3.33,3.32,3.29,79.3,-45.0,1.0,2.0,0.0,0.0,4235329
1765222740372,0.0,0.0,1.0,10.0,0.0,0.0,0.0,0.0,0.0,0.0,-0.026718,0.014395999999999999,0.992104,-0.56,0.35000000000000003,0.0,3.32,3.33,3.33,3.31,3.3,3.31,3.3,3.31,3.33,3.33,3.33,3.32,3.29,3.31,3.3,3.3,3.32,3.33,3.33,3.32,3.33,3.33,3.33,3.33,3.32,3.29,79.3,-45.0,1.0,2.0,0.0,0.0,4235346
1765222740389,0.0,0.0,1.0,10.0,0.0,0.0,0.0,0.0,0.0,0.0,-0.026718,0.014395999999999999,0.992104,-0.56,0.35000000000000003,0.0,3.32,3.33,3.33,3.31,3.3,3.31,3.3,3.31,3.33,3.33,3.33,3.32,3.29,3.31,3.3,3.3,3.32,3.33,3.33,3.32,3.33,3.33,3.33,3.33,3.32,3.29,79.3,-45.0,1.0,2.0,0.0,0.0,4235363
1765222740456,0.0,0.0,1.0,10.0,0.0,0.0,0.0,0.0,0.0,0.0,-0.026718,0.014395999999999999,0.992104,-0.56,0.35000000000000003,0.0,3.32,3.33,3.33,3.31,3.3,3.31,3.3,3.31,3.33,3.33,3.33,3.32,3.29,3.31,3.3,3.3,3.32,3.33,3.33,3.32,3.33,3.33,3.33,3.33,3.32,3.29,79.3,-45.0,1.0,2.0,0.0,0.0,4235430
1765222740504,0.0,0.0,1.0,10.0,0.0,0.0,0.0,0.0,0.0,0.0,-0.026718,0.014395999999999999,0.992104,-0.56,0.35000000000000003,0.0,3.32,3.33,3.33,3.31,3.3,3.31,3.3,3.31,3.33,3.33,3.33,3.32,3.29,3.31,3.3,3.3,3.32,3.33,3.33,3.32,3.33,3.33,3.33,3.33,3.32,3.29,79.3,-45.0,1.0,2.0,0.0,0.0,4235478
1765222740539,0.0,0.0,1.0,10.0,0.0,0.0,0.0,0.0,0.0,0.0,-0.026718,0.014395999999999999,0.992104,-0.56,0.35000000000000003,0.0,3.32,3.33,3.33,3.31,3.3,3.31,3.3,3.31,3.33,3.33,3.33,3.32,3.29,3.31,3.3,3.3,3.32,3.33,3.33,3.32,3.33,3.33,3.33,3.33,3.32,3.29,79.3,-45.0,1.0,2.0,0.0,0.0,4235513
1765222740588,0.0,0.0,1.0,10.0,0.0,0.0,0.0,0.0,0.0,0.0,-0.026718,0.014395999999999999,0.992104,-0.56,0.35000000000000003,0.0,3.32,3.33,3.33,3.31,3.3,3.31,3.3,3.31,3.33,3.33,3.33,3.32,3.29,3.31,3.3,3.3,3.32,3.33,3.33,3.32,3.33,3.33,3.33,3.33,3.32,3.29,79.3,-45.0,1.0,2.0,0.0,0.0,4235562
1765222740655,0.0,0.0,1.0,10.0,0.0,0.0,0.0,0.0,0.0,0.0,-0.026595999999999998,0.015493999999999999,0.99186,-0.6300000000000001,0.35000000000000003,0.0,3.32,3.33,3.33,3.31,3.3,3.31,3.3,3.31,3.33,3.33,3.33,3.32,3.29,3.31,3.3,3.3,3.32,3.33,3.33,3.32,3.33,3.33,3.33,3.33,3.32,3.29,79.3,-45.0,1.0,2.0,0.0,0.0,4235629
1765222740705,0.0,0.0,1.0,10.0,0.0,0.0,0.0,0.0,0.0,0.0,-0.025742,0.014152,0.99247,-0.6300000000000001,0.35000000000000003,0.0,3.32,3.33,3.33,3.31,3.3,3.31,3.3,3.31,3.33,3.33,3.33,3.32,3.29,3.31,3.3,3.3,3.32,3.33,3.33,3.32,3.33,3.33,3.33,3.33,3.32,3.29,79.3,-45.0,1.0,2.0,0.0,0.0,4235679
1765222740739,0.0,0.0,1.0,10.0,0.0,0.0,0.0,0.0,0.0,0.0,-0.025742,0.014152,0.99247,-0.6300000000000001,0.35000000000000003,0.0,3.32,3.33,3.33,3.31,3.3,3.31,3.3,3.31,3.33,3.33,3.33,3.32,3.29,3.31,3.3,3.3,3.32,3.33,3.33,3.32,3.33,3.33,3.33,3.33,3.32,3.29,79.3,-45.0,1.0,2.0,0.0,0.0,4235713
1765222740755,0.0,0.0,1.0,10.0,0.0,0.0,0.0,0.0,0.0,0.0,-0.025742,0.014152,0.99247,-0.6300000000000001,0.42000000000000004,0.0,3.32,3.33,3.33,3.31,3.3,3.31,3.3,3.31,3.33,3.33,3.33,3.32,3.29,3.31,3.3,3.3,3.32,3.33,3.33,3.32,3.33,3.33,3.33,3.33,3.32,3.29,79.3,-45.0,1.0,2.0,0.0,0.0,4235729
1765222740772,0.0,0.0,1.0,10.0,0.0,0.0,0.0,0.0,0.0,0.0,-0.025742,0.014152,0.99247,-0.6300000000000001,0.42000000000000004,0.0,3.32,3.33,3.33,3.31,3.3,3.31,3.3,3.31,3.33,3.33,3.33,3.32,3.29,3.31,3.3,3.3,3.32,3.33,3.33,3.32,3.33,3.33,3.33,3.33,3.32,3.29,79.3,-45.0,1.0,2.0,0.0,0.0,4235746
1765222740789,0.0,0.0,1.0,10.0,0.0,0.0,0.0,0.0,0.0,0.0,-0.025742,0.014152,0.99247,-0.6300000000000001,0.42000000000000004,0.0,3.32,3.33,3.33,3.31,3.3,3.31,3.3,3.31,3.33,3.33,3.33,3.32,3.29,3.31,3.3,3.3,3.32,3.33,3.33,3.32,3.33,3.33,3.33,3.33,3.32,3.29,79.3,-45.0,1.0,2.0,0.0,0.0,4235763
1765222740822,0.0,0.0,1.0,10.0,0.0,0.0,0.0,0.0,0.0,0.0,-0.025742,0.014152,0.99247,-0.6300000000000001,0.42000000000000004,0.0,3.32,3.33,3.33,3.31,3.3,3.31,3.3,3.31,3.33,3.33,3.33,3.32,3.29,3.31,3.3,3.3,3.32,3.33,3.33,3.32,3.33,3.33,3.33,3.33,3.32,3.29,79.3,-45.0,1.0,2.0,0.0,0.0,4235796
1765222740889,0.0,0.0,1.0,10.0,0.0,0.0,0.0,0.0,0.0,0.0,-0.025742,0.014152,0.99247,-0.6300000000000001,0.42000000000000004,0.0,3.32,3.33,3.33,3.31,3.3,3.31,3.3,3.31,3.33,3.33,3.33,3.32,3.29,3.31,3.3,3.3,3.32,3.33,3.33,3.32,3.33,3.33,3.33,3.33,3.32,3.29,79.3,-45.0,1.0,2.0,0.0,0.0,4235863
1765222740939,0.0,0.0,1.0,10.0,0.0,0.0,0.0,0.0,0.0,0.0,-0.025376,0.01586,0.98759,-0.6300000000000001,0.42000000000000004,0.0,3.32,3.33,3.33,3.31,3.3,3.31,3.3,3.31,3.33,3.33,3.33,3.32,3.29,3.31,3.3,3.3,3.32,3.33,3.33,3.32,3.33,3.33,3.33,3.33,3.32,3.29,79.3,-45.0,1.0,2.0,0.0,0.0,4235913
1765222740955,0.0,0.0,1.0,10.0,0.0,0.0,0.0,0.0,0.0,0.0,-0.025376,0.01586,0.98759,-0.56,0.28,0.0,3.32,3.33,3.33,3.31,3.3,3.31,3.3,3.31,3.33,3.33,3.33,3.32,3.29,3.31,3.3,3.3,3.32,3.33,3.33,3.32,3.33,3.33,3.33,3.33,3.32,3.29,79.3,-45.0,1.0,2.0,0.0,0.0,4235929
1765222740973,0.0,0.0,1.0,10.0,0.0,0.0,0.0,0.0,0.0,0.0,-0.025376,0.01586,0.98759,-0.56,0.28,0.0,3.32,3.33,3.33,3.31,3.3,3.31,3.3,3.31,3.33,3.33,3.33,3.32,3.29,3.31,3.3,3.3,3.32,3.33,3.33,3.32,3.33,3.33,3.33,3.33,3.33,3.29,79.6,-1.0,1.0,2.0,0.0,0.0,4235947
1765222741004,0.0,0.0,1.0,10.0,0.0,0.0,0.0,0.0,0.0,0.0,-0.025376,0.01586,0.98759,-0.56,0.28,0.0,3.32,3.33,3.33,3.31,3.3,3.31,3.3,3.31,3.33,3.33,3.33,3.32,3.29,3.31,3.3,3.3,3.32,3.33,3.33,3.32,3.33,3.33,3.33,3.33,3.33,3.29,79.6,-1.0,1.0,0.0,1.0,1.0,4235978
1765222741039,0.0,0.0,1.0,10.0,0.0,0.0,0.0,0.0,0.0,0.0,-0.025376,0.01586,0.98759,-0.56,0.28,0.0,3.32,3.33,3.33,3.31,3.3,3.31,3.3,3.31,3.33,3.33,3.33,3.32,3.29,3.31,3.3,3.3,3.32,3.33,3.33,3.32,3.33,3.33,3.33,3.33,3.33,3.29,79.6,-1.0,1.0,0.0,1.0,1.0,4236013
1765222741056,0.0,0.0,1.0,10.0,0.0,0.0,0.0,0.0,0.0,0.0,-0.025376,0.01586,0.98759,-0.56,0.28,0.0,3.32,3.33,3.33,3.31,3.3,3.31,3.3,3.31,3.33,3.33,3.33,3.32,3.29,3.31,3.3,3.3,3.32,3.33,3.33,3.32,3.33,3.33,3.33,3.33,3.33,3.29,79.6,-1.0,1.0,0.0,1.0,1.0,4236030
1765222741072,0.0,0.0,1.0,10.0,0.0,0.0,0.0,0.0,0.0,0.0,-0.025376,0.013176,0.996984,-0.56,0.28,0.0,3.32,3.33,3.33,3.31,3.3,3.31,3.3,3.31,3.33,3.33,3.33,3.32,3.29,3.31,3.3,3.3,3.32,3.33,3.33,3.32,3.33,3.33,3.33,3.33,3.33,3.29,79.6,-1.0,1.0,0.0,1.0,1.0,4236046
1765222741122,0.0,0.0,1.0,10.0,0.0,0.0,0.0,0.0,0.0,0.0,-0.025376,0.013176,0.996984,-0.56,0.28,0.0,3.32,3.33,3.33,3.31,3.3,3.31,3.3,3.31,3.33,3.33,3.33,3.32,3.29,3.31,3.3,3.3,3.32,3.33,3.33,3.32,3.33,3.33,3.33,3.33,3.33,3.29,79.6,0.0,1.0,0.0,1.0,1.0,4236096
1765222741156,0.0,0.0,1.0,10.0,0.0,0.0,0.0,0.0,0.0,0.0,-0.025376,0.013176,0.996984,-0.56,0.28,0.0,3.32,3.33,3.33,3.31,3.3,3.31,3.3,3.31,3.33,3.33,3.33,3.32,3.29,3.31,3.3,3.3,3.32,3.33,3.33,3.32,3.33,3.33,3.33,3.33,3.33,3.29,79.6,0.0,1.0,0.0,1.0,1.0,4236130
1765222741172,0.0,0.0,1.0,10.0,0.0,0.0,0.0,0.0,0.0,0.0,-0.025376,0.015372,0.989054,-0.56,0.28,0.0,3.32,3.33,3.33,3.31,3.3,3.31,3.3,3.31,3.33,3.33,3.33,3.32,3.29,3.31,3.3,3.3,3.32,3.33,3.33,3.32,3.33,3.33,3.33,3.33,3.33,3.29,79.6,0.0,1.0,0.0,1.0,1.0,4236146
1765222741189,0.0,0.0,1.0,10.0,0.0,0.0,0.0,0.0,0.0,0.0,-0.025376,0.015372,0.989054,-0.6300000000000001,0.35000000000000003,0.0,3.32,3.33,3.33,3.31,3.3,3.31,3.3,3.31,3.33,3.33,3.33,3.32,3.29,3.31,3.3,3.3,3.32,3.33,3.33,3.32,3.33,3.33,3.33,3.33,3.33,3.29,79.6,0.0,1.0,0.0,1.0,1.0,4236163
1765222741206,0.0,0.0,1.0,10.0,0.0,0.0,0.0,0.0,0.0,0.0,-0.025376,0.015372,0.989054,-0.6300000000000001,0.35000000000000003,0.0,3.32,3.33,3.33,3.31,3.3,3.31,3.3,3.31,3.33,3.33,3.33,3.32,3.29,3.31,3.3,3.3,3.32,3.33,3.33,3.32,3.33,3.33,3.33,3.33,3.33,3.29,79.6,0.0,1.0,0.0,1.0,1.0,4236180
1765222741223,0.0,0.0,1.0,10.0,0.0,0.0,0.0,0.0,0.0,0.0,-0.025376,0.015372,0.989054,-0.6300000000000001,0.35000000000000003,0.0,3.32,3.33,3.33,3.31,3.3,3.31,3.3,3.31,3.33,3.33,3.33,3.32,3.29,3.31,3.3,3.3,3.32,3.33,3.33,3.32,3.33,3.33,3.33,3.33,3.33,3.29,79.6,0.0,1.0,0.0,1.0,1.0,4236197
1765222741239,0.0,0.0,1.0,10.0,0.0,0.0,0.0,0.0,0.0,0.0,-0.025376,0.015372,0.989054,-0.6300000000000001,0.35000000000000003,0.0,3.32,3.33,3.33,3.31,3.3,3.31,3.3,3.31,3.33,3.33,3.33,3.32,3.29,3.31,3.3,3.3,3.32,3.33,3.33,3.32,3.33,3.33,3.33,3.33,3.33,3.29,79.6,0.0,1.0,0.0,1.0,1.0,4236213
1765222741256,0.0,0.0,1.0,10.0,0.0,0.0,0.0,0.0,0.0,0.0,-0.025376,0.015372,0.989054,-0.6300000000000001,0.35000000000000003,0.0,3.32,3.33,3.33,3.31,3.3,3.31,3.3,3.31,3.33,3.33,3.33,3.32,3.29,3.31,3.3,3.3,3.32,3.33,3.33,3.32,3.33,3.33,3.33,3.33,3.33,3.29,79.6,0.0,1.0,0.0,1.0,1.0,4236230
1765222741289,0.0,0.0,1.0,10.0,0.0,0.0,0.0,0.0,0.0,0.0,-0.025376,0.015372,0.989054,-0.6300000000000001,0.35000000000000003,0.0,3.32,3.33,3.33,3.31,3.3,3.31,3.3,3.31,3.33,3.33,3.33,3.32,3.29,3.31,3.3,3.3,3.32,3.33,3.33,3.32,3.33,3.33,3.33,3.33,3.33,3.29,79.6,0.0,1.0,0.0,1.0,1.0,4236263
1765222741339,0.0,0.0,1.0,10.0,0.0,0.0,0.0,0.0,0.0,0.0,-0.025376,0.015372,0.989054,-0.6300000000000001,0.35000000000000003,0.0,3.32,3.33,3.33,3.31,3.3,3.31,3.3,3.31,3.33,3.33,3.33,3.32,3.29,3.31,3.3,3.3,3.32,3.33,3.33,3.32,3.33,3.33,3.33,3.33,3.33,3.29,79.6,0.0,1.0,0.0,1.0,1.0,4236313
1765222741370,0.0,0.0,1.0,10.0,0.0,0.0,0.0,0.0,0.0,0.0,-0.026352,0.013054,0.991128,-0.6300000000000001,0.35000000000000003,0.0,3.32,3.33,3.33,3.31,3.3,3.31,3.3,3.31,3.33,3.33,3.33,3.32,3.29,3.31,3.3,3.3,3.32,3.33,3.33,3.32,3.33,3.33,3.33,3.33,3.33,3.29,79.6,0.0,1.0,0.0,1.0,1.0,4236344
1765222741422,0.0,0.0,1.0,10.0,0.0,0.0,0.0,0.0,0.0,0.0,-0.026352,0.013054,0.991128,-0.7000000000000001,0.42000000000000004,0.07,3.32,3.33,3.33,3.31,3.3,3.31,3.3,3.31,3.33,3.33,3.33,3.32,3.29,3.31,3.3,3.3,3.32,3.33,3.33,3.32,3.33,3.33,3.33,3.33,3.33,3.29,79.6,0.0,1.0,0.0,1.0,1.0,4236396
1765222741456,0.0,0.0,1.0,10.0,0.0,0.0,0.0,0.0,0.0,0.0,-0.028914,0.01464,0.9958859999999999,-0.7000000000000001,0.42000000000000004,0.07,3.32,3.33,3.33,3.31,3.3,3.31,3.3,3.31,3.33,3.33,3.33,3.32,3.29,3.31,3.3,3.3,3.32,3.33,3.33,3.32,3.33,3.33,3.33,3.33,3.33,3.29,79.6,0.0,1.0,0.0,1.0,1.0,4236430
1765222741472,0.0,0.0,1.0,10.0,0.0,0.0,0.0,0.0,0.0,0.0,-0.028914,0.01464,0.9958859999999999,-0.6300000000000001,0.49000000000000005,0.07,3.32,3.33,3.33,3.31,3.3,3.31,3.3,3.31,3.33,3.33,3.33,3.32,3.29,3.31,3.3,3.3,3.32,3.33,3.33,3.32,3.33,3.33,3.33,3.33,3.33,3.29,79.6,0.0,1.0,0.0,1.0,1.0,4236446
1765222741489,0.0,0.0,1.0,10.0,0.0,0.0,0.0,0.0,0.0,0.0,-0.028914,0.01464,0.9958859999999999,-0.6300000000000001,0.49000000000000005,0.07,3.32,3.33,3.33,3.31,3.3,3.31,3.3,3.31,3.33,3.33,3.33,3.32,3.29,3.31,3.3,3.3,3.32,3.33,3.33,3.32,3.33,3.33,3.33,3.33,3.33,3.29,79.6,0.0,1.0,0.0,1.0,1.0,4236463
1765222741506,0.0,0.0,1.0,10.0,0.0,0.0,0.0,0.0,0.0,0.0,-0.028914,0.01464,0.9958859999999999,-0.6300000000000001,0.49000000000000005,0.07,3.32,3.33,3.33,3.31,3.3,3.31,3.3,3.31,3.33,3.33,3.33,3.32,3.29,3.31,3.3,3.3,3.32,3.33,3.33,3.32,3.33,3.33,3.33,3.33,3.33,3.29,79.6,0.0,1.0,0.0,1.0,1.0,4236480
1765222741539,0.0,0.0,1.0,10.0,0.0,0.0,0.0,0.0,0.0,0.0,-0.028914,0.01464,0.9958859999999999,-0.6300000000000001,0.49000000000000005,0.07,3.32,3.33,3.33,3.31,3.3,3.31,3.3,3.31,3.33,3.33,3.33,3.32,3.29,3.31,3.3,3.3,3.32,3.33,3.33,3.32,3.33,3.33,3.33,3.33,3.33,3.29,79.6,0.0,1.0,0.0,1.0,1.0,4236513
1765222741556,0.0,0.0,1.0,10.0,0.0,0.0,0.0,0.0,0.0,0.0,-0.028914,0.01464,0.9958859999999999,-0.6300000000000001,0.49000000000000005,0.07,3.32,3.33,3.33,3.31,3.3,3.31,3.3,3.31,3.33,3.33,3.33,3.32,3.29,3.31,3.3,3.3,3.32,3.33,3.33,3.32,3.33,3.33,3.33,3.33,3.33,3.29,79.6,0.0,1.0,0.0,1.0,1.0,4236530
1765222741571,0.0,0.0,1.0,10.0,0.0,0.0,0.0,0.0,0.0,0.0,-0.028914,0.01464,0.9958859999999999,-0.6300000000000001,0.49000000000000005,0.07,3.32,3.33,3.33,3.31,3.3,3.31,3.3,3.31,3.33,3.33,3.33,3.32,3.29,3.31,3.3,3.3,3.32,3.33,3.33,3.32,3.33,3.33,3.33,3.33,3.33,3.29,79.6,0.0,1.0,0.0,1.0,1.0,4236545
1765222741622,0.0,0.0,1.0,10.0,0.0,0.0,0.0,0.0,0.0,0.0,-0.028914,0.01464,0.9958859999999999,-0.6300000000000001,0.49000000000000005,0.07,3.32,3.33,3.33,3.31,3.3,3.31,3.3,3.31,3.33,3.33,3.33,3.32,3.29,3.31,3.3,3.3,3.32,3.33,3.33,3.32,3.33,3.33,3.33,3.33,3.33,3.29,79.6,0.0,1.0,0.0,1.0,1.0,4236596
1765222741656,0.0,0.0,1.0,10.0,0.0,0.0,0.0,0.0,0.0,0.0,-0.027327999999999998,0.015616,0.992958,-0.6300000000000001,0.49000000000000005,0.07,3.32,3.33,3.33,3.31,3.3,3.31,3.3,3.31,3.33,3.33,3.33,3.32,3.29,3.31,3.3,3.3,3.32,3.33,3.33,3.32,3.33,3.33,3.33,3.33,3.33,3.29,79.6,0.0,1.0,0.0,1.0,1.0,4236630
1765222741706,0.0,0.0,1.0,10.0,0.0,0.0,0.0,0.0,0.0,0.0,-0.027327999999999998,0.015616,0.992958,-0.7000000000000001,0.42000000000000004,-0.07,3.32,3.33,3.33,3.31,3.3,3.31,3.3,3.31,3.33,3.33,3.33,3.32,3.29,3.31,3.3,3.3,3.32,3.33,3.33,3.32,3.33,3.33,3.33,3.33,3.33,3.29,79.6,0.0,1.0,0.0,1.0,1.0,4236680
1765222741739,0.0,0.0,1.0,10.0,0.0,0.0,0.0,0.0,0.0,0.0,-0.026595999999999998,0.013908,0.990518,-0.7000000000000001,0.42000000000000004,-0.07,3.32,3.33,3.33,3.31,3.3,3.31,3.3,3.31,3.33,3.33,3.33,3.32,3.29,3.31,3.3,3.3,3.32,3.33,3.33,3.32,3.33,3.33,3.33,3.33,3.33,3.29,79.6,0.0,1.0,0.0,1.0,1.0,4236713
1765222741773,0.0,0.0,1.0,10.0,0.0,0.0,0.0,0.0,0.0,0.0,-0.026595999999999998,0.013908,0.990518,-0.7000000000000001,0.42000000000000004,-0.07,3.32,3.33,3.33,3.31,3.3,3.31,3.3,3.31,3.33,3.33,3.33,3.32,3.29,3.31,3.3,3.3,3.32,3.33,3.33,3.32,3.33,3.33,3.33,3.33,3.33,3.29,79.6,0.0,1.0,0.0,1.0,1.0,4236747
1765222741789,0.0,0.0,1.0,10.0,0.0,0.0,0.0,0.0,0.0,0.0,-0.026595999999999998,0.013908,0.990518,-0.6300000000000001,0.35000000000000003,0.0,3.32,3.33,3.33,3.31,3.3,3.31,3.3,3.31,3.33,3.33,3.33,3.32,3.29,3.31,3.3,3.3,3.32,3.33,3.33,3.32,3.33,3.33,3.33,3.33,3.33,3.29,79.6,0.0,1.0,0.0,1.0,1.0,4236763
1765222741873,0.0,0.0,1.0,10.0,0.0,0.0,0.0,0.0,0.0,0.0,-0.031476,0.014884,0.994544,-0.6300000000000001,0.35000000000000003,0.0,3.32,3.33,3.33,3.31,3.3,3.31,3.3,3.31,3.33,3.33,3.33,3.32,3.29,3.31,3.3,3.3,3.32,3.33,3.33,3.32,3.33,3.33,3.33,3.33,3.33,3.29,79.6,0.0,1.0,0.0,1.0,1.0,4236847
1765222741889,0.0,0.0,1.0,10.0,0.0,0.0,0.0,0.0,0.0,0.0,-0.031476,0.014884,0.994544,-0.6300000000000001,0.35000000000000003,0.0,3.32,3.33,3.33,3.31,3.3,3.31,3.3,3.31,3.33,3.33,3.33,3.32,3.29,3.31,3.3,3.3,3.32,3.33,3.33,3.32,3.33,3.33,3.33,3.33,3.33,3.29,79.6,0.0,1.0,0.0,1.0,1.0,4236863
1765222741905,0.0,0.0,1.0,10.0,0.0,0.0,0.0,0.0,0.0,0.0,-0.031476,0.014884,0.994544,-0.6300000000000001,0.42000000000000004,0.0,3.32,3.33,3.33,3.31,3.3,3.31,3.3,3.31,3.33,3.33,3.33,3.32,3.29,3.31,3.3,3.3,3.32,3.33,3.33,3.32,3.33,3.33,3.33,3.33,3.33,3.29,79.6,0.0,1.0,0.0,1.0,1.0,4236879
1765222741922,0.0,0.0,1.0,10.0,0.0,0.0,0.0,0.0,0.0,0.0,-0.031476,0.014884,0.994544,-0.6300000000000001,0.42000000000000004,0.0,3.32,3.33,3.33,3.31,3.3,3.31,3.3,3.31,3.33,3.33,3.33,3.32,3.29,3.31,3.3,3.3,3.32,3.33,3.33,3.32,3.33,3.33,3.33,3.33,3.33,3.29,79.6,0.0,1.0,0.0,1.0,1.0,4236896
1765222741955,0.0,0.0,1.0,10.0,0.0,0.0,0.0,0.0,0.0,0.0,-0.031476,0.014884,0.994544,-0.6300000000000001,0.42000000000000004,0.0,3.32,3.33,3.33,3.31,3.3,3.31,3.3,3.31,3.33,3.33,3.33,3.32,3.29,3.31,3.3,3.3,3.32,3.33,3.33,3.32,3.33,3.33,3.33,3.33,3.33,3.29,79.6,0.0,1.0,0.0,1.0,1.0,4236929
1765222741972,0.0,0.0,1.0,10.0,0.0,0.0,0.0,0.0,0.0,0.0,-0.031476,0.014884,0.994544,-0.6300000000000001,0.42000000000000004,0.0,3.32,3.33,3.33,3.31,3.3,3.31,3.3,3.31,3.33,3.33,3.33,3.32,3.29,3.31,3.3,3.3,3.32,3.33,3.33,3.32,3.33,3.33,3.33,3.33,3.33,3.29,79.6,0.0,1.0,0.0,1.0,1.0,4236946
1765222741989,0.0,0.0,1.0,10.0,0.0,0.0,0.0,0.0,0.0,0.0,-0.031476,0.014884,0.994544,-0.6300000000000001,0.42000000000000004,0.0,3.32,3.33,3.33,3.31,3.3,3.31,3.3,3.31,3.33,3.33,3.33,3.32,3.29,3.31,3.3,3.3,3.32,3.33,3.33,3.32,3.33,3.33,3.33,3.33,3.33,3.29,79.6,0.0,1.0,0.0,1.0,1.0,4236963
1765222742006,0.0,0.0,1.0,10.0,0.0,0.0,0.0,0.0,0.0,0.0,-0.031476,0.014884,0.994544,-0.6300000000000001,0.42000000000000004,0.0,3.32,3.33,3.33,3.31,3.3,3.31,3.3,3.31,3.33,3.33,3.33,3.32,3.29,3.31,3.3,3.3,3.32,3.33,3.33,3.32,3.33,3.33,3.33,3.33,3.33,3.29,79.6,0.0,1.0,0.0,1.0,1.0,4236980
1765222742022,0.0,0.0,1.0,10.0,0.0,0.0,0.0,0.0,0.0,0.0,-0.031476,0.014884,0.994544,-0.6300000000000001,0.42000000000000004,0.0,3.32,3.33,3.33,3.31,3.3,3.31,3.3,3.31,3.33,3.33,3.33,3.32,3.29,3.31,3.3,3.3,3.32,3.33,3.33,3.32,3.33,3.33,3.33,3.33,3.33,3.29,79.6,0.0,1.0,0.0,1.0,1.0,4236996
1765222742055,0.0,0.0,1.0,10.0,0.0,0.0,0.0,0.0,0.0,0.0,-0.031476,0.014884,0.994544,-0.6300000000000001,0.42000000000000004,0.0,3.32,3.33,3.33,3.31,3.3,3.31,3.3,3.31,3.33,3.33,3.33,3.32,3.29,3.31,3.3,3.3,3.32,3.33,3.33,3.32,3.33,3.33,3.33,3.33,3.33,3.29,79.6,0.0,1.0,0.0,1.0,1.0,4237029
1765222742122,0.0,0.0,1.0,10.0,0.0,0.0,0.0,0.0,0.0,0.0,-0.031476,0.014884,0.994544,-0.6300000000000001,0.42000000000000004,0.0,3.32,3.33,3.33,3.31,3.3,3.31,3.3,3.31,3.33,3.33,3.33,3.32,3.29,3.31,3.3,3.3,3.32,3.33,3.33,3.32,3.33,3.33,3.33,3.33,3.33,3.29,79.6,0.0,1.0,0.0,1.0,1.0,4237096
1765222742188,0.0,0.0,1.0,10.0,0.0,0.0,0.0,0.0,0.0,0.0,-0.02989,0.014761999999999999,0.989542,-0.6300000000000001,0.35000000000000003,0.0,3.32,3.33,3.33,3.31,3.3,3.31,3.3,3.31,3.33,3.33,3.33,3.32,3.29,3.31,3.3,3.3,3.32,3.33,3.33,3.32,3.33,3.33,3.33,3.33,3.33,3.29,79.6,0.0,1.0,0.0,1.0,1.0,4237162
1765222742255,0.0,0.0,1.0,10.0,0.0,0.0,0.0,0.0,0.0,0.0,-0.02989,0.014761999999999999,0.989542,-0.6300000000000001,0.35000000000000003,0.0,3.32,3.33,3.33,3.31,3.3,3.31,3.3,3.31,3.33,3.33,3.33,3.32,3.29,3.31,3.3,3.3,3.32,3.33,3.33,3.32,3.33,3.33,3.33,3.33,3.33,3.29,79.6,0.0,1.0,0.0,1.0,1.0,4237229
1765222742289,0.0,0.0,1.0,10.0,0.0,0.0,0.0,0.0,0.0,0.0,-0.028059999999999998,0.01525,0.9916159999999999,-0.6300000000000001,0.35000000000000003,0.0,3.32,3.33,3.33,3.31,3.3,3.31,3.3,3.31,3.33,3.33,3.33,3.32,3.29,3.31,3.3,3.3,3.32,3.33,3.33,3.32,3.33,3.33,3.33,3.33,3.33,3.29,79.6,0.0,1.0,0.0,1.0,1.0,4237263
1765222742306,0.0,0.0,1.0,10.0,0.0,0.0,0.0,0.0,0.0,0.0,-0.023667999999999998,0.016347999999999998,0.996252,-0.6300000000000001,0.35000000000000003,0.0,3.32,3.33,3.33,3.31,3.3,3.31,3.3,3.31,3.33,3.33,3.33,3.32,3.29,3.31,3.3,3.3,3.32,3.33,3.33,3.32,3.33,3.33,3.33,3.33,3.33,3.29,79.6,0.0,1.0,0.0,1.0,1.0,4237280
1765222742322,0.0,0.0,1.0,10.0,0.0,0.0,0.0,0.0,0.0,0.0,-0.023667999999999998,0.016347999999999998,0.996252,-0.6300000000000001,0.14,0.0,3.32,3.33,3.33,3.31,3.3,3.31,3.3,3.31,3.33,3.33,3.33,3.32,3.29,3.31,3.3,3.3,3.32,3.33,3.33,3.32,3.33,3.33,3.33,3.33,3.33,3.29,79.6,0.0,1.0,0.0,1.0,1.0,4237296
1765222742372,0.0,0.0,1.0,10.0,0.0,0.0,0.0,0.0,0.0,0.0,-0.028548,0.019032,0.989908,-0.6300000000000001,0.14,0.0,3.32,3.33,3.33,3.31,3.3,3.31,3.3,3.31,3.33,3.33,3.33,3.32,3.29,3.31,3.3,3.3,3.32,3.33,3.33,3.32,3.33,3.33,3.33,3.33,3.33,3.29,79.6,0.0,1.0,0.0,1.0,1.0,4237346
1765222742389,0.0,0.0,1.0,10.0,0.0,0.0,0.0,0.0,0.0,0.0,-0.028548,0.019032,0.989908,-0.6300000000000001,0.14,0.0,3.32,3.33,3.33,3.31,3.3,3.31,3.3,3.31,3.33,3.33,3.33,3.32,3.29,3.31,3.3,3.3,3.32,3.33,3.33,3.32,3.33,3.33,3.33,3.33,3.33,3.29,79.6,0.0,1.0,0.0,1.0,1.0,4237363
1765222742406,0.0,0.0,2.0,25.0,0.0,0.0,0.0,0.0,0.0,0.0,-0.028548,0.019032,0.989908,-0.6300000000000001,0.49000000000000005,-0.07,3.32,3.33,3.33,3.31,3.3,3.31,3.3,3.31,3.33,3.33,3.33,3.32,3.29,3.31,3.3,3.3,3.32,3.33,3.33,3.32,3.33,3.33,3.33,3.33,3.33,3.29,79.6,0.0,1.0,0.0,1.0,1.0,4237380
1765222742422,0.0,0.0,2.0,25.0,0.0,0.0,0.0,0.0,0.0,0.0,-0.028548,0.019032,0.989908,-0.6300000000000001,0.49000000000000005,-0.07,3.32,3.33,3.33,3.31,3.3,3.31,3.3,3.31,3.33,3.33,3.33,3.32,3.29,3.31,3.3,3.3,3.32,3.33,3.33,3.32,3.33,3.33,3.33,3.33,3.33,3.29,79.6,0.0,1.0,0.0,1.0,1.0,4237396
1765222742439,0.0,0.0,2.0,25.0,0.0,0.0,0.0,0.0,0.0,0.0,-0.028548,0.019032,0.989908,-0.6300000000000001,0.49000000000000005,-0.07,3.32,3.33,3.33,3.31,3.3,3.31,3.3,3.31,3.33,3.33,3.33,3.32,3.29,3.31,3.3,3.3,3.32,3.33,3.33,3.32,3.33,3.33,3.33,3.33,3.33,3.29,79.6,0.0,1.0,0.0,1.0,1.0,4237413
1765222742472,0.0,0.0,2.0,25.0,0.0,0.0,0.0,0.0,0.0,0.0,-0.028548,0.019032,0.989908,-0.6300000000000001,0.49000000000000005,-0.07,3.32,3.33,3.33,3.31,3.3,3.31,3.3,3.31,3.33,3.33,3.33,3.32,3.29,3.31,3.3,3.3,3.32,3.33,3.33,3.32,3.33,3.33,3.33,3.33,3.33,3.29,79.6,0.0,1.0,0.0,1.0,1.0,4237446
1765222742539,0.0,0.0,2.0,25.0,0.0,0.0,0.0,0.0,0.0,0.0,-0.028548,0.019032,0.989908,-0.6300000000000001,0.49000000000000005,-0.07,3.32,3.33,3.33,3.31,3.3,3.31,3.3,3.31,3.33,3.33,3.33,3.32,3.29,3.31,3.3,3.3,3.32,3.33,3.33,3.32,3.33,3.33,3.33,3.33,3.33,3.29,79.6,0.0,1.0,0.0,1.0,1.0,4237513
1765222742605,0.0,0.0,2.0,25.0,0.0,0.0,0.0,0.0,0.0,0.0,-0.030866,0.012444,0.993202,-0.6300000000000001,0.49000000000000005,-0.07,3.32,3.33,3.33,3.31,3.3,3.31,3.3,3.31,3.33,3.33,3.33,3.32,3.29,3.31,3.3,3.3,3.32,3.33,3.33,3.32,3.33,3.33,3.33,3.33,3.33,3.29,79.6,0.0,1.0,0.0,1.0,1.0,4237579
1765222742606,0.0,0.0,2.0,25.0,0.0,0.0,0.0,0.0,0.0,0.0,-0.030866,0.012444,0.993202,-0.6300000000000001,0.28,-0.07,3.32,3.33,3.33,3.31,3.3,3.31,3.3,3.31,3.33,3.33,3.33,3.32,3.29,3.31,3.3,3.3,3.32,3.33,3.33,3.32,3.33,3.33,3.33,3.33,3.33,3.29,79.6,0.0,1.0,0.0,1.0,1.0,4237580
1765222742655,0.0,0.0,2.0,25.0,0.0,0.0,0.0,0.0,0.0,0.0,-0.027694,0.011346,0.991738,-0.6300000000000001,0.28,-0.07,3.32,3.33,3.33,3.31,3.3,3.31,3.3,3.31,3.33,3.33,3.33,3.32,3.29,3.31,3.3,3.3,3.32,3.33,3.33,3.32,3.33,3.33,3.33,3.33,3.33,3.29,79.6,0.0,1.0,0.0,1.0,1.0,4237629
1765222742672,0.0,0.0,2.0,25.0,0.0,0.0,0.0,0.0,0.0,0.0,-0.027694,0.011346,0.991738,-0.6300000000000001,0.28,-0.07,3.32,3.33,3.33,3.31,3.3,3.31,3.3,3.31,3.33,3.33,3.33,3.32,3.29,3.31,3.3,3.3,3.32,3.33,3.33,3.32,3.33,3.33,3.33,3.33,3.33,3.29,79.6,0.0,1.0,0.0,1.0,1.0,4237646
1765222742689,0.0,0.0,2.0,25.0,0.0,0.0,0.0,0.0,0.0,0.0,-0.027694,0.011346,0.991738,-0.6300000000000001,0.28,-0.07,3.32,3.33,3.33,3.31,3.3,3.31,3.3,3.31,3.33,3.33,3.33,3.32,3.29,3.31,3.3,3.3,3.32,3.33,3.33,3.32,3.33,3.33,3.33,3.33,3.33,3.29,79.6,0.0,1.0,0.0,1.0,1.0,4237663
1765222742705,0.0,0.0,2.0,25.0,0.0,0.0,0.0,0.0,0.0,0.0,-0.027694,0.011346,0.991738,-0.6300000000000001,0.42000000000000004,0.0,3.32,3.33,3.33,3.31,3.3,3.31,3.3,3.31,3.33,3.33,3.33,3.32,3.29,3.31,3.3,3.3,3.32,3.33,3.33,3.32,3.33,3.33,3.33,3.33,3.33,3.29,79.6,0.0,1.0,0.0,1.0,1.0,4237679
1765222742722,0.0,0.0,2.0,25.0,0.0,0.0,0.0,0.0,0.0,0.0,-0.027694,0.011346,0.991738,-0.6300000000000001,0.42000000000000004,0.0,3.32,3.33,3.33,3.31,3.3,3.31,3.3,3.31,3.33,3.33,3.33,3.32,3.29,3.31,3.3,3.3,3.32,3.33,3.33,3.32,3.33,3.33,3.33,3.33,3.33,3.29,79.6,0.0,1.0,0.0,1.0,1.0,4237696
1765222742756,0.0,0.0,2.0,25.0,0.0,0.0,0.0,0.0,0.0,0.0,-0.027694,0.011346,0.991738,-0.6300000000000001,0.42000000000000004,0.0,3.32,3.33,3.33,3.31,3.3,3.31,3.3,3.31,3.33,3.33,3.33,3.32,3.29,3.31,3.3,3.3,3.32,3.33,3.33,3.32,3.33,3.33,3.33,3.33,3.33,3.29,79.6,0.0,1.0,0.0,1.0,1.0,4237730
1765222742789,0.0,0.0,2.0,25.0,0.0,0.0,0.0,0.0,0.0,0.0,-0.027694,0.011346,0.991738,-0.6300000000000001,0.42000000000000004,0.0,3.32,3.33,3.33,3.31,3.3,3.31,3.3,3.31,3.33,3.33,3.33,3.32,3.29,3.31,3.3,3.3,3.32,3.33,3.33,3.32,3.33,3.33,3.33,3.33,3.33,3.29,79.6,1.0,1.0,0.0,1.0,1.0,4237763
1765222742821,0.0,0.0,2.0,25.0,0.0,0.0,0.0,0.0,0.0,0.0,-0.027694,0.011346,0.991738,-0.6300000000000001,0.42000000000000004,0.0,3.32,3.33,3.33,3.31,3.3,3.31,3.3,3.31,3.33,3.33,3.33,3.32,3.29,3.31,3.3,3.3,3.32,3.33,3.33,3.32,3.33,3.33,3.33,3.33,3.33,3.29,79.6,1.0,1.0,0.0,1.0,1.0,4237795
1765222742838,0.0,0.0,2.0,25.0,0.0,0.0,0.0,0.0,0.0,0.0,-0.027694,0.011346,0.991738,-0.6300000000000001,0.42000000000000004,0.0,3.32,3.33,3.33,3.31,3.3,3.31,3.3,3.31,3.33,3.33,3.33,3.32,3.29,3.31,3.3,3.3,3.32,3.33,3.33,3.32,3.33,3.33,3.33,3.33,3.33,3.29,79.6,1.0,1.0,0.0,1.0,1.0,4237812
1765222742922,0.0,0.0,2.0,25.0,0.0,0.0,0.0,0.0,0.0,0.0,-0.026352,0.017079999999999998,0.9916159999999999,-0.56,0.35000000000000003,-0.07,3.32,3.33,3.33,3.31,3.3,3.31,3.3,3.31,3.33,3.33,3.33,3.32,3.29,3.31,3.3,3.3,3.32,3.33,3.33,3.32,3.33,3.33,3.33,3.33,3.33,3.29,79.6,1.0,1.0,0.0,1.0,1.0,4237896
1765222742939,0.0,0.0,2.0,25.0,0.0,0.0,0.0,0.0,0.0,0.0,-0.026352,0.017079999999999998,0.9916159999999999,-0.56,0.35000000000000003,-0.07,3.32,3.33,3.33,3.31,3.3,3.31,3.3,3.31,3.33,3.33,3.33,3.32,3.29,3.31,3.3,3.3,3.32,3.33,3.33,3.32,3.33,3.33,3.33,3.33,3.33,3.29,79.6,1.0,1.0,0.0,1.0,1.0,4237913
1765222742956,0.0,0.0,2.0,25.0,0.0,0.0,0.0,0.0,0.0,0.0,-0.027572,0.014029999999999999,0.993202,-0.56,0.35000000000000003,-0.07,3.32,3.33,3.33,3.31,3.3,3.31,3.3,3.31,3.33,3.33,3.33,3.32,3.29,3.31,3.3,3.3,3.32,3.33,3.33,3.32,3.33,3.33,3.33,3.33,3.33,3.29,79.6,1.0,1.0,0.0,1.0,1.0,4237930
1765222742988,0.0,0.0,2.0,25.0,0.0,0.0,0.0,0.0,0.0,0.0,-0.027572,0.014029999999999999,0.993202,-0.56,0.35000000000000003,-0.07,3.32,3.33,3.33,3.31,3.3,3.31,3.3,3.31,3.33,3.33,3.33,3.32,3.29,3.31,3.3,3.3,3.32,3.33,3.33,3.32,3.33,3.33,3.33,3.33,3.33,3.29,79.6,0.0,1.0,0.0,1.0,1.0,4237962
1765222743004,0.0,0.0,2.0,25.0,0.0,0.0,0.0,0.0,0.0,0.0,-0.027572,0.014029999999999999,0.993202,-0.56,0.35000000000000003,-0.07,3.32,3.33,3.33,3.31,3.3,3.31,3.3,3.31,3.33,3.33,3.33,3.32,3.29,3.31,3.3,3.3,3.32,3.33,3.33,3.32,3.33,3.33,3.33,3.33,3.33,3.29,79.6,0.0,1.0,0.0,1.0,1.0,4237978
1765222743039,0.0,0.0,2.0,25.0,0.0,0.0,0.0,0.0,0.0,0.0,-0.027572,0.014029999999999999,0.993202,-0.6300000000000001,0.35000000000000003,0.0,3.32,3.33,3.33,3.31,3.3,3.31,3.3,3.31,3.33,3.33,3.33,3.32,3.29,3.31,3.3,3.3,3.32,3.33,3.33,3.32,3.33,3.33,3.33,3.33,3.33,3.29,79.6,0.0,1.0,0.0,1.0,1.0,4238013
1765222743088,0.0,0.0,2.0,25.0,0.0,0.0,0.0,0.0,0.0,0.0,-0.025376,0.017202,0.99369,-0.6300000000000001,0.35000000000000003,0.0,3.32,3.33,3.33,3.31,3.3,3.31,3.3,3.31,3.33,3.33,3.33,3.32,3.29,3.31,3.3,3.3,3.32,3.33,3.33,3.32,3.33,3.33,3.33,3.33,3.33,3.29,79.6,0.0,1.0,0.0,1.0,1.0,4238062
1765222743105,0.0,0.0,2.0,25.0,0.0,0.0,0.0,0.0,0.0,0.0,-0.025376,0.017202,0.99369,-0.6300000000000001,0.42000000000000004,0.07,3.32,3.33,3.33,3.31,3.3,3.31,3.3,3.31,3.33,3.33,3.33,3.32,3.29,3.31,3.3,3.3,3.32,3.33,3.33,3.32,3.33,3.33,3.33,3.33,3.33,3.29,79.6,0.0,1.0,0.0,1.0,1.0,4238079
1765222743122,0.0,0.0,2.0,25.0,0.0,0.0,0.0,0.0,0.0,0.0,-0.025376,0.017202,0.99369,-0.6300000000000001,0.42000000000000004,0.07,3.32,3.33,3.33,3.31,3.3,3.31,3.3,3.31,3.33,3.33,3.33,3.32,3.29,3.31,3.3,3.3,3.32,3.33,3.33,3.32,3.33,3.33,3.33,3.33,3.33,3.29,79.6,0.0,1.0,0.0,1.0,1.0,4238096
1765222743139,0.0,0.0,2.0,25.0,0.0,0.0,0.0,0.0,0.0,0.0,-0.025376,0.017202,0.99369,-0.6300000000000001,0.42000000000000004,0.07,3.32,3.33,3.33,3.31,3.3,3.31,3.3,3.31,3.33,3.33,3.33,3.32,3.29,3.31,3.3,3.3,3.32,3.33,3.33,3.32,3.33,3.33,3.33,3.33,3.33,3.29,79.6,0.0,1.0,0.0,1.0,1.0,4238113
1765222743172,0.0,0.0,2.0,25.0,0.0,0.0,0.0,0.0,0.0,0.0,-0.025376,0.017202,0.99369,-0.6300000000000001,0.42000000000000004,0.07,3.32,3.33,3.33,3.31,3.3,3.31,3.3,3.31,3.33,3.33,3.33,3.32,3.29,3.31,3.3,3.3,3.32,3.33,3.33,3.32,3.33,3.33,3.33,3.33,3.33,3.29,79.6,0.0,1.0,0.0,1.0,1.0,4238146
1765222743205,0.0,0.0,2.0,25.0,0.0,0.0,0.0,0.0,0.0,0.0,-0.025376,0.017202,0.99369,-0.6300000000000001,0.42000000000000004,0.07,3.32,3.33,3.33,3.31,3.3,3.31,3.3,3.31,3.33,3.33,3.33,3.32,3.29,3.31,3.3,3.3,3.32,3.33,3.33,3.32,3.33,3.33,3.33,3.33,3.33,3.29,79.6,0.0,1.0,0.0,1.0,1.0,4238179
1765222743256,0.0,0.0,2.0,25.0,0.0,0.0,0.0,0.0,0.0,0.0,-0.025376,0.017202,0.99369,-0.6300000000000001,0.42000000000000004,0.07,3.32,3.33,3.33,3.31,3.3,3.31,3.3,3.31,3.33,3.33,3.33,3.32,3.29,3.31,3.3,3.3,3.32,3.33,3.33,3.32,3.33,3.33,3.33,3.33,3.33,3.29,79.6,0.0,1.0,0.0,1.0,1.0,4238230
1765222743289,0.0,0.0,2.0,25.0,0.0,0.0,0.0,0.0,0.0,0.0,-0.02562,0.016104,0.99247,-0.6300000000000001,0.42000000000000004,0.07,3.32,3.33,3.33,3.31,3.3,3.31,3.3,3.31,3.33,3.33,3.33,3.32,3.29,3.31,3.3,3.3,3.32,3.33,3.33,3.32,3.33,3.33,3.33,3.33,3.33,3.29,79.6,0.0,1.0,0.0,1.0,1.0,4238263
1765222743339,0.0,0.0,2.0,25.0,0.0,0.0,0.0,0.0,0.0,0.0,-0.02562,0.016104,0.99247,-0.77,0.49000000000000005,-0.07,3.32,3.33,3.33,3.31,3.3,3.31,3.3,3.31,3.33,3.33,3.33,3.32,3.29,3.31,3.3,3.3,3.32,3.33,3.33,3.32,3.33,3.33,3.33,3.33,3.33,3.29,79.6,0.0,1.0,0.0,1.0,1.0,4238313
1765222743371,0.0,0.0,2.0,25.0,0.0,0.0,0.0,0.0,0.0,0.0,-0.024034,0.013176,0.9910059999999999,-0.77,0.49000000000000005,-0.07,3.32,3.33,3.33,3.31,3.3,3.31,3.3,3.31,3.33,3.33,3.33,3.32,3.29,3.31,3.3,3.3,3.32,3.33,3.33,3.32,3.33,3.33,3.33,3.33,3.33,3.29,79.6,0.0,1.0,0.0,1.0,1.0,4238345
1765222743389,0.0,0.0,2.0,25.0,0.0,0.0,0.0,0.0,0.0,0.0,-0.024034,0.013176,0.9910059999999999,-0.56,0.42000000000000004,0.0,3.32,3.33,3.33,3.31,3.3,3.31,3.3,3.31,3.33,3.33,3.33,3.32,3.29,3.31,3.3,3.3,3.32,3.33,3.33,3.32,3.33,3.33,3.33,3.33,3.33,3.29,79.6,0.0,1.0,0.0,1.0,1.0,4238363
1765222743406,0.0,0.0,2.0,25.0,0.0,0.0,0.0,0.0,0.0,0.0,-0.024034,0.013176,0.9910059999999999,-0.56,0.42000000000000004,0.0,3.32,3.33,3.33,3.31,3.3,3.31,3.3,3.31,3.33,3.33,3.33,3.32,3.29,3.31,3.3,3.3,3.32,3.33,3.33,3.32,3.33,3.33,3.33,3.33,3.33,3.29,79.6,0.0,1.0,0.0,1.0,1.0,4238380
1765222743423,0.0,0.0,2.0,25.0,0.0,0.0,0.0,0.0,0.0,0.0,-0.024034,0.013176,0.9910059999999999,-0.56,0.42000000000000004,0.0,3.32,3.33,3.33,3.31,3.3,3.31,3.3,3.31,3.33,3.33,3.33,3.32,3.29,3.31,3.3,3.3,3.32,3.33,3.33,3.32,3.33,3.33,3.33,3.33,3.33,3.29,79.6,0.0,1.0,0.0,1.0,1.0,4238397
1765222743439,0.0,0.0,2.0,25.0,0.0,0.0,0.0,0.0,0.0,0.0,-0.024034,0.013176,0.9910059999999999,-0.56,0.42000000000000004,0.0,3.32,3.33,3.33,3.31,3.3,3.31,3.3,3.31,3.33,3.33,3.33,3.32,3.29,3.31,3.3,3.3,3.32,3.33,3.33,3.32,3.33,3.33,3.33,3.33,3.33,3.29,79.6,0.0,1.0,0.0,1.0,1.0,4238413
1765222743456,0.0,0.0,2.0,25.0,0.0,0.0,0.0,0.0,0.0,0.0,-0.024034,0.013176,0.9910059999999999,-0.56,0.42000000000000004,0.0,3.32,3.33,3.33,3.31,3.3,3.31,3.3,3.31,3.33,3.33,3.33,3.32,3.29,3.31,3.3,3.3,3.32,3.33,3.33,3.32,3.33,3.33,3.33,3.33,3.33,3.29,79.6,0.0,1.0,0.0,1.0,1.0,4238430
1765222743489,0.0,0.0,2.0,25.0,0.0,0.0,0.0,0.0,0.0,0.0,-0.024034,0.013176,0.9910059999999999,-0.56,0.42000000000000004,0.0,3.32,3.33,3.33,3.31,3.3,3.31,3.3,3.31,3.33,3.33,3.33,3.32,3.29,3.31,3.3,3.3,3.32,3.33,3.33,3.32,3.33,3.33,3.33,3.33,3.33,3.29,79.6,0.0,1.0,0.0,1.0,1.0,4238463
1765222743539,0.0,0.0,2.0,25.0,0.0,0.0,0.0,0.0,0.0,0.0,-0.024034,0.013176,0.9910059999999999,-0.56,0.42000000000000004,0.0,3.32,3.33,3.33,3.31,3.3,3.31,3.3,3.31,3.33,3.33,3.33,3.32,3.29,3.31,3.3,3.3,3.32,3.33,3.33,3.32,3.33,3.33,3.33,3.33,3.33,3.29,79.6,0.0,1.0,0.0,1.0,1.0,4238513
1765222743556,0.0,0.0,2.0,25.0,0.0,0.0,0.0,0.0,0.0,0.0,-0.024034,0.013176,0.9910059999999999,-0.56,0.42000000000000004,0.0,3.32,3.33,3.33,3.31,3.3,3.31,3.3,3.31,3.33,3.33,3.33,3.32,3.29,3.31,3.3,3.3,3.32,3.33,3.33,3.32,3.33,3.33,3.33,3.33,3.33,3.29,79.6,0.0,1.0,0.0,1.0,1.0,4238530
1765222743572,0.0,0.0,2.0,25.0,0.0,0.0,0.0,0.0,0.0,0.0,-0.024034,0.013176,0.9910059999999999,-0.56,0.42000000000000004,0.0,3.32,3.33,3.33,3.31,3.3,3.31,3.3,3.31,3.33,3.33,3.33,3.32,3.29,3.31,3.3,3.3,3.32,3.33,3.33,3.32,3.33,3.33,3.33,3.33,3.33,3.29,79.6,0.0,1.0,0.0,1.0,1.0,4238546
1765222743606,0.0,0.0,2.0,25.0,0.0,0.0,0.0,0.0,0.0,0.0,-0.024034,0.013176,0.9910059999999999,-0.56,0.42000000000000004,0.0,3.32,3.33,3.33,3.31,3.3,3.31,3.3,3.31,3.33,3.33,3.33,3.32,3.29,3.31,3.3,3.3,3.32,3.33,3.33,3.32,3.33,3.33,3.33,3.33,3.33,3.29,79.6,0.0,1.0,0.0,1.0,1.0,4238580
1765222743623,0.0,0.0,2.0,25.0,0.0,0.0,0.0,0.0,0.0,0.0,-0.024034,0.013176,0.9910059999999999,-0.56,0.42000000000000004,0.0,3.32,3.33,3.33,3.31,3.3,3.31,3.3,3.31,3.33,3.33,3.33,3.32,3.29,3.31,3.3,3.3,3.32,3.33,3.33,3.32,3.33,3.33,3.33,3.33,3.33,3.29,79.6,0.0,1.0,0.0,1.0,1.0,4238597
1765222743639,0.0,0.0,2.0,25.0,0.0,0.0,0.0,0.0,0.0,0.0,-0.025498,0.013176,0.992592,-0.56,0.42000000000000004,0.0,3.32,3.33,3.33,3.31,3.3,3.31,3.3,3.31,3.33,3.33,3.33,3.32,3.29,3.31,3.3,3.3,3.32,3.33,3.33,3.32,3.33,3.33,3.33,3.33,3.33,3.29,79.6,0.0,1.0,0.0,1.0,1.0,4238613
1765222743689,0.0,0.0,2.0,25.0,0.0,0.0,0.0,0.0,0.0,0.0,-0.025498,0.013176,0.992592,-0.6300000000000001,0.42000000000000004,-0.07,3.32,3.33,3.33,3.31,3.3,3.31,3.3,3.31,3.33,3.33,3.33,3.32,3.29,3.31,3.3,3.3,3.32,3.33,3.33,3.32,3.33,3.33,3.33,3.33,3.33,3.29,79.6,0.0,1.0,0.0,1.0,1.0,4238663
1765222743705,0.0,0.0,2.0,25.0,0.0,0.0,0.0,0.0,0.0,0.0,-0.025498,0.013176,0.992592,-0.6300000000000001,0.42000000000000004,-0.07,3.32,3.33,3.33,3.31,3.3,3.31,3.3,3.31,3.33,3.33,3.33,3.32,3.29,3.31,3.3,3.3,3.32,3.33,3.33,3.32,3.33,3.33,3.33,3.33,3.33,3.29,79.6,0.0,1.0,0.0,1.0,1.0,4238679
1765222743755,0.0,0.0,2.0,25.0,0.0,0.0,0.0,0.0,0.0,0.0,-0.025498,0.013176,0.992592,-0.6300000000000001,0.42000000000000004,-0.07,3.32,3.33,3.33,3.31,3.3,3.31,3.3,3.31,3.33,3.33,3.33,3.32,3.29,3.31,3.3,3.3,3.32,3.33,3.33,3.32,3.33,3.33,3.33,3.33,3.33,3.29,79.6,0.0,1.0,0.0,1.0,1.0,4238729
1765222743788,0.0,0.0,2.0,25.0,0.0,0.0,0.0,0.0,0.0,0.0,-0.025498,0.013176,0.992592,-0.6300000000000001,0.42000000000000004,-0.07,3.32,3.33,3.33,3.31,3.3,3.31,3.3,3.31,3.33,3.33,3.33,3.32,3.29,3.31,3.3,3.3,3.32,3.33,3.33,3.32,3.33,3.33,3.33,3.33,3.33,3.29,79.6,0.0,1.0,0.0,1.0,1.0,4238762
1765222743806,0.0,0.0,2.0,25.0,0.0,0.0,0.0,0.0,0.0,0.0,-0.025498,0.013176,0.992592,-0.6300000000000001,0.42000000000000004,-0.07,3.32,3.33,3.33,3.31,3.3,3.31,3.3,3.31,3.33,3.33,3.33,3.32,3.29,3.31,3.3,3.3,3.32,3.33,3.33,3.32,3.33,3.33,3.33,3.33,3.33,3.29,79.6,0.0,1.0,0.0,1.0,1.0,4238780
1765222743822,0.0,0.0,2.0,25.0,0.0,0.0,0.0,0.0,0.0,0.0,-0.025498,0.013176,0.992592,-0.6300000000000001,0.42000000000000004,-0.07,3.32,3.33,3.33,3.31,3.3,3.31,3.3,3.31,3.33,3.33,3.33,3.32,3.29,3.31,3.3,3.3,3.32,3.33,3.33,3.32,3.33,3.33,3.33,3.33,3.33,3.29,79.6,0.0,1.0,0.0,1.0,1.0,4238796
1765222743839,0.0,0.0,2.0,25.0,0.0,0.0,0.0,0.0,0.0,0.0,-0.025498,0.013176,0.992592,-0.6300000000000001,0.42000000000000004,-0.07,3.32,3.33,3.33,3.31,3.3,3.31,3.3,3.31,3.33,3.33,3.33,3.32,3.29,3.31,3.3,3.3,3.32,3.33,3.33,3.32,3.33,3.33,3.33,3.33,3.33,3.29,79.6,0.0,1.0,0.0,1.0,1.0,4238813
1765222743872,0.0,0.0,2.0,25.0,0.0,0.0,0.0,0.0,0.0,0.0,-0.026108,0.015493999999999999,0.9903959999999999,-0.6300000000000001,0.35000000000000003,0.0,3.32,3.33,3.33,3.31,3.3,3.31,3.3,3.31,3.33,3.33,3.33,3.32,3.29,3.31,3.3,3.3,3.32,3.33,3.33,3.32,3.33,3.33,3.33,3.33,3.33,3.29,79.6,0.0,1.0,0.0,1.0,1.0,4238846
1765222743905,0.0,0.0,2.0,25.0,0.0,0.0,0.0,0.0,0.0,0.0,-0.026108,0.015493999999999999,0.9903959999999999,-0.6300000000000001,0.35000000000000003,0.0,3.32,3.33,3.33,3.31,3.3,3.31,3.3,3.31,3.33,3.33,3.33,3.32,3.29,3.31,3.3,3.3,3.32,3.33,3.33,3.32,3.33,3.33,3.33,3.33,3.33,3.29,79.6,0.0,1.0,0.0,1.0,1.0,4238879
1765222743922,0.0,0.0,2.0,25.0,0.0,0.0,0.0,0.0,0.0,0.0,-0.026108,0.015493999999999999,0.9903959999999999,-0.6300000000000001,0.35000000000000003,0.0,3.32,3.33,3.33,3.31,3.3,3.31,3.3,3.31,3.33,3.33,3.33,3.32,3.29,3.31,3.3,3.3,3.32,3.33,3.33,3.32,3.33,3.33,3.33,3.33,3.33,3.29,79.6,0.0,1.0,0.0,1.0,1.0,4238896
1765222743953,0.0,0.0,2.0,25.0,0.0,0.0,0.0,0.0,0.0,0.0,-0.026108,0.015493999999999999,0.9903959999999999,-0.6300000000000001,0.35000000000000003,0.0,3.32,3.33,3.33,3.31,3.3,3.31,3.3,3.31,3.33,3.33,3.33,3.32,3.29,3.31,3.3,3.3,3.32,3.33,3.33,3.32,3.33,3.33,3.33,3.33,3.33,3.29,79.6,0.0,1.0,0.0,1.0,1.0,4238927
1765222743989,0.0,0.0,2.0,25.0,0.0,0.0,0.0,0.0,0.0,0.0,-0.026108,0.015493999999999999,0.9903959999999999,-0.6300000000000001,0.35000000000000003,0.0,3.32,3.33,3.33,3.31,3.3,3.31,3.3,3.31,3.33,3.33,3.33,3.32,3.29,3.31,3.3,3.3,3.32,3.33,3.33,3.32,3.33,3.33,3.33,3.33,3.33,3.29,79.6,0.0,1.0,0.0,1.0,1.0,4238963
1765222744023,0.0,0.0,2.0,25.0,0.0,0.0,0.0,0.0,0.0,0.0,-0.026108,0.015493999999999999,0.9903959999999999,-0.6300000000000001,0.35000000000000003,0.0,3.32,3.33,3.33,3.31,3.3,3.31,3.3,3.31,3.33,3.33,3.33,3.32,3.29,3.31,3.3,3.3,3.32,3.33,3.33,3.32,3.33,3.33,3.33,3.33,3.33,3.29,79.6,0.0,1.0,0.0,1.0,1.0,4238997
1765222744072,0.0,0.0,2.0,25.0,0.0,0.0,0.0,0.0,0.0,0.0,-0.025986,0.01586,0.9943,-0.6300000000000001,0.35000000000000003,0.0,3.32,3.33,3.33,3.31,3.3,3.31,3.3,3.31,3.33,3.33,3.33,3.32,3.29,3.31,3.3,3.3,3.32,3.33,3.33,3.32,3.33,3.33,3.33,3.33,3.33,3.29,79.6,0.0,1.0,0.0,1.0,1.0,4239046
1765222744105,0.0,0.0,2.0,25.0,0.0,0.0,0.0,0.0,0.0,0.0,-0.025986,0.01586,0.9943,-0.6300000000000001,0.35000000000000003,0.0,3.32,3.33,3.33,3.31,3.3,3.31,3.3,3.31,3.33,3.33,3.33,3.32,3.29,3.31,3.3,3.3,3.32,3.33,3.33,3.32,3.33,3.33,3.33,3.33,3.33,3.29,79.6,0.0,1.0,0.0,1.0,1.0,4239079
1765222744189,0.0,0.0,2.0,25.0,0.0,0.0,0.0,0.0,0.0,0.0,-0.025986,0.01586,0.9943,-0.7000000000000001,0.49000000000000005,-0.07,3.32,3.33,3.33,3.31,3.3,3.31,3.3,3.31,3.33,3.33,3.33,3.32,3.29,3.31,3.3,3.3,3.32,3.33,3.33,3.32,3.33,3.33,3.33,3.33,3.33,3.29,79.6,0.0,1.0,0.0,1.0,1.0,4239163
1765222744289,0.0,0.0,2.0,25.0,0.0,0.0,0.0,0.0,0.0,0.0,-0.025742,0.014884,0.991372,-0.7000000000000001,0.49000000000000005,-0.07,3.32,3.33,3.33,3.31,3.3,3.31,3.3,3.31,3.33,3.33,3.33,3.32,3.29,3.31,3.3,3.3,3.32,3.33,3.33,3.32,3.33,3.33,3.33,3.33,3.33,3.29,79.6,0.0,1.0,0.0,1.0,1.0,4239263
1765222744306,0.0,0.0,2.0,25.0,0.0,0.0,0.0,0.0,0.0,0.0,-0.025742,0.014884,0.991372,-0.56,0.28,-0.07,3.32,3.33,3.33,3.31,3.3,3.31,3.3,3.31,3.33,3.33,3.33,3.32,3.29,3.31,3.3,3.3,3.32,3.33,3.33,3.32,3.33,3.33,3.33,3.33,3.33,3.29,79.6,0.0,1.0,0.0,1.0,1.0,4239280
1765222744339,0.0,0.0,2.0,25.0,0.0,0.0,0.0,0.0,0.0,0.0,-0.025742,0.014884,0.991372,-0.56,0.28,-0.07,3.32,3.33,3.33,3.31,3.3,3.31,3.3,3.31,3.33,3.33,3.33,3.32,3.29,3.31,3.3,3.3,3.32,3.33,3.33,3.32,3.33,3.33,3.33,3.33,3.33,3.29,79.6,0.0,1.0,0.0,1.0,1.0,4239313
1765222744355,0.0,0.0,2.0,25.0,0.0,0.0,0.0,0.0,0.0,0.0,-0.025742,0.014884,0.991372,-0.56,0.28,-0.07,3.32,3.33,3.33,3.31,3.3,3.31,3.3,3.31,3.33,3.33,3.33,3.32,3.29,3.31,3.3,3.3,3.32,3.33,3.33,3.32,3.33,3.33,3.33,3.33,3.33,3.29,79.6,0.0,1.0,0.0,1.0,1.0,4239329
1765222744372,0.0,0.0,2.0,25.0,0.0,0.0,0.0,0.0,0.0,0.0,-0.025742,0.014884,0.991372,-0.56,0.28,-0.07,3.32,3.33,3.33,3.31,3.3,3.31,3.3,3.31,3.33,3.33,3.33,3.32,3.29,3.31,3.3,3.3,3.32,3.33,3.33,3.32,3.33,3.33,3.33,3.33,3.33,3.29,79.6,0.0,1.0,0.0,1.0,1.0,4239346
1765222744406,0.0,0.0,2.0,25.0,0.0,0.0,0.0,0.0,0.0,0.0,-0.025742,0.014884,0.991372,-0.56,0.28,-0.07,3.32,3.33,3.33,3.31,3.3,3.31,3.3,3.31,3.33,3.33,3.33,3.32,3.29,3.31,3.3,3.3,3.32,3.33,3.33,3.32,3.33,3.33,3.33,3.33,3.33,3.29,79.6,0.0,1.0,0.0,1.0,1.0,4239380
1765222744439,0.0,0.0,2.0,25.0,0.0,0.0,0.0,0.0,0.0,0.0,-0.026718,0.014029999999999999,0.993812,-0.56,0.28,-0.07,3.32,3.33,3.33,3.31,3.3,3.31,3.3,3.31,3.33,3.33,3.33,3.32,3.29,3.31,3.3,3.3,3.32,3.33,3.33,3.32,3.33,3.33,3.33,3.33,3.33,3.29,79.6,0.0,1.0,0.0,1.0,1.0,4239413
1765222744472,0.0,0.0,2.0,25.0,0.0,0.0,0.0,0.0,0.0,0.0,-0.026718,0.014029999999999999,0.993812,-0.56,0.28,-0.07,3.32,3.33,3.33,3.31,3.3,3.31,3.3,3.31,3.33,3.33,3.33,3.32,3.29,3.31,3.3,3.3,3.32,3.33,3.33,3.32,3.33,3.33,3.33,3.33,3.33,3.29,79.6,0.0,1.0,0.0,1.0,1.0,4239446
1765222744489,0.0,0.0,2.0,25.0,0.0,0.0,0.0,0.0,0.0,0.0,-0.026718,0.014029999999999999,0.993812,-0.6300000000000001,0.35000000000000003,0.0,3.32,3.33,3.33,3.31,3.3,3.31,3.3,3.31,3.33,3.33,3.33,3.32,3.29,3.31,3.3,3.3,3.32,3.33,3.33,3.32,3.33,3.33,3.33,3.33,3.33,3.29,79.6,0.0,1.0,0.0,1.0,1.0,4239463
1765222744572,0.0,0.0,2.0,25.0,0.0,0.0,0.0,0.0,0.0,0.0,-0.027938,0.014761999999999999,0.991494,-0.6300000000000001,0.35000000000000003,0.0,3.32,3.33,3.33,3.31,3.3,3.31,3.3,3.31,3.33,3.33,3.33,3.32,3.29,3.31,3.3,3.3,3.32,3.33,3.33,3.32,3.33,3.33,3.33,3.33,3.33,3.29,79.6,0.0,1.0,0.0,1.0,1.0,4239546
1765222744588,0.0,0.0,2.0,25.0,0.0,0.0,0.0,0.0,0.0,0.0,-0.027938,0.014761999999999999,0.991494,-0.6300000000000001,0.35000000000000003,0.0,3.32,3.33,3.33,3.31,3.3,3.31,3.3,3.31,3.33,3.33,3.33,3.32,3.29,3.31,3.3,3.3,3.32,3.33,3.33,3.32,3.33,3.33,3.33,3.33,3.33,3.29,79.6,0.0,1.0,0.0,1.0,1.0,4239562
1765222744605,0.0,0.0,2.0,25.0,0.0,0.0,0.0,0.0,0.0,0.0,-0.027938,0.014761999999999999,0.991494,-0.6300000000000001,0.35000000000000003,0.0,3.32,3.33,3.33,3.31,3.3,3.31,3.3,3.31,3.33,3.33,3.33,3.32,3.29,3.31,3.3,3.3,3.32,3.33,3.33,3.32,3.33,3.33,3.33,3.33,3.33,3.29,79.6,-1.0,1.0,0.0,1.0,1.0,4239579
1765222744622,0.0,0.0,2.0,25.0,0.0,0.0,0.0,0.0,0.0,0.0,-0.027938,0.014761999999999999,0.991494,-0.6300000000000001,0.35000000000000003,0.0,3.32,3.33,3.33,3.31,3.3,3.31,3.3,3.31,3.33,3.33,3.33,3.32,3.29,3.31,3.3,3.3,3.32,3.33,3.33,3.32,3.33,3.33,3.33,3.33,3.33,3.29,79.6,-1.0,1.0,0.0,1.0,1.0,4239596
1765222744656,0.0,0.0,2.0,25.0,0.0,0.0,0.0,0.0,0.0,0.0,-0.027938,0.014761999999999999,0.991494,-0.6300000000000001,0.35000000000000003,0.0,3.32,3.33,3.33,3.31,3.3,3.31,3.3,3.31,3.33,3.33,3.33,3.32,3.29,3.31,3.3,3.3,3.32,3.33,3.33,3.32,3.33,3.33,3.33,3.33,3.33,3.29,79.6,-1.0,1.0,0.0,1.0,1.0,4239630
1765222744689,0.0,0.0,2.0,25.0,0.0,0.0,0.0,0.0,0.0,0.0,-0.027938,0.014761999999999999,0.991494,-0.6300000000000001,0.35000000000000003,0.0,3.32,3.33,3.33,3.31,3.3,3.31,3.3,3.31,3.33,3.33,3.33,3.32,3.29,3.31,3.3,3.3,3.32,3.33,3.33,3.32,3.33,3.33,3.33,3.33,3.33,3.29,79.6,-1.0,1.0,0.0,1.0,1.0,4239663
1765222744706,0.0,0.0,2.0,25.0,0.0,0.0,0.0,0.0,0.0,0.0,-0.027938,0.014761999999999999,0.991494,-0.6300000000000001,0.35000000000000003,0.0,3.32,3.33,3.33,3.31,3.3,3.31,3.3,3.31,3.33,3.33,3.33,3.32,3.29,3.31,3.3,3.3,3.32,3.33,3.33,3.32,3.33,3.33,3.33,3.33,3.33,3.29,79.6,-1.0,1.0,0.0,1.0,1.0,4239680
1765222744722,0.0,0.0,2.0,25.0,0.0,0.0,0.0,0.0,0.0,0.0,-0.027938,0.014761999999999999,0.991494,-0.6300000000000001,0.35000000000000003,0.0,3.32,3.33,3.33,3.31,3.3,3.31,3.3,3.31,3.33,3.33,3.33,3.32,3.29,3.31,3.3,3.3,3.32,3.33,3.33,3.32,3.33,3.33,3.33,3.33,3.33,3.29,79.6,-1.0,1.0,0.0,1.0,1.0,4239696
1765222744787,0.0,0.0,2.0,25.0,0.0,0.0,0.0,0.0,0.0,0.0,-0.027938,0.014761999999999999,0.991494,-0.6300000000000001,0.35000000000000003,0.0,3.32,3.33,3.33,3.31,3.3,3.31,3.3,3.31,3.33,3.33,3.33,3.32,3.29,3.31,3.3,3.3,3.32,3.33,3.33,3.32,3.33,3.33,3.33,3.33,3.33,3.29,79.6,-1.0,1.0,0.0,1.0,1.0,4239761
1765222744804,0.0,0.0,2.0,25.0,0.0,0.0,0.0,0.0,0.0,0.0,-0.027938,0.014761999999999999,0.991494,-0.6300000000000001,0.35000000000000003,0.0,3.32,3.33,3.33,3.31,3.3,3.31,3.3,3.31,3.33,3.33,3.33,3.32,3.29,3.31,3.3,3.3,3.32,3.33,3.33,3.32,3.33,3.33,3.33,3.33,3.33,3.29,79.6,-1.0,1.0,0.0,1.0,1.0,4239778
1765222744822,0.0,0.0,2.0,25.0,0.0,0.0,0.0,0.0,0.0,0.0,-0.027938,0.014761999999999999,0.991494,-0.6300000000000001,0.35000000000000003,0.0,3.32,3.33,3.33,3.31,3.3,3.31,3.3,3.31,3.33,3.33,3.33,3.32,3.29,3.31,3.3,3.3,3.32,3.33,3.33,3.32,3.33,3.33,3.33,3.33,3.33,3.29,79.6,-1.0,1.0,0.0,1.0,1.0,4239796
1765222744838,0.0,0.0,2.0,25.0,0.0,0.0,0.0,0.0,0.0,0.0,-0.027938,0.014761999999999999,0.991494,-0.6300000000000001,0.35000000000000003,0.0,3.32,3.33,3.33,3.31,3.3,3.31,3.3,3.31,3.33,3.33,3.33,3.32,3.29,3.31,3.3,3.3,3.32,3.33,3.33,3.32,3.33,3.33,3.33,3.33,3.33,3.29,79.6,-1.0,1.0,0.0,1.0,1.0,4239812
1765222744855,0.0,0.0,2.0,25.0,0.0,0.0,0.0,0.0,0.0,0.0,-0.026595999999999998,0.01525,0.991738,-0.6300000000000001,0.35000000000000003,0.0,3.32,3.33,3.33,3.31,3.3,3.31,3.3,3.31,3.33,3.33,3.33,3.32,3.29,3.31,3.3,3.3,3.32,3.33,3.33,3.32,3.33,3.33,3.33,3.33,3.33,3.29,79.6,-1.0,1.0,0.0,1.0,1.0,4239829
1765222744872,0.0,0.0,2.0,25.0,0.0,0.0,0.0,0.0,0.0,0.0,-0.026595999999999998,0.01525,0.991738,-0.6300000000000001,0.35000000000000003,0.0,3.32,3.33,3.33,3.31,3.3,3.31,3.3,3.31,3.33,3.33,3.33,3.32,3.29,3.31,3.3,3.3,3.32,3.33,3.33,3.32,3.33,3.33,3.33,3.33,3.33,3.29,79.6,-1.0,1.0,0.0,1.0,1.0,4239846
1765222744889,0.0,0.0,2.0,25.0,0.0,0.0,0.0,0.0,0.0,0.0,-0.026595999999999998,0.01525,0.991738,-0.6300000000000001,0.42000000000000004,0.0,3.32,3.33,3.33,3.31,3.3,3.31,3.3,3.31,3.33,3.33,3.33,3.32,3.29,3.31,3.3,3.3,3.32,3.33,3.33,3.32,3.33,3.33,3.33,3.33,3.33,3.29,79.6,-1.0,1.0,0.0,1.0,1.0,4239863
1765222744939,0.0,0.0,2.0,25.0,0.0,0.0,0.0,0.0,0.0,0.0,-0.026595999999999998,0.01525,0.991738,-0.6300000000000001,0.42000000000000004,0.0,3.32,3.33,3.33,3.31,3.3,3.31,3.3,3.31,3.33,3.33,3.33,3.32,3.29,3.31,3.3,3.3,3.32,3.33,3.33,3.32,3.33,3.33,3.33,3.33,3.33,3.29,79.6,-1.0,1.0,0.0,1.0,1.0,4239913
1765222745022,0.0,0.0,2.0,25.0,0.0,0.0,0.0,0.0,0.0,0.0,-0.026595999999999998,0.014029999999999999,0.992714,-0.6300000000000001,0.42000000000000004,0.0,3.32,3.33,3.33,3.31,3.3,3.31,3.3,3.31,3.33,3.33,3.33,3.32,3.29,3.31,3.3,3.3,3.32,3.33,3.33,3.32,3.33,3.33,3.33,3.33,3.33,3.29,79.6,-1.0,1.0,0.0,1.0,1.0,4239996
1765222745039,0.0,0.0,2.0,25.0,0.0,0.0,0.0,0.0,0.0,0.0,-0.026595999999999998,0.014029999999999999,0.992714,-0.7000000000000001,0.35000000000000003,-0.07,3.32,3.33,3.33,3.31,3.3,3.31,3.3,3.31,3.33,3.33,3.33,3.32,3.29,3.31,3.3,3.3,3.32,3.33,3.33,3.32,3.33,3.33,3.33,3.33,3.33,3.29,79.6,-1.0,1.0,0.0,1.0,1.0,4240013
1765222745088,0.0,0.0,2.0,25.0,0.0,0.0,0.0,0.0,0.0,0.0,-0.026595999999999998,0.014029999999999999,0.992714,-0.7000000000000001,0.35000000000000003,-0.07,3.32,3.33,3.33,3.31,3.3,3.31,3.3,3.31,3.33,3.33,3.33,3.32,3.29,3.31,3.3,3.3,3.32,3.33,3.33,3.32,3.33,3.33,3.33,3.33,3.33,3.29,79.6,-1.0,1.0,0.0,1.0,1.0,4240062
1765222745106,0.0,0.0,2.0,25.0,0.0,0.0,0.0,0.0,0.0,0.0,-0.026595999999999998,0.014029999999999999,0.992714,-0.7000000000000001,0.35000000000000003,-0.07,3.32,3.33,3.33,3.31,3.3,3.31,3.3,3.31,3.33,3.33,3.33,3.32,3.29,3.31,3.3,3.3,3.32,3.33,3.33,3.32,3.33,3.33,3.33,3.33,3.33,3.29,79.6,-1.0,1.0,0.0,1.0,1.0,4240080
1765222745122,0.0,0.0,2.0,25.0,0.0,0.0,0.0,0.0,0.0,0.0,-0.026595999999999998,0.014029999999999999,0.992714,-0.7000000000000001,0.35000000000000003,-0.07,3.32,3.33,3.33,3.31,3.3,3.31,3.3,3.31,3.33,3.33,3.33,3.32,3.29,3.31,3.3,3.3,3.32,3.33,3.33,3.32,3.33,3.33,3.33,3.33,3.33,3.29,79.6,-1.0,1.0,0.0,1.0,1.0,4240096
1765222745139,0.0,0.0,2.0,25.0,0.0,0.0,0.0,0.0,0.0,0.0,-0.026352,0.014395999999999999,0.992104,-0.7000000000000001,0.35000000000000003,-0.07,3.32,3.33,3.33,3.31,3.3,3.31,3.3,3.31,3.33,3.33,3.33,3.32,3.29,3.31,3.3,3.3,3.32,3.33,3.33,3.32,3.33,3.33,3.33,3.33,3.33,3.29,79.6,-1.0,1.0,0.0,1.0,1.0,4240113
1765222745172,0.0,0.0,2.0,25.0,0.0,0.0,0.0,0.0,0.0,0.0,-0.026352,0.014395999999999999,0.992104,-0.7000000000000001,0.35000000000000003,-0.07,3.32,3.33,3.33,3.31,3.3,3.31,3.3,3.31,3.33,3.33,3.33,3.32,3.29,3.31,3.3,3.3,3.32,3.33,3.33,3.32,3.33,3.33,3.33,3.33,3.33,3.29,79.6,-1.0,1.0,0.0,1.0,1.0,4240146
1765222745206,0.0,0.0,2.0,25.0,0.0,0.0,0.0,0.0,0.0,0.0,-0.026352,0.014395999999999999,0.992104,-0.7000000000000001,0.42000000000000004,0.0,3.32,3.33,3.33,3.31,3.3,3.31,3.3,3.31,3.33,3.33,3.33,3.32,3.29,3.31,3.3,3.3,3.32,3.33,3.33,3.32,3.33,3.33,3.33,3.33,3.33,3.29,79.6,-1.0,1.0,0.0,1.0,1.0,4240180
1765222745222,0.0,0.0,2.0,25.0,0.0,0.0,0.0,0.0,0.0,0.0,-0.026352,0.014395999999999999,0.992104,-0.7000000000000001,0.42000000000000004,0.0,3.32,3.33,3.33,3.31,3.3,3.31,3.3,3.31,3.33,3.33,3.33,3.32,3.29,3.31,3.3,3.3,3.32,3.33,3.33,3.32,3.33,3.33,3.33,3.33,3.33,3.29,79.6,-1.0,1.0,0.0,1.0,1.0,4240196
1765222745305,0.0,0.0,2.0,25.0,0.0,0.0,0.0,0.0,0.0,0.0,-0.023302,0.015616,0.9922259999999999,-0.7000000000000001,0.42000000000000004,0.0,3.32,3.33,3.33,3.31,3.3,3.31,3.3,3.31,3.33,3.33,3.33,3.32,3.29,3.31,3.3,3.3,3.32,3.33,3.33,3.32,3.33,3.33,3.33,3.33,3.33,3.29,79.6,-1.0,1.0,0.0,1.0,1.0,4240279
1765222745322,0.0,0.0,2.0,25.0,0.0,0.0,0.0,0.0,0.0,0.0,-0.023302,0.015616,0.9922259999999999,-0.6300000000000001,0.42000000000000004,0.0,3.32,3.33,3.33,3.31,3.3,3.31,3.3,3.31,3.33,3.33,3.33,3.32,3.29,3.31,3.3,3.3,3.32,3.33,3.33,3.32,3.33,3.33,3.33,3.33,3.33,3.29,79.6,-1.0,1.0,0.0,1.0,1.0,4240296
1765222745339,0.0,0.0,2.0,25.0,0.0,0.0,0.0,0.0,0.0,0.0,-0.023302,0.015616,0.9922259999999999,-0.6300000000000001,0.42000000000000004,0.0,3.32,3.33,3.33,3.31,3.3,3.31,3.3,3.31,3.33,3.33,3.33,3.32,3.29,3.31,3.3,3.3,3.32,3.33,3.33,3.32,3.33,3.33,3.33,3.33,3.33,3.29,79.6,-1.0,1.0,0.0,1.0,1.0,4240313
1765222745356,0.0,0.0,2.0,25.0,0.0,0.0,0.0,0.0,0.0,0.0,-0.023302,0.015616,0.9922259999999999,-0.6300000000000001,0.42000000000000004,0.0,3.32,3.33,3.33,3.31,3.3,3.31,3.3,3.31,3.33,3.33,3.33,3.32,3.29,3.31,3.3,3.3,3.32,3.33,3.33,3.32,3.33,3.33,3.33,3.33,3.33,3.29,79.6,-1.0,1.0,0.0,1.0,1.0,4240330
1765222745422,0.0,0.0,2.0,25.0,0.0,0.0,0.0,0.0,0.0,0.0,-0.024888,0.014152,0.991372,-0.6300000000000001,0.42000000000000004,0.0,3.32,3.33,3.33,3.31,3.3,3.31,3.3,3.31,3.33,3.33,3.33,3.32,3.29,3.31,3.3,3.3,3.32,3.33,3.33,3.32,3.33,3.33,3.33,3.33,3.33,3.29,79.6,-1.0,1.0,0.0,1.0,1.0,4240396
1765222745455,0.0,0.0,2.0,25.0,0.0,0.0,0.0,0.0,0.0,0.0,-0.024888,0.014152,0.991372,-0.6300000000000001,0.28,0.0,3.32,3.33,3.33,3.31,3.3,3.31,3.3,3.31,3.33,3.33,3.33,3.32,3.29,3.31,3.3,3.3,3.32,3.33,3.33,3.32,3.33,3.33,3.33,3.33,3.33,3.29,79.6,-1.0,1.0,0.0,1.0,1.0,4240429
1765222745505,0.0,0.0,2.0,25.0,0.0,0.0,0.0,0.0,0.0,0.0,-0.024888,0.014152,0.991372,-0.6300000000000001,0.28,0.0,3.32,3.33,3.33,3.31,3.3,3.31,3.3,3.31,3.33,3.33,3.33,3.32,3.29,3.31,3.3,3.3,3.32,3.33,3.33,3.32,3.33,3.33,3.33,3.33,3.33,3.29,79.6,-1.0,1.0,0.0,1.0,1.0,4240479
1765222745522,0.0,0.0,2.0,25.0,0.0,0.0,0.0,0.0,0.0,0.0,-0.024888,0.014152,0.991372,-0.6300000000000001,0.28,0.0,3.32,3.33,3.33,3.31,3.3,3.31,3.3,3.31,3.33,3.33,3.33,3.32,3.29,3.31,3.3,3.3,3.32,3.33,3.33,3.32,3.33,3.33,3.33,3.33,3.33,3.29,79.6,-1.0,1.0,0.0,1.0,1.0,4240496
1765222745539,0.0,0.0,2.0,25.0,0.0,0.0,0.0,0.0,0.0,0.0,-0.025254,0.015616,0.992592,-0.6300000000000001,0.28,0.0,3.32,3.33,3.33,3.31,3.3,3.31,3.3,3.31,3.33,3.33,3.33,3.32,3.29,3.31,3.3,3.3,3.32,3.33,3.33,3.32,3.33,3.33,3.33,3.33,3.33,3.29,79.6,-1.0,1.0,0.0,1.0,1.0,4240513
1765222745557,0.0,0.0,2.0,25.0,0.0,0.0,0.0,0.0,0.0,0.0,-0.025254,0.015616,0.992592,-0.6300000000000001,0.28,0.0,3.32,3.33,3.33,3.31,3.3,3.31,3.3,3.31,3.33,3.33,3.33,3.32,3.29,3.31,3.3,3.3,3.32,3.33,3.33,3.32,3.33,3.33,3.33,3.33,3.33,3.29,79.6,-1.0,1.0,0.0,1.0,1.0,4240531
1765222745571,0.0,0.0,2.0,25.0,0.0,0.0,0.0,0.0,0.0,0.0,-0.025254,0.015616,0.992592,-0.6300000000000001,0.28,0.0,3.32,3.33,3.33,3.31,3.3,3.31,3.3,3.31,3.33,3.33,3.33,3.32,3.29,3.31,3.3,3.3,3.32,3.33,3.33,3.32,3.33,3.33,3.33,3.33,3.33,3.29,79.6,-1.0,1.0,0.0,1.0,1.0,4240545
1765222745589,0.0,0.0,2.0,25.0,0.0,0.0,0.0,0.0,0.0,0.0,-0.025254,0.015616,0.992592,-0.6300000000000001,0.28,0.0,3.32,3.33,3.33,3.31,3.3,3.31,3.3,3.31,3.33,3.33,3.33,3.32,3.29,3.31,3.3,3.3,3.32,3.33,3.33,3.32,3.33,3.33,3.33,3.33,3.33,3.29,79.6,-1.0,1.0,0.0,1.0,1.0,4240563
1765222745605,0.0,0.0,2.0,25.0,0.0,0.0,0.0,0.0,0.0,0.0,-0.025254,0.015616,0.992592,-0.6300000000000001,0.28,0.0,3.32,3.33,3.33,3.31,3.3,3.31,3.3,3.31,3.33,3.33,3.33,3.32,3.29,3.31,3.3,3.3,3.32,3.33,3.33,3.32,3.33,3.33,3.33,3.33,3.33,3.29,79.6,-1.0,1.0,0.0,1.0,1.0,4240579
1765222745623,0.0,0.0,2.0,25.0,0.0,0.0,0.0,0.0,0.0,0.0,-0.025254,0.015616,0.992592,-0.6300000000000001,0.28,0.0,3.32,3.33,3.33,3.31,3.3,3.31,3.3,3.31,3.33,3.33,3.33,3.32,3.29,3.31,3.3,3.3,3.32,3.33,3.33,3.32,3.33,3.33,3.33,3.33,3.33,3.29,79.6,-1.0,1.0,0.0,1.0,1.0,4240597
1765222745637,0.0,0.0,2.0,25.0,0.0,0.0,0.0,0.0,0.0,0.0,-0.025254,0.015616,0.992592,-0.6300000000000001,0.28,0.0,3.32,3.33,3.33,3.31,3.3,3.31,3.3,3.31,3.33,3.33,3.33,3.32,3.29,3.31,3.3,3.3,3.32,3.33,3.33,3.32,3.33,3.33,3.33,3.33,3.33,3.29,79.6,-1.0,1.0,0.0,1.0,1.0,4240611
1765222745654,0.0,0.0,2.0,25.0,0.0,0.0,0.0,0.0,0.0,0.0,-0.025254,0.015616,0.992592,-0.6300000000000001,0.28,0.0,3.32,3.33,3.33,3.31,3.3,3.31,3.3,3.31,3.33,3.33,3.33,3.32,3.29,3.31,3.3,3.3,3.32,3.33,3.33,3.32,3.33,3.33,3.33,3.33,3.33,3.29,79.6,-1.0,1.0,0.0,1.0,1.0,4240628
1765222745706,0.0,0.0,2.0,25.0,0.0,0.0,0.0,0.0,0.0,0.0,-0.025254,0.015616,0.992592,-0.6300000000000001,0.28,0.0,3.32,3.33,3.33,3.31,3.3,3.31,3.3,3.31,3.33,3.33,3.33,3.32,3.29,3.31,3.3,3.3,3.32,3.33,3.33,3.32,3.33,3.33,3.33,3.33,3.33,3.29,79.6,-1.0,1.0,0.0,1.0,1.0,4240680
1765222745722,0.0,0.0,2.0,25.0,0.0,0.0,0.0,0.0,0.0,0.0,-0.025254,0.015616,0.992592,-0.6300000000000001,0.35000000000000003,-0.21000000000000002,3.32,3.33,3.33,3.31,3.3,3.31,3.3,3.31,3.33,3.33,3.33,3.32,3.29,3.31,3.3,3.3,3.32,3.33,3.33,3.32,3.33,3.33,3.33,3.33,3.33,3.29,79.6,-1.0,1.0,0.0,1.0,1.0,4240696
1765222745806,0.0,0.0,2.0,25.0,0.0,0.0,0.0,0.0,0.0,0.0,-0.026108,0.014761999999999999,0.991372,-0.6300000000000001,0.35000000000000003,-0.21000000000000002,3.32,3.33,3.33,3.31,3.3,3.31,3.3,3.31,3.33,3.33,3.33,3.32,3.29,3.31,3.3,3.3,3.32,3.33,3.33,3.32,3.33,3.33,3.33,3.33,3.33,3.29,79.6,-1.0,1.0,0.0,1.0,1.0,4240780
1765222745823,0.0,0.0,2.0,25.0,0.0,0.0,0.0,0.0,0.0,0.0,-0.026108,0.014761999999999999,0.991372,-0.6300000000000001,0.35000000000000003,0.0,3.32,3.33,3.33,3.31,3.3,3.31,3.3,3.31,3.33,3.33,3.33,3.32,3.29,3.31,3.3,3.3,3.32,3.33,3.33,3.32,3.33,3.33,3.33,3.33,3.33,3.29,79.6,-1.0,1.0,0.0,1.0,1.0,4240797
1765222745855,0.0,0.0,2.0,25.0,0.0,0.0,0.0,0.0,0.0,0.0,-0.026108,0.014761999999999999,0.991372,-0.6300000000000001,0.35000000000000003,0.0,3.32,3.33,3.33,3.31,3.3,3.31,3.3,3.31,3.33,3.33,3.33,3.32,3.29,3.31,3.3,3.3,3.32,3.33,3.33,3.32,3.33,3.33,3.33,3.33,3.33,3.29,79.6,-1.0,1.0,0.0,1.0,1.0,4240829
1765222745872,0.0,0.0,2.0,25.0,0.0,0.0,0.0,0.0,0.0,0.0,-0.026108,0.014761999999999999,0.991372,-0.6300000000000001,0.35000000000000003,0.0,3.32,3.33,3.33,3.31,3.3,3.31,3.3,3.31,3.33,3.33,3.33,3.32,3.29,3.31,3.3,3.3,3.32,3.33,3.33,3.32,3.33,3.33,3.33,3.33,3.33,3.29,79.6,-1.0,1.0,0.0,1.0,1.0,4240846
1765222745889,0.0,0.0,2.0,25.0,0.0,0.0,0.0,0.0,0.0,0.0,-0.026108,0.014761999999999999,0.991372,-0.6300000000000001,0.35000000000000003,0.0,3.32,3.33,3.33,3.31,3.3,3.31,3.3,3.31,3.33,3.33,3.33,3.32,3.29,3.31,3.3,3.3,3.32,3.33,3.33,3.32,3.33,3.33,3.33,3.33,3.33,3.29,79.6,-1.0,1.0,0.0,1.0,1.0,4240863
1765222745905,0.0,0.0,2.0,25.0,0.0,0.0,0.0,0.0,0.0,0.0,-0.026108,0.014761999999999999,0.991372,-0.6300000000000001,0.35000000000000003,0.0,3.32,3.33,3.33,3.31,3.3,3.31,3.3,3.31,3.33,3.33,3.33,3.32,3.29,3.31,3.3,3.3,3.32,3.33,3.33,3.32,3.33,3.33,3.33,3.33,3.33,3.29,79.6,-1.0,1.0,0.0,1.0,1.0,4240879
1765222745922,0.0,0.0,2.0,25.0,0.0,0.0,0.0,0.0,0.0,0.0,-0.026108,0.014761999999999999,0.991372,-0.6300000000000001,0.35000000000000003,0.0,3.32,3.33,3.33,3.31,3.3,3.31,3.3,3.31,3.33,3.33,3.33,3.32,3.29,3.31,3.3,3.3,3.32,3.33,3.33,3.32,3.33,3.33,3.33,3.33,3.33,3.29,79.6,-1.0,1.0,0.0,1.0,1.0,4240896
1765222745972,0.0,0.0,2.0,25.0,0.0,0.0,0.0,0.0,0.0,0.0,-0.02501,0.01525,0.992714,-0.6300000000000001,0.35000000000000003,0.0,3.32,3.33,3.33,3.31,3.3,3.31,3.3,3.31,3.33,3.33,3.33,3.32,3.29,3.31,3.3,3.3,3.32,3.33,3.33,3.32,3.33,3.33,3.33,3.33,3.33,3.29,79.6,-1.0,1.0,0.0,1.0,1.0,4240946
1765222745988,0.0,0.0,2.0,25.0,0.0,0.0,0.0,0.0,0.0,0.0,-0.02501,0.01525,0.992714,-0.6300000000000001,0.35000000000000003,0.0,3.32,3.33,3.33,3.31,3.3,3.31,3.3,3.31,3.33,3.33,3.33,3.32,3.29,3.31,3.3,3.3,3.32,3.33,3.33,3.32,3.33,3.33,3.33,3.33,3.33,3.29,79.6,-1.0,1.0,0.0,1.0,1.0,4240962
1765222746022,0.0,0.0,2.0,25.0,0.0,0.0,0.0,0.0,0.0,0.0,-0.025254,0.015616,0.992348,-0.6300000000000001,0.35000000000000003,0.0,3.32,3.33,3.33,3.31,3.3,3.31,3.3,3.31,3.33,3.33,3.33,3.32,3.29,3.31,3.3,3.3,3.32,3.33,3.33,3.32,3.33,3.33,3.33,3.33,3.33,3.29,79.6,-1.0,1.0,0.0,1.0,1.0,4240996
1765222746038,0.0,0.0,2.0,25.0,0.0,0.0,0.0,0.0,0.0,0.0,-0.025254,0.015616,0.992348,-0.6300000000000001,0.35000000000000003,0.0,3.32,3.33,3.33,3.31,3.3,3.31,3.3,3.31,3.33,3.33,3.33,3.32,3.29,3.31,3.3,3.3,3.32,3.33,3.33,3.32,3.33,3.33,3.33,3.33,3.33,3.29,79.6,-1.0,1.0,0.0,1.0,1.0,4241012
1765222746056,0.0,0.0,2.0,25.0,0.0,0.0,0.0,0.0,0.0,0.0,-0.025254,0.015616,0.992348,-0.6300000000000001,0.35000000000000003,0.0,3.32,3.33,3.33,3.31,3.3,3.31,3.3,3.31,3.33,3.33,3.33,3.32,3.29,3.31,3.3,3.3,3.32,3.33,3.33,3.32,3.33,3.33,3.33,3.33,3.33,3.29,79.6,-1.0,1.0,0.0,1.0,1.0,4241030
1765222746072,0.0,0.0,2.0,25.0,0.0,0.0,0.0,0.0,0.0,0.0,-0.025254,0.015616,0.992348,-0.56,0.35000000000000003,0.0,3.32,3.33,3.33,3.31,3.3,3.31,3.3,3.31,3.33,3.33,3.33,3.32,3.29,3.31,3.3,3.3,3.32,3.33,3.33,3.32,3.33,3.33,3.33,3.33,3.33,3.29,79.6,-1.0,1.0,0.0,1.0,1.0,4241046
1765222746139,0.0,0.0,2.0,25.0,0.0,0.0,0.0,0.0,0.0,0.0,-0.025254,0.015616,0.992348,-0.56,0.35000000000000003,0.0,3.32,3.33,3.33,3.31,3.3,3.31,3.3,3.31,3.33,3.33,3.33,3.32,3.29,3.31,3.3,3.3,3.32,3.33,3.33,3.32,3.33,3.33,3.33,3.33,3.33,3.29,79.6,-1.0,1.0,0.0,1.0,1.0,4241113
1765222746206,0.0,0.0,2.0,25.0,0.0,0.0,0.0,0.0,0.0,0.0,-0.025863999999999998,0.014884,0.992958,-0.56,0.35000000000000003,0.0,3.32,3.33,3.33,3.31,3.3,3.31,3.3,3.31,3.33,3.33,3.33,3.32,3.29,3.31,3.3,3.3,3.32,3.33,3.33,3.32,3.33,3.33,3.33,3.33,3.33,3.29,79.6,-1.0,1.0,0.0,1.0,1.0,4241180
