timestamp,THROTTLE,BRAKE,ECU_MODE_ID,TORQUE_GAIN,TORQUE_REF_LEFT_MOTOR,TORQUE_REF_RIGHT_MOTOR,LEFT_MOTOR_SPEED,RIGHT_MOTOR_SPEED,REAR_LEFT_WHEEL_SPEED,REAR_RIGHT_WHEEL_SPEED,ACCEL_LONGITUDINAL,ACCEL_LATERAL,ACCEL_NORMAL,VEL_ANGULAR_YAW,VEL_ANGULAR_PITCH,VEL_ANGULAR_ROLL,STACK_1_CELL_1,STACK_1_CELL_2,STACK_1_CELL_3,STACK_1_CELL_4,STACK_2_CELL_1,STACK_2_CELL_2,STACK_2_CELL_3,STACK_2_CELL_4,STACK_3_CELL_1,STACK_3_CELL_2,STACK_3_CELL_3,STACK_3_CELL_4,STACK_4_CELL_1,STACK_4_CELL_2,STACK_4_CELL_3,STACK_4_CELL_4,STACK_5_CELL_1,STACK_5_CELL_2,STACK_5_CELL_3,STACK_5_CELL_4,STACK_6_CELL_1,STACK_6_CELL_2,STACK_6_CELL_3,STACK_6_CELL_4,MAX_VOLTAGE,MIN_VOLTAGE,TOTAL_VOLTAGE,SHUNT_CURRENT,BMS_MODE_ID,BMS_ERROR_ID,AIR_P,AIR_N,t,LEFT_MOTOR_RPM,RIGHT_MOTOR_RPM
1765219660013,0.0,0.0,1.0,10.0,0.0,0.0,0.0,0.0,0.0,0.0,-0.021716,0.007808,0.992714,-6.300000000000001,0.6300000000000001,1.7500000000000002,3.31,3.32,3.31,3.3,3.3,3.31,3.3,3.18,3.32,3.32,3.32,3.32,3.3,3.31,3.31,3.31,3.32,3.32,3.32,3.31,3.32,3.32,3.32,3.32,3.32,3.2,79.4,0.0,1.0,0.0,1.0,1.0,1154987,0.0,0.0
1765219660030,0.0,0.0,1.0,10.0,0.0,0.0,0.0,0.0,0.0,0.0,-0.021716,0.007808,0.992714,-0.7000000000000001,0.49000000000000005,0.0,3.31,3.32,3.31,3.3,3.3,3.31,3.3,3.18,3.32,3.32,3.32,3.32,3.3,3.31,3.31,3.31,3.32,3.32,3.32,3.31,3.32,3.32,3.32,3.32,3.32,3.2,79.4,0.0,1.0,0.0,1.0,1.0,1155004,0.0,0.0
1765219660080,0.0,0.0,1.0,10.0,0.0,0.0,0.0,0.0,0.0,0.0,-0.019032,0.012078,0.995642,-0.7000000000000001,0.49000000000000005,0.0,3.31,3.32,3.31,3.3,3.3,3.31,3.3,3.18,3.32,3.32,3.32,3.32,3.3,3.31,3.31,3.31,3.32,3.32,3.32,3.31,3.32,3.32,3.32,3.32,3.32,3.2,79.4,0.0,1.0,0.0,1.0,1.0,1155054,0.0,0.0
1765219660097,0.0,0.0,2.0,25.0,0.0,0.0,0.0,0.0,0.0,0.0,-0.019032,0.012078,0.995642,-0.7000000000000001,0.49000000000000005,0.0,3.31,3.32,3.31,3.3,3.3,3.31,3.3,3.18,3.32,3.32,3.32,3.32,3.3,3.31,3.31,3.31,3.32,3.32,3.32,3.31,3.32,3.32,3.32,3.32,3.32,3.2,79.4,0.0,1.0,0.0,1.0,1.0,1155071,0.0,0.0
1765219660113,0.0,0.0,2.0,25.0,0.0,0.0,0.0,0.0,0.0,0.0,-0.019032,0.012078,0.995642,-0.7000000000000001,0.49000000000000005,0.0,3.31,3.32,3.31,3.3,3.3,3.31,3.3,3.18,3.32,3.32,3.32,3.32,3.3,3.31,3.31,3.31,3.32,3.32,3.32,3.31,3.32,3.32,3.32,3.32,3.32,3.2,79.4,0.0,1.0,0.0,1.0,1.0,1155087,0.0,0.0
1765219660130,0.0,0.0,2.0,25.0,0.0,0.0,0.0,0.0,0.0,0.0,-0.019032,0.012078,0.995642,-0.7000000000000001,0.49000000000000005,0.0,3.31,3.32,3.31,3.3,3.3,3.31,3.3,3.18,3.32,3.32,3.32,3.32,3.3,3.31,3.31,3.31,3.32,3.32,3.32,3.31,3.32,3.32,3.32,3.32,3.32,3.2,79.4,0.0,1.0,0.0,1.0,1.0,1155104,0.0,0.0
1765219660147,0.0,0.0,2.0,25.0,0.0,0.0,0.0,0.0,0.0,0.0,-0.019032,0.012078,0.995642,-0.77,0.6300000000000001,0.0,3.31,3.32,3.31,3.3,3.3,3.31,3.3,3.18,3.32,3.32,3.32,3.32,3.3,3.31,3.31,3.31,3.32,3.32,3.32,3.31,3.32,3.32,3.32,3.32,3.32,3.2,79.4,0.0,1.0,0.0,1.0,1.0,1155121,0.0,0.0
1765219660163,0.0,0.0,2.0,25.0,0.0,0.0,0.0,0.0,0.0,0.0,-0.019032,0.012078,0.995642,-0.77,0.6300000000000001,0.0,3.32,3.33,3.32,3.31,3.3,3.31,3.3,3.18,3.32,3.32,3.32,3.32,3.3,3.31,3.31,3.31,3.32,3.32,3.32,3.31,3.32,3.32,3.32,3.32,3.32,3.2,79.4,0.0,1.0,0.0,1.0,1.0,1155137,0.0,0.0
1765219660180,0.0,0.0,2.0,25.0,0.0,0.0,0.0,0.0,0.0,0.0,-0.019032,0.012078,0.995642,-0.77,0.6300000000000001,0.0,3.32,3.33,3.32,3.31,3.3,3.31,3.3,3.18,3.32,3.32,3.32,3.32,3.3,3.31,3.31,3.31,3.32,3.32,3.32,3.31,3.32,3.32,3.32,3.32,3.32,3.2,79.4,0.0,1.0,0.0,1.0,1.0,1155154,0.0,0.0
1765219660197,0.0,0.0,2.0,25.0,0.0,0.0,0.0,0.0,0.0,0.0,-0.019032,0.012078,0.995642,-0.77,0.6300000000000001,0.0,3.32,3.33,3.32,3.31,3.32,3.32,3.32,3.3,3.32,3.32,3.32,3.32,3.3,3.31,3.31,3.31,3.32,3.32,3.32,3.31,3.32,3.32,3.32,3.32,3.32,3.2,79.4,0.0,1.0,0.0,1.0,1.0,1155171,0.0,0.0
1765219660214,0.0,0.0,2.0,25.0,0.0,0.0,0.0,0.0,0.0,0.0,-0.019032,0.012078,0.995642,-0.77,0.6300000000000001,0.0,3.32,3.33,3.32,3.31,3.32,3.32,3.32,3.3,3.33,3.33,3.33,3.32,3.3,3.31,3.31,3.31,3.32,3.32,3.32,3.31,3.32,3.32,3.32,3.32,3.32,3.2,79.4,0.0,1.0,0.0,1.0,1.0,1155188,0.0,0.0
1765219660247,0.0,0.0,2.0,25.0,0.0,0.0,0.0,0.0,0.0,0.0,-0.019032,0.012078,0.995642,-0.77,0.6300000000000001,0.0,3.32,3.33,3.32,3.31,3.32,3.32,3.32,3.3,3.33,3.33,3.33,3.32,3.31,3.32,3.32,3.32,3.32,3.32,3.32,3.31,3.32,3.32,3.32,3.32,3.32,3.2,79.4,0.0,1.0,0.0,1.0,1.0,1155221,0.0,0.0
1765219660264,0.0,0.0,2.0,25.0,0.0,0.0,0.0,0.0,0.0,0.0,-0.019032,0.012078,0.995642,-0.77,0.6300000000000001,0.0,3.32,3.33,3.32,3.31,3.32,3.32,3.32,3.3,3.33,3.33,3.33,3.32,3.31,3.32,3.32,3.32,3.32,3.32,3.32,3.31,3.32,3.32,3.32,3.32,3.32,3.2,79.4,0.0,1.0,0.0,1.0,1.0,1155238,0.0,0.0
1765219660280,0.0,0.0,2.0,25.0,0.0,0.0,0.0,0.0,0.0,0.0,-0.019032,0.012078,0.995642,-0.77,0.6300000000000001,0.0,3.32,3.33,3.32,3.31,3.32,3.32,3.32,3.3,3.33,3.33,3.33,3.32,3.31,3.32,3.32,3.32,3.32,3.32,3.32,3.32,3.32,3.32,3.32,3.32,3.32,3.2,79.4,0.0,1.0,0.0,1.0,1.0,1155254,0.0,0.0
1765219660297,0.0,0.0,2.0,25.0,0.0,0.0,0.0,0.0,0.0,0.0,-0.019032,0.012078,0.995642,-0.77,0.6300000000000001,0.0,3.32,3.33,3.32,3.31,3.32,3.32,3.32,3.3,3.33,3.33,3.33,3.32,3.31,3.32,3.32,3.32,3.32,3.32,3.32,3.32,3.33,3.33,3.33,3.33,3.32,3.2,79.4,0.0,1.0,0.0,1.0,1.0,1155271,0.0,0.0
1765219660380,0.0,0.0,2.0,25.0,0.0,0.0,0.0,0.0,0.0,0.0,-0.021471999999999998,0.009028,0.992104,-0.77,0.49000000000000005,-0.14,3.32,3.33,3.32,3.31,3.32,3.32,3.32,3.3,3.33,3.33,3.33,3.32,3.31,3.32,3.32,3.32,3.32,3.32,3.32,3.32,3.33,3.33,3.33,3.33,3.32,3.2,79.4,0.0,1.0,0.0,1.0,1.0,1155354,0.0,0.0
1765219660430,0.0,0.0,2.0,25.0,0.0,0.0,0.0,0.0,0.0,0.0,-0.021471999999999998,0.009028,0.992104,-0.77,0.49000000000000005,-0.14,3.32,3.33,3.32,3.31,3.32,3.32,3.32,3.3,3.33,3.33,3.33,3.32,3.31,3.32,3.32,3.32,3.32,3.32,3.32,3.32,3.33,3.33,3.33,3.33,3.32,3.2,79.4,0.0,1.0,0.0,1.0,1.0,1155404,0.0,0.0
1765219660463,0.0,0.0,2.0,25.0,0.0,0.0,0.0,0.0,0.0,0.0,-0.021471999999999998,0.009028,0.992104,-0.77,0.49000000000000005,-0.14,3.32,3.33,3.32,3.31,3.32,3.32,3.32,3.3,3.33,3.33,3.33,3.32,3.31,3.32,3.32,3.32,3.32,3.32,3.32,3.32,3.33,3.33,3.33,3.33,3.32,3.2,79.4,0.0,1.0,0.0,1.0,1.0,1155437,0.0,0.0
1765219660480,0.0,0.0,2.0,25.0,0.0,0.0,0.0,0.0,0.0,0.0,-0.021471999999999998,0.009028,0.992104,-0.77,0.49000000000000005,-0.14,3.32,3.33,3.32,3.31,3.32,3.32,3.32,3.3,3.33,3.33,3.33,3.32,3.31,3.32,3.32,3.32,3.32,3.32,3.32,3.32,3.33,3.33,3.33,3.33,3.32,3.2,79.4,0.0,1.0,0.0,1.0,1.0,1155454,0.0,0.0
1765219660497,0.0,0.0,2.0,25.0,0.0,0.0,0.0,0.0,0.0,0.0,-0.021471999999999998,0.009028,0.992104,-0.77,0.49000000000000005,-0.14,3.32,3.33,3.32,3.31,3.32,3.32,3.32,3.3,3.33,3.33,3.33,3.32,3.31,3.32,3.32,3.32,3.32,3.32,3.32,3.32,3.33,3.33,3.33,3.33,3.32,3.2,79.4,0.0,1.0,0.0,1.0,1.0,1155471,0.0,0.0
1765219660546,0.0,0.0,2.0,25.0,0.0,0.0,0.0,0.0,0.0,0.0,-0.021471999999999998,0.009028,0.992104,-0.77,0.49000000000000005,-0.14,3.32,3.33,3.32,3.31,3.32,3.32,3.32,3.3,3.33,3.33,3.33,3.32,3.31,3.32,3.32,3.32,3.32,3.32,3.32,3.32,3.33,3.33,3.33,3.33,3.32,3.2,79.4,0.0,1.0,0.0,1.0,1.0,1155520,0.0,0.0
1765219660564,0.0,0.0,2.0,25.0,0.0,0.0,0.0,0.0,0.0,0.0,-0.017568,0.010248,0.991372,-0.77,0.49000000000000005,-0.14,3.32,3.33,3.32,3.31,3.32,3.32,3.32,3.3,3.33,3.33,3.33,3.32,3.31,3.32,3.32,3.32,3.32,3.32,3.32,3.32,3.33,3.33,3.33,3.33,3.32,3.2,79.4,0.0,1.0,0.0,1.0,1.0,1155538,0.0,0.0
1765219660630,0.0,0.0,2.0,25.0,0.0,0.0,0.0,0.0,0.0,0.0,-0.017568,0.010248,0.991372,-0.77,0.49000000000000005,-0.14,3.32,3.33,3.32,3.31,3.32,3.32,3.32,3.3,3.33,3.33,3.33,3.32,3.31,3.32,3.32,3.32,3.32,3.32,3.32,3.32,3.33,3.33,3.33,3.33,3.32,3.2,79.4,0.0,1.0,0.0,1.0,1.0,1155604,0.0,0.0
1765219660697,0.0,0.0,2.0,25.0,0.0,0.0,0.0,0.0,0.0,0.0,-0.017568,0.010248,0.991372,-0.77,0.49000000000000005,-0.14,3.32,3.33,3.32,3.31,3.32,3.32,3.32,3.3,3.33,3.33,3.33,3.32,3.31,3.32,3.32,3.32,3.32,3.32,3.32,3.32,3.33,3.33,3.33,3.33,3.32,3.2,79.4,0.0,1.0,0.0,1.0,1.0,1155671,0.0,0.0
1765219660763,0.0,0.0,2.0,25.0,0.0,0.0,0.0,0.0,0.0,0.0,-0.019642,0.008173999999999999,0.995032,-0.77,0.49000000000000005,-0.14,3.32,3.33,3.32,3.31,3.32,3.32,3.32,3.3,3.33,3.33,3.33,3.32,3.31,3.32,3.32,3.32,3.32,3.32,3.32,3.32,3.33,3.33,3.33,3.33,3.32,3.2,79.4,0.0,1.0,0.0,1.0,1.0,1155737,0.0,0.0
1765219660780,0.0,0.0,2.0,25.0,0.0,0.0,0.0,0.0,0.0,0.0,-0.019642,0.008173999999999999,0.995032,-0.6300000000000001,0.56,0.07,3.32,3.33,3.32,3.31,3.32,3.32,3.32,3.3,3.33,3.33,3.33,3.32,3.31,3.32,3.32,3.32,3.32,3.32,3.32,3.32,3.33,3.33,3.33,3.33,3.32,3.2,79.4,0.0,1.0,0.0,1.0,1.0,1155754,0.0,0.0
1765219660829,0.0,0.0,2.0,25.0,0.0,0.0,0.0,0.0,0.0,0.0,-0.019642,0.008173999999999999,0.995032,-0.6300000000000001,0.56,0.07,3.32,3.33,3.32,3.31,3.32,3.32,3.32,3.3,3.33,3.33,3.33,3.32,3.31,3.32,3.32,3.32,3.32,3.32,3.32,3.32,3.33,3.33,3.33,3.33,3.32,3.2,79.4,0.0,1.0,0.0,1.0,1.0,1155803,0.0,0.0
1765219660847,0.0,0.0,2.0,25.0,0.0,0.0,0.0,0.0,0.0,0.0,-0.019642,0.008173999999999999,0.995032,-0.6300000000000001,0.56,0.07,3.32,3.33,3.32,3.31,3.32,3.32,3.32,3.3,3.33,3.33,3.33,3.32,3.31,3.32,3.32,3.32,3.32,3.32,3.32,3.32,3.33,3.33,3.33,3.33,3.32,3.2,79.4,0.0,1.0,0.0,1.0,1.0,1155821,0.0,0.0
1765219660864,0.0,0.0,2.0,25.0,0.0,0.0,0.0,0.0,0.0,0.0,-0.016836,0.011956,0.990884,-0.6300000000000001,0.56,0.07,3.32,3.33,3.32,3.31,3.32,3.32,3.32,3.3,3.33,3.33,3.33,3.32,3.31,3.32,3.32,3.32,3.32,3.32,3.32,3.32,3.33,3.33,3.33,3.33,3.32,3.2,79.4,0.0,1.0,0.0,1.0,1.0,1155838,0.0,0.0
1765219660880,0.0,0.0,2.0,25.0,0.0,0.0,0.0,0.0,0.0,0.0,-0.016836,0.011956,0.990884,-0.6300000000000001,0.56,0.07,3.32,3.33,3.32,3.31,3.32,3.32,3.32,3.3,3.33,3.33,3.33,3.32,3.31,3.32,3.32,3.32,3.32,3.32,3.32,3.32,3.33,3.33,3.33,3.33,3.32,3.2,79.4,0.0,1.0,0.0,1.0,1.0,1155854,0.0,0.0
1765219660913,0.0,0.0,2.0,25.0,0.0,0.0,0.0,0.0,0.0,0.0,-0.016836,0.011956,0.990884,-0.6300000000000001,0.56,0.07,3.32,3.33,3.32,3.31,3.32,3.32,3.32,3.3,3.33,3.33,3.33,3.32,3.31,3.32,3.32,3.32,3.32,3.32,3.32,3.32,3.33,3.33,3.33,3.33,3.32,3.2,79.4,0.0,1.0,0.0,1.0,1.0,1155887,0.0,0.0
1765219660930,0.0,0.0,2.0,25.0,0.0,0.0,0.0,0.0,0.0,0.0,-0.016836,0.011956,0.990884,-0.6300000000000001,0.56,0.0,3.32,3.33,3.32,3.31,3.32,3.32,3.32,3.3,3.33,3.33,3.33,3.32,3.31,3.32,3.32,3.32,3.32,3.32,3.32,3.32,3.33,3.33,3.33,3.33,3.32,3.2,79.4,0.0,1.0,0.0,1.0,1.0,1155904,0.0,0.0
1765219660963,0.0,0.0,2.0,25.0,0.0,0.0,0.0,0.0,0.0,0.0,-0.016836,0.011956,0.990884,-0.6300000000000001,0.56,0.0,3.32,3.33,3.32,3.31,3.32,3.32,3.32,3.3,3.33,3.33,3.33,3.32,3.31,3.32,3.32,3.32,3.32,3.32,3.32,3.32,3.33,3.33,3.33,3.33,3.32,3.2,79.4,0.0,1.0,0.0,1.0,1.0,1155937,0.0,0.0
1765219661047,0.0,0.0,2.0,25.0,0.0,0.0,0.0,0.0,0.0,0.0,-0.016836,0.011956,0.990884,-0.6300000000000001,0.56,0.0,3.32,3.33,3.32,3.31,3.32,3.32,3.32,3.3,3.33,3.33,3.33,3.32,3.31,3.32,3.32,3.32,3.32,3.32,3.32,3.32,3.33,3.33,3.33,3.33,3.33,3.3,79.7,0.0,1.0,0.0,1.0,1.0,1156021,0.0,0.0
1765219661080,0.0,0.0,2.0,25.0,0.0,0.0,0.0,0.0,0.0,0.0,-0.020739999999999998,0.011833999999999999,1.0004,-0.6300000000000001,0.56,0.0,3.32,3.33,3.32,3.31,3.32,3.32,3.32,3.3,3.33,3.33,3.33,3.32,3.31,3.32,3.32,3.32,3.32,3.32,3.32,3.32,3.33,3.33,3.33,3.33,3.33,3.3,79.7,0.0,1.0,0.0,1.0,1.0,1156054,0.0,0.0
1765219661113,0.0,0.0,2.0,25.0,0.0,0.0,0.0,0.0,0.0,0.0,-0.020739999999999998,0.011833999999999999,1.0004,-0.7000000000000001,0.42000000000000004,0.0,3.32,3.33,3.32,3.31,3.32,3.32,3.32,3.3,3.33,3.33,3.33,3.32,3.31,3.32,3.32,3.32,3.32,3.32,3.32,3.32,3.33,3.33,3.33,3.33,3.33,3.3,79.7,0.0,1.0,0.0,1.0,1.0,1156087,0.0,0.0
1765219661147,0.0,0.0,2.0,25.0,0.0,0.0,0.0,0.0,0.0,0.0,-0.020739999999999998,0.011833999999999999,1.0004,-0.7000000000000001,0.42000000000000004,0.0,3.32,3.33,3.32,3.31,3.32,3.32,3.32,3.3,3.33,3.33,3.33,3.32,3.31,3.32,3.32,3.32,3.32,3.32,3.32,3.32,3.33,3.33,3.33,3.33,3.33,3.3,79.7,0.0,1.0,0.0,1.0,1.0,1156121,0.0,0.0
1765219661164,0.0,0.0,2.0,25.0,0.0,0.0,0.0,0.0,0.0,0.0,-0.020739999999999998,0.011833999999999999,1.0004,-0.7000000000000001,0.42000000000000004,0.0,3.32,3.33,3.32,3.31,3.32,3.32,3.32,3.3,3.33,3.33,3.33,3.32,3.31,3.32,3.32,3.32,3.32,3.32,3.32,3.32,3.33,3.33,3.33,3.33,3.33,3.3,79.7,0.0,1.0,0.0,1.0,1.0,1156138,0.0,0.0
1765219661197,0.0,0.0,2.0,25.0,0.0,0.0,0.0,0.0,0.0,0.0,-0.020739999999999998,0.011833999999999999,1.0004,-0.7000000000000001,0.42000000000000004,0.0,3.32,3.33,3.32,3.31,3.32,3.32,3.32,3.3,3.33,3.33,3.33,3.32,3.31,3.32,3.32,3.32,3.32,3.32,3.32,3.32,3.33,3.33,3.33,3.33,3.33,3.3,79.7,0.0,1.0,0.0,1.0,1.0,1156171,0.0,0.0
1765219661213,0.0,0.0,2.0,25.0,0.0,0.0,0.0,0.0,0.0,0.0,-0.020739999999999998,0.011833999999999999,1.0004,-0.7000000000000001,0.42000000000000004,0.0,3.32,3.33,3.32,3.31,3.32,3.32,3.32,3.3,3.33,3.33,3.33,3.32,3.31,3.32,3.32,3.32,3.32,3.32,3.32,3.32,3.33,3.33,3.33,3.33,3.33,3.3,79.7,0.0,1.0,0.0,1.0,1.0,1156187,0.0,0.0
1765219661246,0.0,0.0,2.0,25.0,0.0,0.0,0.0,0.0,0.0,0.0,-0.016836,0.010003999999999999,0.99247,-0.7000000000000001,0.42000000000000004,0.0,3.32,3.33,3.32,3.31,3.32,3.32,3.32,3.3,3.33,3.33,3.33,3.32,3.31,3.32,3.32,3.32,3.32,3.32,3.32,3.32,3.33,3.33,3.33,3.33,3.33,3.3,79.7,0.0,1.0,0.0,1.0,1.0,1156220,0.0,0.0
1765219661264,0.0,0.0,2.0,25.0,0.0,0.0,0.0,0.0,0.0,0.0,-0.016836,0.010003999999999999,0.99247,-0.8400000000000001,0.6300000000000001,0.0,3.32,3.33,3.32,3.31,3.32,3.32,3.32,3.3,3.33,3.33,3.33,3.32,3.31,3.32,3.32,3.32,3.32,3.32,3.32,3.32,3.33,3.33,3.33,3.33,3.33,3.3,79.7,0.0,1.0,0.0,1.0,1.0,1156238,0.0,0.0
1765219661280,0.0,0.0,2.0,25.0,0.0,0.0,0.0,0.0,0.0,0.0,-0.016836,0.010003999999999999,0.99247,-0.8400000000000001,0.6300000000000001,0.0,3.32,3.33,3.32,3.31,3.32,3.32,3.32,3.3,3.33,3.33,3.33,3.32,3.31,3.32,3.32,3.32,3.32,3.32,3.32,3.32,3.33,3.33,3.33,3.33,3.33,3.3,79.7,0.0,1.0,0.0,1.0,1.0,1156254,0.0,0.0
1765219661297,0.0,0.0,2.0,25.0,0.0,0.0,0.0,0.0,0.0,0.0,-0.016836,0.010003999999999999,0.99247,-0.8400000000000001,0.6300000000000001,0.0,3.32,3.33,3.32,3.31,3.32,3.32,3.32,3.3,3.33,3.33,3.33,3.32,3.31,3.32,3.32,3.32,3.32,3.32,3.32,3.32,3.33,3.33,3.33,3.33,3.33,3.3,79.7,0.0,1.0,0.0,1.0,1.0,1156271,0.0,0.0
1765219661346,0.0,0.0,2.0,25.0,0.0,0.0,0.0,0.0,0.0,0.0,-0.016836,0.010003999999999999,0.99247,-0.8400000000000001,0.6300000000000001,0.0,3.32,3.33,3.32,3.31,3.32,3.32,3.32,3.3,3.33,3.33,3.33,3.32,3.31,3.32,3.32,3.32,3.32,3.32,3.32,3.32,3.33,3.33,3.33,3.33,3.33,3.3,79.7,0.0,1.0,0.0,1.0,1.0,1156320,0.0,0.0
1765219661397,0.0,0.0,2.0,25.0,0.0,0.0,0.0,0.0,0.0,0.0,-0.016836,0.010003999999999999,0.99247,-0.8400000000000001,0.6300000000000001,0.0,3.32,3.33,3.32,3.31,3.32,3.32,3.32,3.3,3.33,3.33,3.33,3.32,3.31,3.32,3.32,3.32,3.32,3.32,3.32,3.32,3.33,3.33,3.33,3.33,3.33,3.3,79.7,0.0,1.0,0.0,1.0,1.0,1156371,0.0,0.0
1765219661464,0.0,0.0,2.0,25.0,0.0,0.0,0.0,0.0,0.0,0.0,-0.018543999999999998,0.009028,0.988078,-0.8400000000000001,0.6300000000000001,0.0,3.32,3.33,3.32,3.31,3.32,3.32,3.32,3.3,3.33,3.33,3.33,3.32,3.31,3.32,3.32,3.32,3.32,3.32,3.32,3.32,3.33,3.33,3.33,3.33,3.33,3.3,79.7,0.0,1.0,0.0,1.0,1.0,1156438,0.0,0.0
1765219661480,0.0,0.0,2.0,25.0,0.0,0.0,0.0,0.0,0.0,0.0,-0.018543999999999998,0.009028,0.988078,-0.77,0.56,-0.14,3.32,3.33,3.32,3.31,3.32,3.32,3.32,3.3,3.33,3.33,3.33,3.32,3.31,3.32,3.32,3.32,3.32,3.32,3.32,3.32,3.33,3.33,3.33,3.33,3.33,3.3,79.7,0.0,1.0,0.0,1.0,1.0,1156454,0.0,0.0
1765219661530,0.0,0.0,2.0,25.0,0.0,0.0,0.0,0.0,0.0,0.0,-0.023058,0.008784,0.995032,-0.77,0.56,-0.14,3.32,3.33,3.32,3.31,3.32,3.32,3.32,3.3,3.33,3.33,3.33,3.32,3.31,3.32,3.32,3.32,3.32,3.32,3.32,3.32,3.33,3.33,3.33,3.33,3.33,3.3,79.7,0.0,1.0,0.0,1.0,1.0,1156504,0.0,0.0
1765219661547,0.0,0.0,2.0,25.0,0.0,0.0,0.0,0.0,0.0,0.0,-0.023058,0.008784,0.995032,-0.77,0.56,-0.14,3.32,3.33,3.32,3.31,3.32,3.32,3.32,3.3,3.33,3.33,3.33,3.32,3.31,3.32,3.32,3.32,3.32,3.32,3.32,3.32,3.33,3.33,3.33,3.33,3.33,3.3,79.7,0.0,1.0,0.0,1.0,1.0,1156521,0.0,0.0
1765219661564,0.0,0.0,2.0,25.0,0.0,0.0,0.0,0.0,0.0,0.0,-0.023058,0.008784,0.995032,-0.77,0.56,-0.14,3.32,3.33,3.32,3.31,3.32,3.32,3.32,3.3,3.33,3.33,3.33,3.32,3.31,3.32,3.32,3.32,3.32,3.32,3.32,3.32,3.33,3.33,3.33,3.33,3.33,3.3,79.7,0.0,1.0,0.0,1.0,1.0,1156538,0.0,0.0
1765219661581,0.0,0.0,2.0,25.0,0.0,0.0,0.0,0.0,0.0,0.0,-0.023058,0.008784,0.995032,-0.77,0.56,-0.14,3.32,3.33,3.32,3.31,3.32,3.32,3.32,3.3,3.33,3.33,3.33,3.32,3.31,3.32,3.32,3.32,3.32,3.32,3.32,3.32,3.33,3.33,3.33,3.33,3.33,3.3,79.7,0.0,1.0,0.0,1.0,1.0,1156555,0.0,0.0
1765219661597,0.0,0.0,2.0,25.0,0.0,0.0,0.0,0.0,0.0,0.0,-0.023058,0.008784,0.995032,-0.7000000000000001,0.42000000000000004,0.0,3.32,3.33,3.32,3.31,3.32,3.32,3.32,3.3,3.33,3.33,3.33,3.32,3.31,3.32,3.32,3.32,3.32,3.32,3.32,3.32,3.33,3.33,3.33,3.33,3.33,3.3,79.7,0.0,1.0,0.0,1.0,1.0,1156571,0.0,0.0
1765219661614,0.0,0.0,2.0,25.0,0.0,0.0,0.0,0.0,0.0,0.0,-0.023058,0.008784,0.995032,-0.7000000000000001,0.42000000000000004,0.0,3.32,3.33,3.32,3.31,3.32,3.32,3.32,3.3,3.33,3.33,3.33,3.32,3.31,3.32,3.32,3.32,3.32,3.32,3.32,3.32,3.33,3.33,3.33,3.33,3.33,3.3,79.7,0.0,1.0,0.0,1.0,1.0,1156588,0.0,0.0
1765219661680,0.0,0.0,2.0,25.0,0.0,0.0,0.0,0.0,0.0,0.0,-0.023058,0.008784,0.995032,-0.7000000000000001,0.42000000000000004,0.0,3.32,3.33,3.32,3.31,3.32,3.32,3.32,3.3,3.33,3.33,3.33,3.32,3.31,3.32,3.32,3.32,3.32,3.32,3.32,3.32,3.33,3.33,3.33,3.33,3.33,3.3,79.7,0.0,1.0,0.0,1.0,1.0,1156654,0.0,0.0
1765219661763,0.0,0.0,2.0,25.0,0.0,0.0,0.0,0.0,0.0,0.0,-0.023058,0.008784,0.995032,-0.7000000000000001,0.42000000000000004,0.0,3.32,3.33,3.32,3.31,3.32,3.32,3.32,3.3,3.33,3.33,3.33,3.32,3.31,3.32,3.32,3.32,3.32,3.32,3.32,3.32,3.33,3.33,3.33,3.33,3.33,3.3,79.7,0.0,1.0,0.0,1.0,1.0,1156737,0.0,0.0
1765219661780,0.0,0.0,2.0,25.0,0.0,0.0,0.0,0.0,0.0,0.0,-0.012444,0.012931999999999999,0.996252,-0.7000000000000001,0.42000000000000004,0.0,3.32,3.33,3.32,3.31,3.32,3.32,3.32,3.31,3.33,3.33,3.33,3.32,3.31,3.32,3.32,3.32,3.32,3.32,3.32,3.32,3.33,3.33,3.33,3.33,3.33,3.3,79.7,0.0,1.0,0.0,1.0,1.0,1156754,0.0,0.0
1765219661797,0.0,0.0,2.0,25.0,0.0,0.0,0.0,0.0,0.0,0.0,-0.012444,0.012931999999999999,0.996252,-0.7000000000000001,0.42000000000000004,0.0,3.32,3.33,3.32,3.31,3.32,3.32,3.32,3.31,3.33,3.33,3.33,3.32,3.31,3.32,3.32,3.32,3.32,3.32,3.32,3.32,3.33,3.33,3.33,3.33,3.33,3.3,79.7,0.0,1.0,0.0,1.0,1.0,1156771,0.0,0.0
1765219661814,0.0,0.0,2.0,25.0,0.0,0.0,0.0,0.0,0.0,0.0,-0.012444,0.012931999999999999,0.996252,-0.7000000000000001,0.42000000000000004,0.0,3.32,3.33,3.32,3.31,3.32,3.32,3.32,3.31,3.33,3.33,3.33,3.32,3.31,3.32,3.32,3.32,3.32,3.32,3.32,3.32,3.33,3.33,3.33,3.33,3.33,3.3,79.7,0.0,1.0,0.0,1.0,1.0,1156788,0.0,0.0
1765219661830,0.0,0.0,2.0,25.0,0.0,0.0,0.0,0.0,0.0,0.0,-0.012444,0.012931999999999999,0.996252,-0.7000000000000001,0.42000000000000004,0.0,3.32,3.33,3.32,3.31,3.32,3.32,3.32,3.31,3.33,3.33,3.33,3.32,3.31,3.32,3.32,3.32,3.32,3.32,3.32,3.32,3.33,3.33,3.33,3.33,3.33,3.3,79.7,0.0,1.0,0.0,1.0,1.0,1156804,0.0,0.0
1765219661846,0.0,0.0,2.0,25.0,0.0,0.0,0.0,0.0,0.0,0.0,-0.012444,0.012931999999999999,0.996252,-0.6300000000000001,0.56,0.0,3.32,3.33,3.32,3.31,3.32,3.32,3.32,3.31,3.33,3.33,3.33,3.32,3.31,3.32,3.32,3.32,3.32,3.32,3.32,3.32,3.33,3.33,3.33,3.33,3.33,3.3,79.7,0.0,1.0,0.0,1.0,1.0,1156820,0.0,0.0
1765219661897,0.0,0.0,2.0,25.0,0.0,0.0,0.0,0.0,0.0,0.0,-0.012444,0.012931999999999999,0.996252,-0.6300000000000001,0.56,0.0,3.32,3.33,3.32,3.31,3.32,3.32,3.32,3.31,3.33,3.33,3.33,3.32,3.31,3.32,3.32,3.32,3.32,3.32,3.32,3.32,3.33,3.33,3.33,3.33,3.33,3.3,79.7,0.0,1.0,0.0,1.0,1.0,1156871,0.0,0.0
1765219661913,0.0,0.0,2.0,25.0,0.0,0.0,0.0,0.0,0.0,0.0,-0.012444,0.012931999999999999,0.996252,-0.6300000000000001,0.56,0.0,3.32,3.33,3.32,3.31,3.32,3.32,3.32,3.3,3.33,3.33,3.33,3.32,3.31,3.32,3.32,3.32,3.32,3.32,3.32,3.32,3.33,3.33,3.33,3.33,3.33,3.3,79.7,0.0,1.0,0.0,1.0,1.0,1156887,0.0,0.0
1765219661930,0.0,0.0,2.0,25.0,0.0,0.0,0.0,0.0,0.0,0.0,-0.012444,0.012931999999999999,0.996252,-0.6300000000000001,0.56,0.0,3.32,3.33,3.32,3.31,3.32,3.32,3.32,3.3,3.33,3.33,3.33,3.32,3.31,3.32,3.32,3.32,3.32,3.32,3.32,3.32,3.33,3.33,3.33,3.33,3.33,3.3,79.7,0.0,1.0,0.0,1.0,1.0,1156904,0.0,0.0
1765219661947,0.0,0.0,2.0,25.0,0.0,0.0,0.0,0.0,0.0,0.0,-0.012444,0.012931999999999999,0.996252,-0.6300000000000001,0.56,0.0,3.32,3.33,3.32,3.31,3.32,3.32,3.32,3.3,3.33,3.33,3.33,3.32,3.31,3.32,3.32,3.32,3.32,3.32,3.32,3.32,3.33,3.33,3.33,3.33,3.33,3.3,79.7,0.0,1.0,0.0,1.0,1.0,1156921,0.0,0.0
1765219661963,0.0,0.0,2.0,25.0,0.0,0.0,0.0,0.0,0.0,0.0,-0.012444,0.012931999999999999,0.996252,-0.6300000000000001,0.56,0.0,3.32,3.33,3.32,3.31,3.32,3.32,3.32,3.3,3.33,3.33,3.33,3.32,3.31,3.32,3.32,3.32,3.32,3.32,3.32,3.32,3.33,3.33,3.33,3.33,3.33,3.3,79.7,0.0,1.0,0.0,1.0,1.0,1156937,0.0,0.0
1765219661979,0.0,0.0,2.0,25.0,0.0,0.0,0.0,0.0,0.0,0.0,-0.018788,0.010858,0.9928359999999999,-0.6300000000000001,0.56,0.0,3.32,3.33,3.32,3.31,3.32,3.32,3.32,3.3,3.33,3.33,3.33,3.32,3.31,3.32,3.32,3.32,3.32,3.32,3.32,3.32,3.33,3.33,3.33,3.33,3.33,3.3,79.7,0.0,1.0,0.0,1.0,1.0,1156953,0.0,0.0
1765219662013,0.0,0.0,2.0,25.0,0.0,0.0,0.0,0.0,0.0,0.0,-0.018788,0.010858,0.9928359999999999,-0.6300000000000001,0.56,0.0,3.32,3.33,3.32,3.31,3.32,3.32,3.32,3.3,3.33,3.33,3.33,3.32,3.31,3.32,3.32,3.32,3.32,3.32,3.32,3.32,3.33,3.33,3.33,3.33,3.33,3.3,79.7,0.0,1.0,0.0,1.0,1.0,1156987,0.0,0.0
1765219662030,0.0,0.0,2.0,25.0,0.0,0.0,0.0,0.0,0.0,0.0,-0.018788,0.010858,0.9928359999999999,-0.6300000000000001,0.56,0.0,3.32,3.33,3.32,3.31,3.32,3.32,3.32,3.3,3.33,3.33,3.33,3.32,3.31,3.32,3.32,3.32,3.32,3.32,3.32,3.32,3.33,3.33,3.33,3.33,3.33,3.3,79.7,0.0,1.0,0.0,1.0,1.0,1157004,0.0,0.0
1765219662046,0.0,0.0,2.0,25.0,0.0,0.0,0.0,0.0,0.0,0.0,-0.018788,0.010858,0.9928359999999999,-0.6300000000000001,0.56,0.0,3.32,3.33,3.32,3.31,3.32,3.32,3.32,3.3,3.33,3.33,3.33,3.32,3.31,3.32,3.32,3.32,3.32,3.32,3.32,3.32,3.33,3.33,3.33,3.33,3.33,3.3,79.7,0.0,1.0,0.0,1.0,1.0,1157020,0.0,0.0
1765219662080,0.0,0.0,2.0,25.0,0.0,0.0,0.0,0.0,0.0,0.0,-0.018788,0.010858,0.9928359999999999,-0.6300000000000001,0.56,0.0,3.32,3.33,3.32,3.31,3.32,3.32,3.32,3.3,3.33,3.33,3.33,3.32,3.31,3.32,3.32,3.32,3.32,3.32,3.32,3.32,3.33,3.33,3.33,3.33,3.33,3.3,79.7,0.0,1.0,0.0,1.0,1.0,1157054,0.0,0.0
1765219662097,0.0,0.0,2.0,25.0,0.0,0.0,0.0,0.0,0.0,0.0,-0.018788,0.010858,0.9928359999999999,-0.8400000000000001,0.49000000000000005,-0.14,3.32,3.33,3.32,3.31,3.32,3.32,3.32,3.3,3.33,3.33,3.33,3.32,3.31,3.32,3.32,3.32,3.32,3.32,3.32,3.32,3.33,3.33,3.33,3.33,3.33,3.3,79.7,0.0,1.0,0.0,1.0,1.0,1157071,0.0,0.0
1765219662130,0.0,0.0,2.0,25.0,0.0,0.0,0.0,0.0,0.0,0.0,-0.018788,0.010858,0.9928359999999999,-0.8400000000000001,0.49000000000000005,-0.14,3.32,3.33,3.32,3.31,3.32,3.32,3.32,3.3,3.33,3.33,3.33,3.32,3.31,3.32,3.32,3.32,3.32,3.32,3.32,3.32,3.33,3.33,3.33,3.33,3.33,3.3,79.7,0.0,1.0,0.0,1.0,1.0,1157104,0.0,0.0
1765219662230,0.0,0.0,2.0,25.0,0.0,0.0,0.0,0.0,0.0,0.0,-0.020618,0.010126,0.994544,-0.8400000000000001,0.49000000000000005,-0.14,3.32,3.33,3.32,3.31,3.32,3.32,3.32,3.3,3.33,3.33,3.33,3.32,3.31,3.32,3.32,3.32,3.32,3.32,3.32,3.32,3.33,3.33,3.33,3.33,3.33,3.3,79.7,0.0,1.0,0.0,1.0,1.0,1157204,0.0,0.0
1765219662247,0.0,0.0,2.0,25.0,0.0,0.0,0.0,0.0,0.0,0.0,-0.020618,0.010126,0.994544,-0.7000000000000001,0.42000000000000004,-0.07,3.32,3.33,3.32,3.31,3.32,3.32,3.32,3.3,3.33,3.33,3.33,3.32,3.31,3.32,3.32,3.32,3.32,3.32,3.32,3.32,3.33,3.33,3.33,3.33,3.33,3.3,79.7,0.0,1.0,0.0,1.0,1.0,1157221,0.0,0.0
1765219662281,0.0,0.0,2.0,25.0,0.0,0.0,0.0,0.0,0.0,0.0,-0.020618,0.010126,0.994544,-0.7000000000000001,0.42000000000000004,-0.07,3.32,3.33,3.32,3.31,3.32,3.32,3.32,3.3,3.33,3.33,3.33,3.32,3.31,3.32,3.32,3.32,3.32,3.32,3.32,3.32,3.33,3.33,3.33,3.33,3.33,3.3,79.7,0.0,1.0,0.0,1.0,1.0,1157255,0.0,0.0
1765219662295,0.0,0.0,2.0,25.0,0.0,0.0,0.0,0.0,0.0,0.0,-0.020618,0.010126,0.994544,-0.7000000000000001,0.42000000000000004,-0.07,3.32,3.33,3.32,3.31,3.32,3.32,3.32,3.3,3.33,3.33,3.33,3.32,3.31,3.32,3.32,3.32,3.32,3.32,3.32,3.32,3.33,3.33,3.33,3.33,3.33,3.3,79.7,0.0,1.0,0.0,1.0,1.0,1157269,0.0,0.0
1765219662311,0.0,0.0,2.0,25.0,0.0,0.0,0.0,0.0,0.0,0.0,-0.020618,0.010126,0.994544,-0.7000000000000001,0.42000000000000004,-0.07,3.32,3.33,3.32,3.31,3.32,3.32,3.32,3.3,3.33,3.33,3.33,3.32,3.31,3.32,3.32,3.32,3.32,3.32,3.32,3.32,3.33,3.33,3.33,3.33,3.33,3.3,79.7,0.0,1.0,0.0,1.0,1.0,1157285,0.0,0.0
1765219662330,0.0,0.0,2.0,25.0,0.0,0.0,0.0,0.0,0.0,0.0,-0.020618,0.010126,0.994544,-0.7000000000000001,0.42000000000000004,-0.07,3.32,3.33,3.32,3.31,3.32,3.32,3.32,3.3,3.33,3.33,3.33,3.32,3.31,3.32,3.32,3.32,3.32,3.32,3.32,3.32,3.33,3.33,3.33,3.33,3.33,3.3,79.7,0.0,1.0,0.0,1.0,1.0,1157304,0.0,0.0
1765219662345,0.0,0.0,2.0,25.0,0.0,0.0,0.0,0.0,0.0,0.0,-0.020618,0.010126,0.994544,-0.7000000000000001,0.42000000000000004,-0.07,3.32,3.33,3.32,3.31,3.32,3.32,3.32,3.3,3.33,3.33,3.33,3.32,3.31,3.32,3.32,3.32,3.32,3.32,3.32,3.32,3.33,3.33,3.33,3.33,3.33,3.3,79.7,0.0,1.0,0.0,1.0,1.0,1157319,0.0,0.0
1765219662380,0.0,0.0,2.0,25.0,0.0,0.0,0.0,0.0,0.0,0.0,-0.018056,0.010492,0.993202,-0.7000000000000001,0.42000000000000004,-0.07,3.32,3.33,3.32,3.31,3.32,3.32,3.32,3.3,3.33,3.33,3.33,3.32,3.31,3.32,3.32,3.32,3.32,3.32,3.32,3.32,3.33,3.33,3.33,3.33,3.33,3.3,79.7,0.0,1.0,0.0,1.0,1.0,1157354,0.0,0.0
1765219662414,0.0,0.0,2.0,25.0,0.0,0.0,0.0,0.0,0.0,0.0,-0.018056,0.010492,0.993202,-0.7000000000000001,0.42000000000000004,-0.07,3.32,3.33,3.32,3.31,3.32,3.32,3.32,3.3,3.33,3.33,3.33,3.32,3.31,3.32,3.32,3.32,3.32,3.32,3.32,3.32,3.33,3.33,3.33,3.33,3.33,3.3,79.7,0.0,1.0,0.0,1.0,1.0,1157388,0.0,0.0
1765219662447,0.0,0.0,2.0,25.0,0.0,0.0,0.0,0.0,0.0,0.0,-0.018056,0.010492,0.993202,-0.7000000000000001,0.49000000000000005,-17.92,3.32,3.33,3.32,3.31,3.32,3.32,3.32,3.3,3.33,3.33,3.33,3.32,3.31,3.32,3.32,3.32,3.32,3.32,3.32,3.32,3.33,3.33,3.33,3.33,3.33,3.3,79.7,0.0,1.0,0.0,1.0,1.0,1157421,0.0,0.0
1765219662530,0.0,0.0,2.0,25.0,0.0,0.0,0.0,0.0,0.0,0.0,-0.018056,0.010492,0.993202,-0.7000000000000001,0.49000000000000005,-17.92,3.32,3.33,3.32,3.31,3.32,3.32,3.32,3.3,3.33,3.33,3.33,3.32,3.31,3.32,3.32,3.32,3.32,3.32,3.32,3.32,3.33,3.33,3.33,3.33,3.33,3.3,79.7,0.0,1.0,0.0,1.0,1.0,1157504,0.0,0.0
1765219662581,0.0,0.0,2.0,25.0,0.0,0.0,0.0,0.0,0.0,0.0,-0.016836,0.011467999999999999,0.995398,-0.7000000000000001,0.49000000000000005,-17.92,3.32,3.33,3.32,3.31,3.32,3.32,3.32,3.3,3.33,3.33,3.33,3.32,3.31,3.32,3.32,3.32,3.32,3.32,3.32,3.32,3.33,3.33,3.33,3.33,3.33,3.3,79.7,0.0,1.0,0.0,1.0,1.0,1157555,0.0,0.0
1765219662597,0.0,0.0,2.0,25.0,0.0,0.0,0.0,0.0,0.0,0.0,-0.016836,0.011467999999999999,0.995398,-0.77,0.42000000000000004,0.0,3.32,3.33,3.32,3.31,3.32,3.32,3.32,3.3,3.33,3.33,3.33,3.32,3.31,3.32,3.32,3.32,3.32,3.32,3.32,3.32,3.33,3.33,3.33,3.33,3.33,3.3,79.7,0.0,1.0,0.0,1.0,1.0,1157571,0.0,0.0
1765219662646,0.0,0.0,2.0,25.0,0.0,0.0,0.0,0.0,0.0,0.0,-0.018788,0.009271999999999999,0.993812,-0.77,0.42000000000000004,0.0,3.32,3.33,3.32,3.31,3.32,3.32,3.32,3.3,3.33,3.33,3.33,3.32,3.31,3.32,3.32,3.32,3.32,3.32,3.32,3.32,3.33,3.33,3.33,3.33,3.33,3.3,79.7,0.0,1.0,0.0,1.0,1.0,1157620,0.0,0.0
1765219662663,0.0,0.0,2.0,25.0,0.0,0.0,0.0,0.0,0.0,0.0,-0.018788,0.009271999999999999,0.993812,-0.77,0.42000000000000004,0.0,3.32,3.33,3.32,3.31,3.32,3.32,3.32,3.3,3.33,3.33,3.33,3.32,3.31,3.32,3.32,3.32,3.32,3.32,3.32,3.32,3.33,3.33,3.33,3.33,3.33,3.3,79.7,0.0,1.0,0.0,1.0,1.0,1157637,0.0,0.0
1765219662696,0.0,0.0,2.0,25.0,0.0,0.0,0.0,0.0,0.0,0.0,-0.018788,0.009271999999999999,0.993812,-0.77,0.42000000000000004,0.0,3.32,3.33,3.32,3.31,3.32,3.32,3.32,3.3,3.33,3.33,3.33,3.32,3.31,3.32,3.32,3.32,3.32,3.32,3.32,3.32,3.33,3.33,3.33,3.33,3.33,3.3,79.7,0.0,1.0,0.0,1.0,1.0,1157670,0.0,0.0
1765219662713,0.0,0.0,2.0,25.0,0.0,0.0,0.0,0.0,0.0,0.0,-0.018788,0.009271999999999999,0.993812,-0.77,0.56,-17.92,3.32,3.33,3.32,3.31,3.32,3.32,3.32,3.3,3.33,3.33,3.33,3.32,3.31,3.32,3.32,3.32,3.32,3.32,3.32,3.32,3.33,3.33,3.33,3.33,3.33,3.3,79.7,0.0,1.0,0.0,1.0,1.0,1157687,0.0,0.0
1765219662730,0.0,0.0,2.0,25.0,0.0,0.0,0.0,0.0,0.0,0.0,-0.018788,0.009271999999999999,0.993812,-0.77,0.56,-17.92,3.32,3.33,3.32,3.31,3.32,3.32,3.32,3.3,3.33,3.33,3.33,3.32,3.31,3.32,3.32,3.32,3.32,3.32,3.32,3.32,3.33,3.33,3.33,3.33,3.33,3.3,79.7,0.0,1.0,0.0,1.0,1.0,1157704,0.0,0.0
1765219662747,0.0,0.0,2.0,25.0,0.0,0.0,0.0,0.0,0.0,0.0,-0.018788,0.009271999999999999,0.993812,-0.77,0.56,-17.92,3.32,3.33,3.32,3.31,3.32,3.32,3.32,3.3,3.33,3.33,3.33,3.32,3.31,3.32,3.32,3.32,3.32,3.32,3.32,3.32,3.33,3.33,3.33,3.33,3.33,3.3,79.7,0.0,1.0,0.0,1.0,1.0,1157721,0.0,0.0
1765219662764,0.0,0.0,2.0,25.0,0.0,0.0,0.0,0.0,0.0,0.0,-0.018788,0.009271999999999999,0.993812,-0.77,0.56,-17.92,3.32,3.33,3.32,3.31,3.32,3.32,3.32,3.3,3.33,3.33,3.33,3.32,3.31,3.32,3.32,3.32,3.32,3.32,3.32,3.32,3.33,3.33,3.33,3.33,3.33,3.31,79.7,0.0,1.0,0.0,1.0,1.0,1157738,0.0,0.0
1765219662780,0.0,0.0,2.0,25.0,0.0,0.0,0.0,0.0,0.0,0.0,-0.018788,0.009271999999999999,0.993812,-0.77,0.56,-17.92,3.32,3.33,3.32,3.31,3.32,3.32,3.32,3.3,3.33,3.33,3.33,3.32,3.31,3.32,3.32,3.32,3.32,3.32,3.32,3.32,3.33,3.33,3.33,3.33,3.33,3.31,79.7,0.0,1.0,0.0,1.0,1.0,1157754,0.0,0.0
1765219662847,0.0,0.0,2.0,25.0,0.0,0.0,0.0,0.0,0.0,0.0,-0.018788,0.009271999999999999,0.993812,-0.77,0.56,-17.92,3.32,3.33,3.32,3.31,3.32,3.32,3.32,3.3,3.33,3.33,3.33,3.32,3.31,3.32,3.32,3.32,3.32,3.32,3.32,3.32,3.33,3.33,3.33,3.33,3.33,3.31,79.7,0.0,1.0,0.0,1.0,1.0,1157821,0.0,0.0
1765219662913,0.0,0.0,2.0,25.0,0.0,0.0,0.0,0.0,0.0,0.0,-0.019886,0.011712,0.992104,-0.77,0.56,-17.92,3.32,3.33,3.32,3.31,3.32,3.32,3.32,3.3,3.33,3.33,3.33,3.32,3.31,3.32,3.32,3.32,3.32,3.32,3.32,3.32,3.33,3.33,3.33,3.33,3.33,3.31,79.7,0.0,1.0,0.0,1.0,1.0,1157887,0.0,0.0
1765219662930,0.0,0.0,2.0,25.0,0.0,0.0,0.0,0.0,0.0,0.0,-0.019886,0.011712,0.992104,-0.77,0.49000000000000005,0.0,3.32,3.33,3.32,3.31,3.32,3.32,3.32,3.3,3.33,3.33,3.33,3.32,3.31,3.32,3.32,3.32,3.32,3.32,3.32,3.32,3.33,3.33,3.33,3.33,3.33,3.31,79.7,0.0,1.0,0.0,1.0,1.0,1157904,0.0,0.0
1765219662979,0.0,0.0,2.0,25.0,0.0,0.0,0.0,0.0,0.0,0.0,-0.019886,0.011712,0.992104,-0.77,0.49000000000000005,0.0,3.32,3.33,3.32,3.31,3.32,3.32,3.32,3.3,3.33,3.33,3.33,3.32,3.31,3.32,3.32,3.32,3.32,3.32,3.32,3.32,3.33,3.33,3.33,3.33,3.33,3.31,79.7,0.0,1.0,0.0,1.0,1.0,1157953,0.0,0.0
1765219662996,0.0,0.0,2.0,25.0,0.0,0.0,0.0,0.0,0.0,0.0,-0.019886,0.011712,0.992104,-0.77,0.49000000000000005,0.0,3.32,3.33,3.32,3.31,3.32,3.32,3.32,3.3,3.33,3.33,3.33,3.32,3.31,3.32,3.32,3.32,3.32,3.32,3.32,3.32,3.33,3.33,3.33,3.33,3.33,3.31,79.7,0.0,1.0,0.0,1.0,1.0,1157970,0.0,0.0
1765219663013,0.0,0.0,2.0,25.0,0.0,0.0,0.0,0.0,0.0,0.0,-0.019886,0.011712,0.992104,-0.77,0.49000000000000005,0.0,3.32,3.33,3.32,3.31,3.32,3.32,3.32,3.3,3.33,3.33,3.33,3.32,3.31,3.32,3.32,3.32,3.32,3.32,3.32,3.32,3.33,3.33,3.33,3.33,3.33,3.31,79.7,0.0,1.0,0.0,1.0,1.0,1157987,0.0,0.0
1765219663047,0.0,0.0,2.0,25.0,0.0,0.0,0.0,0.0,0.0,0.0,-0.016836,0.010248,0.995154,-0.77,0.49000000000000005,0.0,3.32,3.33,3.32,3.31,3.32,3.32,3.32,3.3,3.33,3.33,3.33,3.32,3.31,3.32,3.32,3.32,3.32,3.32,3.32,3.32,3.33,3.33,3.33,3.33,3.33,3.31,79.7,0.0,1.0,0.0,1.0,1.0,1158021,0.0,0.0
1765219663064,0.0,0.0,2.0,25.0,0.0,0.0,0.0,0.0,0.0,0.0,-0.016836,0.010248,0.995154,-0.77,0.49000000000000005,0.0,3.32,3.33,3.32,3.31,3.32,3.32,3.32,3.3,3.33,3.33,3.33,3.32,3.31,3.32,3.32,3.32,3.32,3.32,3.32,3.32,3.33,3.33,3.33,3.33,3.33,3.31,79.7,0.0,1.0,0.0,1.0,1.0,1158038,0.0,0.0
1765219663097,0.0,0.0,2.0,25.0,0.0,0.0,0.0,0.0,0.0,0.0,-0.016836,0.010248,0.995154,-0.7000000000000001,0.56,0.0,3.32,3.33,3.32,3.31,3.32,3.32,3.32,3.3,3.33,3.33,3.33,3.32,3.31,3.32,3.32,3.32,3.32,3.32,3.32,3.32,3.33,3.33,3.33,3.33,3.33,3.31,79.7,0.0,1.0,0.0,1.0,1.0,1158071,0.0,0.0
1765219663130,0.0,0.0,2.0,25.0,0.0,0.0,0.0,0.0,0.0,0.0,-0.016836,0.010248,0.995154,-0.7000000000000001,0.56,0.0,3.32,3.33,3.32,3.31,3.32,3.32,3.32,3.3,3.33,3.33,3.33,3.32,3.31,3.32,3.32,3.32,3.32,3.32,3.32,3.32,3.33,3.33,3.33,3.33,3.33,3.31,79.7,0.0,1.0,0.0,1.0,1.0,1158104,0.0,0.0
1765219663147,0.0,0.0,2.0,25.0,0.0,0.0,0.0,0.0,0.0,0.0,-0.016836,0.010248,0.995154,-0.7000000000000001,0.56,0.0,3.32,3.33,3.32,3.31,3.32,3.32,3.32,3.3,3.33,3.33,3.33,3.32,3.31,3.32,3.32,3.32,3.32,3.32,3.32,3.32,3.33,3.33,3.33,3.33,3.33,3.31,79.7,0.0,1.0,0.0,1.0,1.0,1158121,0.0,0.0
1765219663180,0.0,0.0,2.0,25.0,0.0,0.0,0.0,0.0,0.0,0.0,-0.016836,0.010248,0.995154,-0.7000000000000001,0.56,0.0,3.32,3.33,3.32,3.31,3.32,3.32,3.32,3.3,3.33,3.33,3.33,3.32,3.31,3.32,3.32,3.32,3.32,3.32,3.32,3.32,3.33,3.33,3.33,3.33,3.33,3.31,79.7,0.0,1.0,0.0,1.0,1.0,1158154,0.0,0.0
1765219663230,0.0,0.0,2.0,25.0,0.0,0.0,0.0,0.0,0.0,0.0,-0.016836,0.010248,0.995154,-0.7000000000000001,0.56,0.0,3.32,3.33,3.32,3.31,3.32,3.32,3.32,3.3,3.33,3.33,3.33,3.32,3.31,3.32,3.32,3.32,3.32,3.32,3.32,3.32,3.33,3.33,3.33,3.33,3.33,3.31,79.7,0.0,1.0,0.0,1.0,1.0,1158204,0.0,0.0
1765219663263,0.0,0.0,2.0,25.0,0.0,0.0,0.0,0.0,0.0,0.0,-0.017446,0.010003999999999999,0.989664,-0.7000000000000001,0.56,0.0,3.32,3.33,3.32,3.31,3.32,3.32,3.32,3.3,3.33,3.33,3.33,3.32,3.31,3.32,3.32,3.32,3.32,3.32,3.32,3.32,3.33,3.33,3.33,3.33,3.33,3.31,79.7,0.0,1.0,0.0,1.0,1.0,1158237,0.0,0.0
1765219663297,0.0,0.0,2.0,25.0,0.0,0.0,0.0,0.0,0.0,0.0,-0.017446,0.010003999999999999,0.989664,-0.7000000000000001,0.56,-0.07,3.32,3.33,3.32,3.31,3.32,3.32,3.32,3.3,3.33,3.33,3.33,3.32,3.31,3.32,3.32,3.32,3.32,3.32,3.32,3.32,3.33,3.33,3.33,3.33,3.33,3.31,79.7,0.0,1.0,0.0,1.0,1.0,1158271,0.0,0.0
1765219663347,0.0,0.0,2.0,25.0,0.0,0.0,0.0,0.0,0.0,0.0,-0.01769,0.008052,0.9943,-0.7000000000000001,0.56,-0.07,3.32,3.33,3.32,3.31,3.32,3.32,3.32,3.3,3.33,3.33,3.33,3.32,3.31,3.32,3.32,3.32,3.32,3.32,3.32,3.32,3.33,3.33,3.33,3.33,3.33,3.31,79.7,0.0,1.0,0.0,1.0,1.0,1158321,0.0,0.0
1765219663380,0.0,0.0,2.0,25.0,0.0,0.0,0.0,0.0,0.0,0.0,-0.01769,0.008052,0.9943,-0.8400000000000001,0.49000000000000005,0.0,3.32,3.33,3.32,3.31,3.32,3.32,3.32,3.3,3.33,3.33,3.33,3.32,3.31,3.32,3.32,3.32,3.32,3.32,3.32,3.32,3.33,3.33,3.33,3.33,3.33,3.31,79.7,0.0,1.0,0.0,1.0,1.0,1158354,0.0,0.0
1765219663396,0.0,0.0,2.0,25.0,0.0,0.0,0.0,0.0,0.0,0.0,-0.01769,0.008052,0.9943,-0.8400000000000001,0.49000000000000005,0.0,3.32,3.33,3.32,3.31,3.32,3.32,3.32,3.3,3.33,3.33,3.33,3.32,3.31,3.32,3.32,3.32,3.32,3.32,3.32,3.32,3.33,3.33,3.33,3.33,3.33,3.31,79.7,0.0,1.0,0.0,1.0,1.0,1158370,0.0,0.0
1765219663413,0.0,0.0,2.0,25.0,0.0,0.0,0.0,0.0,0.0,0.0,-0.01769,0.008052,0.9943,-0.8400000000000001,0.49000000000000005,0.0,3.32,3.33,3.32,3.31,3.32,3.32,3.32,3.3,3.33,3.33,3.33,3.32,3.31,3.32,3.32,3.32,3.32,3.32,3.32,3.32,3.33,3.33,3.33,3.33,3.33,3.31,79.7,0.0,1.0,0.0,1.0,1.0,1158387,0.0,0.0
1765219663430,0.0,0.0,2.0,25.0,0.0,0.0,0.0,0.0,0.0,0.0,-0.01769,0.008052,0.9943,-0.8400000000000001,0.49000000000000005,0.0,3.32,3.33,3.32,3.31,3.32,3.32,3.32,3.3,3.33,3.33,3.33,3.32,3.31,3.32,3.32,3.32,3.32,3.32,3.32,3.32,3.33,3.33,3.33,3.33,3.33,3.31,79.7,0.0,1.0,0.0,1.0,1.0,1158404,0.0,0.0
1765219663463,0.0,0.0,2.0,25.0,0.0,0.0,0.0,0.0,0.0,0.0,-0.01769,0.008052,0.9943,-0.8400000000000001,0.49000000000000005,0.0,3.32,3.33,3.32,3.31,3.32,3.32,3.32,3.3,3.33,3.33,3.33,3.32,3.31,3.32,3.32,3.32,3.32,3.32,3.32,3.32,3.33,3.33,3.33,3.33,3.33,3.31,79.7,0.0,1.0,0.0,1.0,1.0,1158437,0.0,0.0
1765219663480,0.0,0.0,2.0,25.0,0.0,0.0,0.0,0.0,0.0,0.0,-0.01769,0.008052,0.9943,-0.8400000000000001,0.49000000000000005,0.0,3.32,3.33,3.32,3.31,3.32,3.32,3.32,3.3,3.33,3.33,3.33,3.32,3.31,3.32,3.32,3.32,3.32,3.32,3.32,3.32,3.33,3.33,3.33,3.33,3.33,3.31,79.7,0.0,1.0,0.0,1.0,1.0,1158454,0.0,0.0
1765219663496,0.0,0.0,2.0,25.0,0.0,0.0,0.0,0.0,0.0,0.0,-0.01769,0.008052,0.9943,-0.8400000000000001,0.49000000000000005,0.0,3.32,3.33,3.32,3.31,3.32,3.32,3.32,3.3,3.33,3.33,3.33,3.32,3.31,3.32,3.32,3.32,3.32,3.32,3.32,3.32,3.33,3.33,3.33,3.33,3.33,3.31,79.7,0.0,1.0,0.0,1.0,1.0,1158470,0.0,0.0
1765219663530,0.0,0.0,2.0,25.0,0.0,0.0,0.0,0.0,0.0,0.0,-0.01769,0.008052,0.9943,-0.8400000000000001,0.49000000000000005,0.0,3.32,3.33,3.32,3.31,3.32,3.32,3.32,3.3,3.33,3.33,3.33,3.32,3.31,3.32,3.32,3.32,3.32,3.32,3.32,3.32,3.33,3.33,3.33,3.33,3.33,3.31,79.7,0.0,1.0,0.0,1.0,1.0,1158504,0.0,0.0
1765219663547,0.0,0.0,2.0,25.0,0.0,0.0,0.0,0.0,0.0,0.0,-0.01769,0.008052,0.9943,-0.8400000000000001,0.49000000000000005,0.0,3.32,3.33,3.32,3.31,3.32,3.32,3.32,3.3,3.33,3.33,3.33,3.32,3.31,3.32,3.32,3.32,3.32,3.32,3.32,3.32,3.33,3.33,3.33,3.33,3.33,3.31,79.7,0.0,1.0,0.0,1.0,1.0,1158521,0.0,0.0
1765219663563,0.0,0.0,2.0,25.0,0.0,0.0,0.0,0.0,0.0,0.0,-0.01769,0.008052,0.9943,-0.8400000000000001,0.49000000000000005,0.0,3.32,3.33,3.32,3.31,3.32,3.32,3.32,3.3,3.33,3.33,3.33,3.32,3.31,3.32,3.32,3.32,3.32,3.32,3.32,3.32,3.33,3.33,3.33,3.33,3.33,3.31,79.7,0.0,1.0,0.0,1.0,1.0,1158537,0.0,0.0
1765219663580,0.0,0.0,2.0,25.0,0.0,0.0,0.0,0.0,0.0,0.0,-0.01769,0.008052,0.9943,-0.8400000000000001,0.49000000000000005,0.0,3.32,3.33,3.32,3.31,3.32,3.32,3.32,3.3,3.33,3.33,3.33,3.32,3.31,3.32,3.32,3.32,3.32,3.32,3.32,3.32,3.33,3.33,3.33,3.33,3.33,3.31,79.7,0.0,1.0,0.0,1.0,1.0,1158554,0.0,0.0
1765219663613,0.0,0.0,2.0,25.0,0.0,0.0,0.0,0.0,0.0,0.0,-0.01769,0.008052,0.9943,-0.8400000000000001,0.49000000000000005,0.0,3.32,3.33,3.32,3.31,3.32,3.32,3.32,3.3,3.33,3.33,3.33,3.32,3.31,3.32,3.32,3.32,3.32,3.32,3.32,3.32,3.33,3.33,3.33,3.33,3.33,3.31,79.7,0.0,1.0,0.0,1.0,1.0,1158587,0.0,0.0
1765219663663,0.0,0.0,2.0,25.0,0.0,0.0,0.0,0.0,0.0,0.0,-0.01952,0.011712,0.990884,-0.8400000000000001,0.49000000000000005,0.0,3.32,3.33,3.32,3.31,3.32,3.32,3.32,3.3,3.33,3.33,3.33,3.32,3.31,3.32,3.32,3.32,3.32,3.32,3.32,3.32,3.33,3.33,3.33,3.33,3.33,3.31,79.7,0.0,1.0,0.0,1.0,1.0,1158637,0.0,0.0
1765219663680,0.0,0.0,2.0,25.0,0.0,0.0,0.0,0.0,0.0,0.0,-0.01952,0.011712,0.990884,-0.7000000000000001,0.56,-0.14,3.32,3.33,3.32,3.31,3.32,3.32,3.32,3.3,3.33,3.33,3.33,3.32,3.31,3.32,3.32,3.32,3.32,3.32,3.32,3.32,3.33,3.33,3.33,3.33,3.33,3.31,79.7,0.0,1.0,0.0,1.0,1.0,1158654,0.0,0.0
1765219663747,0.0,0.0,2.0,25.0,0.0,0.0,0.0,0.0,0.0,0.0,-0.01952,0.011712,0.990884,-0.7000000000000001,0.56,-0.14,3.32,3.33,3.32,3.31,3.32,3.32,3.32,3.3,3.33,3.33,3.33,3.32,3.31,3.32,3.32,3.32,3.32,3.32,3.32,3.32,3.33,3.33,3.33,3.33,3.33,3.31,79.7,0.0,1.0,0.0,1.0,1.0,1158721,0.0,0.0
1765219663763,0.0,0.0,2.0,25.0,0.0,0.0,0.0,0.0,0.0,0.0,-0.01952,0.011712,0.990884,-0.7000000000000001,0.56,-0.14,3.32,3.33,3.32,3.31,3.32,3.32,3.32,3.3,3.33,3.33,3.33,3.32,3.31,3.32,3.32,3.32,3.32,3.32,3.32,3.32,3.33,3.33,3.33,3.33,3.33,3.31,79.7,0.0,1.0,0.0,1.0,1.0,1158737,0.0,0.0
1765219663780,0.0,0.0,2.0,25.0,0.0,0.0,0.0,0.0,0.0,0.0,-0.01952,0.011712,0.990884,-0.7000000000000001,0.56,-0.14,3.32,3.33,3.32,3.31,3.32,3.32,3.32,3.3,3.33,3.33,3.33,3.32,3.31,3.32,3.32,3.32,3.32,3.32,3.32,3.32,3.33,3.33,3.33,3.33,3.33,3.31,79.7,0.0,1.0,0.0,1.0,1.0,1158754,0.0,0.0
1765219663796,0.0,0.0,2.0,25.0,0.0,0.0,0.0,0.0,0.0,0.0,-0.02013,0.010248,0.9916159999999999,-0.7000000000000001,0.56,-0.14,3.32,3.33,3.32,3.31,3.32,3.32,3.32,3.3,3.33,3.33,3.33,3.32,3.31,3.32,3.32,3.32,3.32,3.32,3.32,3.32,3.33,3.33,3.33,3.33,3.33,3.31,79.7,0.0,1.0,0.0,1.0,1.0,1158770,0.0,0.0
1765219663814,0.0,0.0,2.0,25.0,0.0,0.0,0.0,0.0,0.0,0.0,-0.02013,0.010248,0.9916159999999999,-0.77,0.49000000000000005,-0.14,3.32,3.33,3.32,3.31,3.32,3.32,3.32,3.3,3.33,3.33,3.33,3.32,3.31,3.32,3.32,3.32,3.32,3.32,3.32,3.32,3.33,3.33,3.33,3.33,3.33,3.31,79.7,0.0,1.0,0.0,1.0,1.0,1158788,0.0,0.0
1765219663846,0.0,0.0,2.0,25.0,0.0,0.0,0.0,0.0,0.0,0.0,-0.02013,0.010248,0.9916159999999999,-0.77,0.49000000000000005,-0.14,3.32,3.33,3.32,3.31,3.32,3.32,3.32,3.3,3.33,3.33,3.33,3.32,3.31,3.32,3.32,3.32,3.32,3.32,3.32,3.32,3.33,3.33,3.33,3.33,3.33,3.31,79.7,0.0,1.0,0.0,1.0,1.0,1158820,0.0,0.0
1765219663863,0.0,0.0,2.0,25.0,0.0,0.0,0.0,0.0,0.0,0.0,-0.02013,0.010248,0.9916159999999999,-0.77,0.49000000000000005,-0.14,3.32,3.33,3.32,3.31,3.32,3.32,3.32,3.3,3.33,3.33,3.33,3.32,3.31,3.32,3.32,3.32,3.32,3.32,3.32,3.32,3.33,3.33,3.33,3.33,3.33,3.31,79.7,0.0,1.0,0.0,1.0,1.0,1158837,0.0,0.0
1765219663880,0.0,0.0,2.0,25.0,0.0,0.0,0.0,0.0,0.0,0.0,-0.02013,0.010248,0.9916159999999999,-0.77,0.49000000000000005,-0.14,3.32,3.33,3.32,3.31,3.32,3.32,3.32,3.3,3.33,3.33,3.33,3.32,3.31,3.32,3.32,3.32,3.32,3.32,3.32,3.32,3.33,3.33,3.33,3.33,3.33,3.31,79.7,0.0,1.0,0.0,1.0,1.0,1158854,0.0,0.0
1765219663898,0.0,0.0,2.0,25.0,0.0,0.0,0.0,0.0,0.0,0.0,-0.02013,0.010248,0.9916159999999999,-0.77,0.49000000000000005,-0.14,3.32,3.33,3.32,3.31,3.32,3.32,3.32,3.3,3.33,3.33,3.33,3.32,3.31,3.32,3.32,3.32,3.32,3.32,3.32,3.32,3.33,3.33,3.33,3.33,3.33,3.31,79.7,0.0,1.0,0.0,1.0,1.0,1158872,0.0,0.0
1765219663914,0.0,0.0,2.0,25.0,0.0,0.0,0.0,0.0,0.0,0.0,-0.02013,0.010248,0.9916159999999999,-0.77,0.49000000000000005,-0.14,3.32,3.33,3.32,3.31,3.32,3.32,3.32,3.3,3.33,3.33,3.33,3.32,3.31,3.32,3.32,3.32,3.32,3.32,3.32,3.32,3.33,3.33,3.33,3.33,3.33,3.31,79.7,0.0,1.0,0.0,1.0,1.0,1158888,0.0,0.0
1765219663962,0.0,0.0,2.0,25.0,0.0,0.0,0.0,0.0,0.0,0.0,-0.02013,0.010248,0.9916159999999999,-0.77,0.49000000000000005,-0.14,3.32,3.33,3.32,3.31,3.32,3.32,3.32,3.3,3.33,3.33,3.33,3.32,3.31,3.32,3.32,3.32,3.32,3.32,3.32,3.32,3.33,3.33,3.33,3.33,3.33,3.31,79.7,0.0,1.0,0.0,1.0,1.0,1158936,0.0,0.0
1765219663977,0.0,0.0,2.0,25.0,0.0,0.0,0.0,0.0,0.0,0.0,-0.018178,0.010003999999999999,0.996984,-0.77,0.49000000000000005,-0.14,3.32,3.33,3.32,3.31,3.32,3.32,3.32,3.3,3.33,3.33,3.33,3.32,3.31,3.32,3.32,3.32,3.32,3.32,3.32,3.32,3.33,3.33,3.33,3.33,3.33,3.31,79.7,0.0,1.0,0.0,1.0,1.0,1158951,0.0,0.0
1765219664029,0.0,0.0,2.0,25.0,0.0,0.0,0.0,0.0,0.0,0.0,-0.018178,0.010003999999999999,0.996984,-0.8400000000000001,0.49000000000000005,0.0,3.32,3.33,3.32,3.31,3.32,3.32,3.32,3.3,3.33,3.33,3.33,3.32,3.31,3.32,3.32,3.32,3.32,3.32,3.32,3.32,3.33,3.33,3.33,3.33,3.33,3.31,79.7,0.0,1.0,0.0,1.0,1.0,1159003,0.0,0.0
1765219664096,0.0,0.0,2.0,25.0,0.0,0.0,0.0,0.0,0.0,0.0,-0.0183,0.011224,0.9943,-0.8400000000000001,0.49000000000000005,0.0,3.32,3.33,3.32,3.31,3.32,3.32,3.32,3.3,3.33,3.33,3.33,3.32,3.31,3.32,3.32,3.32,3.32,3.32,3.32,3.32,3.33,3.33,3.33,3.33,3.33,3.31,79.7,0.0,1.0,0.0,1.0,1.0,1159070,0.0,0.0
1765219664114,0.0,0.0,2.0,25.0,0.0,0.0,0.0,0.0,0.0,0.0,-0.0183,0.011224,0.9943,-0.7000000000000001,0.56,0.0,3.32,3.33,3.32,3.31,3.32,3.32,3.32,3.3,3.33,3.33,3.33,3.32,3.31,3.32,3.32,3.32,3.32,3.32,3.32,3.32,3.33,3.33,3.33,3.33,3.33,3.31,79.7,0.0,1.0,0.0,1.0,1.0,1159088,0.0,0.0
1765219664129,0.0,0.0,2.0,25.0,0.0,0.0,0.0,0.0,0.0,0.0,-0.0183,0.011224,0.9943,-0.7000000000000001,0.56,0.0,3.32,3.33,3.32,3.31,3.32,3.32,3.32,3.3,3.33,3.33,3.33,3.32,3.31,3.32,3.32,3.32,3.32,3.32,3.32,3.32,3.33,3.33,3.33,3.33,3.33,3.31,79.7,0.0,1.0,0.0,1.0,1.0,1159103,0.0,0.0
1765219664145,0.0,0.0,2.0,25.0,0.0,0.0,0.0,0.0,0.0,0.0,-0.0183,0.011224,0.9943,-0.7000000000000001,0.56,0.0,3.32,3.33,3.32,3.31,3.32,3.32,3.32,3.3,3.33,3.33,3.33,3.32,3.31,3.32,3.32,3.32,3.32,3.32,3.32,3.32,3.33,3.33,3.33,3.33,3.33,3.31,79.7,0.0,1.0,0.0,1.0,1.0,1159119,0.0,0.0
1765219664162,0.0,0.0,2.0,25.0,0.0,0.0,0.0,0.0,0.0,0.0,-0.0183,0.011224,0.9943,-0.7000000000000001,0.56,0.0,3.32,3.33,3.32,3.31,3.32,3.32,3.32,3.3,3.33,3.33,3.33,3.32,3.31,3.32,3.32,3.32,3.32,3.32,3.32,3.32,3.33,3.33,3.33,3.33,3.33,3.31,79.7,0.0,1.0,0.0,1.0,1.0,1159136,0.0,0.0
1765219664178,0.0,0.0,2.0,25.0,0.0,0.0,0.0,0.0,0.0,0.0,-0.0183,0.011224,0.9943,-0.7000000000000001,0.56,0.0,3.32,3.33,3.32,3.31,3.32,3.32,3.32,3.3,3.33,3.33,3.33,3.32,3.31,3.32,3.32,3.32,3.32,3.32,3.32,3.32,3.33,3.33,3.33,3.33,3.33,3.31,79.7,0.0,1.0,0.0,1.0,1.0,1159152,0.0,0.0
1765219664211,0.0,0.0,2.0,25.0,0.0,0.0,0.0,0.0,0.0,0.0,-0.0183,0.011224,0.9943,-0.7000000000000001,0.56,0.0,3.32,3.33,3.32,3.31,3.32,3.32,3.32,3.3,3.33,3.33,3.33,3.32,3.31,3.32,3.32,3.32,3.32,3.32,3.32,3.32,3.33,3.33,3.33,3.33,3.33,3.31,79.7,0.0,1.0,0.0,1.0,1.0,1159185,0.0,0.0
1765219664263,0.0,0.0,2.0,25.0,0.0,0.0,0.0,0.0,0.0,0.0,-0.0183,0.011224,0.9943,-0.7000000000000001,0.56,0.0,3.32,3.33,3.32,3.31,3.32,3.32,3.32,3.3,3.33,3.33,3.33,3.32,3.31,3.32,3.32,3.32,3.32,3.32,3.32,3.32,3.33,3.33,3.33,3.33,3.33,3.31,79.7,0.0,1.0,0.0,1.0,1.0,1159237,0.0,0.0
1765219664314,0.0,0.0,2.0,25.0,0.0,0.0,0.0,0.0,0.0,0.0,-0.020984,0.01159,0.992348,-0.7000000000000001,0.56,0.0,3.32,3.33,3.32,3.31,3.32,3.32,3.32,3.3,3.33,3.33,3.33,3.32,3.31,3.32,3.32,3.32,3.32,3.32,3.32,3.32,3.33,3.33,3.33,3.33,3.33,3.31,79.7,0.0,1.0,0.0,1.0,1.0,1159288,0.0,0.0
1765219664346,0.0,0.0,2.0,25.0,0.0,0.0,0.0,0.0,0.0,0.0,-0.020984,0.01159,0.992348,-0.7000000000000001,0.56,-0.07,3.32,3.33,3.32,3.31,3.32,3.32,3.32,3.3,3.33,3.33,3.33,3.32,3.31,3.32,3.32,3.32,3.32,3.32,3.32,3.32,3.33,3.33,3.33,3.33,3.33,3.3,79.7,0.0,1.0,0.0,1.0,1.0,1159320,0.0,0.0
1765219664380,0.0,0.0,2.0,25.0,0.0,0.0,0.0,0.0,0.0,0.0,-0.020984,0.01159,0.992348,-0.7000000000000001,0.56,-0.07,3.32,3.33,3.32,3.31,3.32,3.32,3.32,3.3,3.33,3.33,3.33,3.32,3.31,3.32,3.32,3.32,3.32,3.32,3.32,3.32,3.33,3.33,3.33,3.33,3.33,3.3,79.7,0.0,1.0,0.0,1.0,1.0,1159354,0.0,0.0
1765219664462,0.0,0.0,2.0,25.0,0.0,0.0,0.0,0.0,0.0,0.0,-0.016104,0.009028,0.99308,-0.7000000000000001,0.56,-0.07,3.32,3.33,3.32,3.31,3.32,3.32,3.32,3.3,3.33,3.33,3.33,3.32,3.31,3.32,3.32,3.32,3.32,3.32,3.32,3.32,3.33,3.33,3.33,3.33,3.33,3.3,79.7,0.0,1.0,0.0,1.0,1.0,1159436,0.0,0.0
1765219664478,0.0,0.0,2.0,25.0,0.0,0.0,0.0,0.0,0.0,0.0,-0.016104,0.009028,0.99308,-0.7000000000000001,0.56,-0.07,3.32,3.33,3.32,3.31,3.32,3.32,3.32,3.3,3.33,3.33,3.33,3.32,3.31,3.32,3.32,3.32,3.32,3.32,3.32,3.32,3.33,3.33,3.33,3.33,3.33,3.3,79.7,0.0,1.0,0.0,1.0,1.0,1159452,0.0,0.0
1765219664496,0.0,0.0,2.0,25.0,0.0,0.0,0.0,0.0,0.0,0.0,-0.016104,0.009028,0.99308,-0.7000000000000001,0.56,-0.07,3.32,3.33,3.32,3.31,3.32,3.32,3.32,3.3,3.33,3.33,3.33,3.32,3.31,3.32,3.32,3.32,3.32,3.32,3.32,3.32,3.33,3.33,3.33,3.33,3.33,3.3,79.7,0.0,1.0,0.0,1.0,1.0,1159470,0.0,0.0
1765219664513,0.0,0.0,2.0,25.0,0.0,0.0,0.0,0.0,0.0,0.0,-0.016104,0.009028,0.99308,-0.77,0.56,-0.07,3.32,3.33,3.32,3.31,3.32,3.32,3.32,3.3,3.33,3.33,3.33,3.32,3.31,3.32,3.32,3.32,3.32,3.32,3.32,3.32,3.33,3.33,3.33,3.33,3.33,3.3,79.7,0.0,1.0,0.0,1.0,1.0,1159487,0.0,0.0
1765219664565,0.0,0.0,2.0,25.0,0.0,0.0,0.0,0.0,0.0,0.0,-0.016104,0.009028,0.99308,-0.77,0.56,-0.07,3.32,3.33,3.32,3.31,3.32,3.32,3.32,3.3,3.33,3.33,3.33,3.32,3.31,3.32,3.32,3.32,3.32,3.32,3.32,3.32,3.33,3.33,3.33,3.33,3.33,3.3,79.7,0.0,1.0,0.0,1.0,1.0,1159539,0.0,0.0
1765219664596,0.0,0.0,2.0,25.0,0.0,0.0,0.0,0.0,0.0,0.0,-0.016104,0.009028,0.99308,-0.77,0.56,-0.07,3.32,3.33,3.32,3.31,3.32,3.32,3.32,3.3,3.33,3.33,3.33,3.32,3.31,3.32,3.32,3.32,3.32,3.32,3.32,3.32,3.33,3.33,3.33,3.33,3.33,3.3,79.7,0.0,1.0,0.0,1.0,1.0,1159570,0.0,0.0
1765219664629,0.0,0.0,2.0,25.0,0.0,0.0,0.0,0.0,0.0,0.0,-0.016104,0.009028,0.99308,-0.77,0.56,-0.07,3.32,3.33,3.32,3.31,3.32,3.32,3.32,3.3,3.33,3.33,3.33,3.32,3.31,3.32,3.32,3.32,3.32,3.32,3.32,3.32,3.33,3.33,3.33,3.33,3.33,3.3,79.7,0.0,1.0,0.0,1.0,1.0,1159603,0.0,0.0
1765219664679,0.0,0.0,2.0,25.0,0.0,0.0,0.0,0.0,0.0,0.0,-0.01952,0.010126,0.99186,-0.77,0.56,-0.07,3.32,3.33,3.32,3.31,3.32,3.32,3.32,3.3,3.33,3.33,3.33,3.32,3.31,3.32,3.32,3.32,3.32,3.32,3.32,3.32,3.33,3.33,3.33,3.33,3.33,3.3,79.7,0.0,1.0,0.0,1.0,1.0,1159653,0.0,0.0
1765219664696,0.0,0.0,2.0,25.0,0.0,0.0,0.0,0.0,0.0,0.0,-0.01952,0.010126,0.99186,-0.77,0.56,-0.07,3.32,3.33,3.32,3.31,3.32,3.32,3.32,3.3,3.33,3.33,3.33,3.32,3.31,3.32,3.32,3.32,3.32,3.32,3.32,3.32,3.33,3.33,3.33,3.33,3.33,3.3,79.7,0.0,1.0,0.0,1.0,1.0,1159670,0.0,0.0
1765219664729,0.0,0.0,2.0,25.0,0.0,0.0,0.0,0.0,0.0,0.0,-0.01952,0.010126,0.99186,-0.7000000000000001,0.6300000000000001,0.0,3.32,3.33,3.32,3.31,3.32,3.32,3.32,3.3,3.33,3.33,3.33,3.32,3.31,3.32,3.32,3.32,3.32,3.32,3.32,3.32,3.33,3.33,3.33,3.33,3.33,3.3,79.7,0.0,1.0,0.0,1.0,1.0,1159703,0.0,0.0
1765219664796,0.0,0.0,2.0,25.0,0.0,0.0,0.0,0.0,0.0,0.0,-0.020984,0.010735999999999999,0.994788,-0.7000000000000001,0.6300000000000001,0.0,3.32,3.33,3.32,3.31,3.32,3.32,3.32,3.3,3.33,3.33,3.33,3.32,3.31,3.32,3.32,3.32,3.32,3.32,3.32,3.32,3.33,3.33,3.33,3.33,3.33,3.3,79.7,0.0,1.0,0.0,1.0,1.0,1159770,0.0,0.0
1765219664814,0.0,0.0,2.0,25.0,0.0,0.0,0.0,0.0,0.0,0.0,-0.020984,0.010735999999999999,0.994788,-0.7000000000000001,0.49000000000000005,0.0,3.32,3.33,3.32,3.31,3.32,3.32,3.32,3.3,3.33,3.33,3.33,3.32,3.31,3.32,3.32,3.32,3.32,3.32,3.32,3.32,3.33,3.33,3.33,3.33,3.33,3.3,79.7,0.0,1.0,0.0,1.0,1.0,1159788,0.0,0.0
1765219664849,0.0,0.0,2.0,25.0,0.0,0.0,0.0,0.0,0.0,0.0,-0.020984,0.010735999999999999,0.994788,-0.7000000000000001,0.49000000000000005,0.0,3.32,3.33,3.32,3.31,3.32,3.32,3.32,3.3,3.33,3.33,3.33,3.32,3.31,3.32,3.32,3.32,3.32,3.32,3.32,3.32,3.33,3.33,3.33,3.33,3.33,3.3,79.7,0.0,1.0,0.0,1.0,1.0,1159823,0.0,0.0
1765219664879,0.0,0.0,2.0,25.0,0.0,0.0,0.0,0.0,0.0,0.0,-0.020984,0.010735999999999999,0.994788,-0.7000000000000001,0.49000000000000005,0.0,3.32,3.33,3.32,3.31,3.32,3.32,3.32,3.3,3.33,3.33,3.33,3.32,3.31,3.32,3.32,3.32,3.32,3.32,3.32,3.32,3.33,3.33,3.33,3.33,3.33,3.3,79.7,0.0,1.0,0.0,1.0,1.0,1159853,0.0,0.0
1765219664897,0.0,0.0,2.0,25.0,0.0,0.0,0.0,0.0,0.0,0.0,-0.020984,0.010735999999999999,0.994788,-0.7000000000000001,0.49000000000000005,0.0,3.32,3.33,3.32,3.31,3.32,3.32,3.32,3.3,3.33,3.33,3.33,3.32,3.31,3.32,3.32,3.32,3.32,3.32,3.32,3.32,3.33,3.33,3.33,3.33,3.33,3.3,79.7,0.0,1.0,0.0,1.0,1.0,1159871,0.0,0.0
1765219664912,0.0,0.0,2.0,25.0,0.0,0.0,0.0,0.0,0.0,0.0,-0.020984,0.010735999999999999,0.994788,-0.7000000000000001,0.49000000000000005,0.0,3.32,3.33,3.32,3.31,3.32,3.32,3.32,3.3,3.33,3.33,3.33,3.32,3.31,3.32,3.32,3.32,3.32,3.32,3.32,3.32,3.33,3.33,3.33,3.33,3.33,3.3,79.7,0.0,1.0,0.0,1.0,1.0,1159886,0.0,0.0
1765219664963,0.0,0.0,2.0,25.0,0.0,0.0,0.0,0.0,0.0,0.0,-0.020984,0.010735999999999999,0.994788,-0.7000000000000001,0.49000000000000005,0.0,3.32,3.33,3.32,3.31,3.32,3.32,3.32,3.3,3.33,3.33,3.33,3.32,3.31,3.32,3.32,3.32,3.32,3.32,3.32,3.32,3.33,3.33,3.33,3.33,3.33,3.3,79.7,0.0,1.0,0.0,1.0,1.0,1159937,0.0,0.0
1765219665013,0.0,0.0,2.0,25.0,0.0,0.0,0.0,0.0,0.0,0.0,-0.019154,0.01098,0.993324,-0.7000000000000001,0.49000000000000005,0.0,3.32,3.33,3.32,3.31,3.32,3.32,3.32,3.3,3.33,3.33,3.33,3.32,3.31,3.32,3.32,3.32,3.32,3.32,3.32,3.32,3.33,3.33,3.33,3.33,3.33,3.3,79.7,0.0,1.0,0.0,1.0,1.0,1159987,0.0,0.0
1765219665031,0.0,0.0,2.0,25.0,0.0,0.0,0.0,0.0,0.0,0.0,-0.019154,0.01098,0.993324,-0.7000000000000001,0.56,-0.14,3.32,3.33,3.32,3.31,3.32,3.32,3.32,3.3,3.33,3.33,3.33,3.32,3.31,3.32,3.32,3.32,3.32,3.32,3.32,3.32,3.33,3.33,3.33,3.33,3.33,3.3,79.7,0.0,1.0,0.0,1.0,1.0,1160005,0.0,0.0
1765219665081,0.0,0.0,2.0,25.0,0.0,0.0,0.0,0.0,0.0,0.0,-0.019154,0.01098,0.993324,-0.7000000000000001,0.56,-0.14,3.32,3.33,3.32,3.31,3.32,3.32,3.32,3.3,3.33,3.33,3.33,3.32,3.31,3.32,3.32,3.32,3.32,3.32,3.32,3.32,3.33,3.33,3.33,3.33,3.33,3.3,79.7,0.0,1.0,0.0,1.0,1.0,1160055,0.0,0.0
1765219665180,0.0,0.0,2.0,25.0,0.0,0.0,0.0,0.0,0.0,0.0,-0.017811999999999998,0.009271999999999999,0.996252,-0.7000000000000001,0.56,-0.14,3.32,3.33,3.32,3.31,3.32,3.32,3.32,3.3,3.33,3.33,3.33,3.32,3.31,3.32,3.32,3.32,3.32,3.32,3.32,3.32,3.33,3.33,3.33,3.33,3.33,3.3,79.7,0.0,1.0,0.0,1.0,1.0,1160154,0.0,0.0
1765219665197,0.0,0.0,2.0,25.0,0.0,0.0,0.0,0.0,0.0,0.0,-0.017811999999999998,0.009271999999999999,0.996252,-0.77,0.42000000000000004,17.85,3.32,3.33,3.32,3.31,3.32,3.32,3.32,3.3,3.33,3.33,3.33,3.32,3.31,3.32,3.32,3.32,3.32,3.32,3.32,3.32,3.33,3.33,3.33,3.33,3.33,3.3,79.7,0.0,1.0,0.0,1.0,1.0,1160171,0.0,0.0
1765219665214,0.0,0.0,2.0,25.0,0.0,0.0,0.0,0.0,0.0,0.0,-0.017811999999999998,0.009271999999999999,0.996252,-0.77,0.42000000000000004,17.85,3.32,3.33,3.32,3.31,3.32,3.32,3.32,3.3,3.33,3.33,3.33,3.32,3.31,3.32,3.32,3.32,3.32,3.32,3.32,3.32,3.33,3.33,3.33,3.33,3.33,3.3,79.7,0.0,1.0,0.0,1.0,1.0,1160188,0.0,0.0
1765219665230,0.0,0.0,2.0,25.0,0.0,0.0,0.0,0.0,0.0,0.0,-0.017811999999999998,0.009271999999999999,0.996252,-0.77,0.42000000000000004,17.85,3.32,3.33,3.32,3.31,3.32,3.32,3.32,3.3,3.33,3.33,3.33,3.32,3.31,3.32,3.32,3.32,3.32,3.32,3.32,3.32,3.33,3.33,3.33,3.33,3.33,3.3,79.7,0.0,1.0,0.0,1.0,1.0,1160204,0.0,0.0
1765219665247,0.0,0.0,2.0,25.0,0.0,0.0,0.0,0.0,0.0,0.0,-0.017811999999999998,0.009271999999999999,0.996252,-0.77,0.42000000000000004,17.85,3.32,3.33,3.32,3.31,3.32,3.32,3.32,3.3,3.33,3.33,3.33,3.32,3.31,3.32,3.32,3.32,3.32,3.32,3.32,3.32,3.33,3.33,3.33,3.33,3.33,3.3,79.7,0.0,1.0,0.0,1.0,1.0,1160221,0.0,0.0
1765219665264,0.0,0.0,2.0,25.0,0.0,0.0,0.0,0.0,0.0,0.0,-0.017811999999999998,0.009271999999999999,0.996252,-0.77,0.42000000000000004,17.85,3.32,3.33,3.32,3.31,3.32,3.32,3.32,3.3,3.33,3.33,3.33,3.32,3.31,3.32,3.32,3.32,3.32,3.32,3.32,3.32,3.33,3.33,3.33,3.33,3.33,3.3,79.7,0.0,1.0,0.0,1.0,1.0,1160238,0.0,0.0
1765219665297,0.0,0.0,2.0,25.0,0.0,0.0,0.0,0.0,0.0,0.0,-0.017811999999999998,0.009271999999999999,0.996252,-0.77,0.42000000000000004,17.85,3.32,3.33,3.32,3.31,3.32,3.32,3.32,3.3,3.33,3.33,3.33,3.32,3.31,3.32,3.32,3.32,3.32,3.32,3.32,3.32,3.33,3.33,3.33,3.33,3.33,3.3,79.7,0.0,1.0,0.0,1.0,1.0,1160271,0.0,0.0
1765219665314,0.0,0.0,2.0,25.0,0.0,0.0,0.0,0.0,0.0,0.0,-0.017811999999999998,0.009271999999999999,0.996252,-0.77,0.42000000000000004,17.85,3.32,3.33,3.32,3.31,3.32,3.32,3.32,3.3,3.33,3.33,3.33,3.32,3.31,3.32,3.32,3.32,3.32,3.32,3.32,3.32,3.33,3.33,3.33,3.33,3.33,3.3,79.7,0.0,1.0,0.0,1.0,1.0,1160288,0.0,0.0
1765219665330,0.0,0.0,2.0,25.0,0.0,0.0,0.0,0.0,0.0,0.0,-0.017811999999999998,0.009271999999999999,0.996252,-0.77,0.42000000000000004,17.85,3.32,3.33,3.32,3.31,3.32,3.32,3.32,3.3,3.33,3.33,3.33,3.32,3.31,3.32,3.32,3.32,3.32,3.32,3.32,3.32,3.33,3.33,3.33,3.33,3.33,3.3,79.7,0.0,1.0,0.0,1.0,1.0,1160304,0.0,0.0
1765219665362,0.0,0.0,2.0,25.0,0.0,0.0,0.0,0.0,0.0,0.0,-0.017811999999999998,0.009271999999999999,0.996252,-0.77,0.42000000000000004,17.85,3.32,3.33,3.32,3.31,3.32,3.32,3.32,3.3,3.33,3.33,3.33,3.32,3.31,3.32,3.32,3.32,3.32,3.32,3.32,3.32,3.33,3.33,3.33,3.33,3.33,3.3,79.7,0.0,1.0,0.0,1.0,1.0,1160336,0.0,0.0
1765219665429,0.0,0.0,2.0,25.0,0.0,0.0,0.0,0.0,0.0,0.0,-0.017811999999999998,0.009271999999999999,0.996252,-0.77,0.42000000000000004,17.85,3.32,3.33,3.32,3.31,3.32,3.32,3.32,3.3,3.33,3.33,3.33,3.32,3.31,3.32,3.32,3.32,3.32,3.32,3.32,3.32,3.33,3.33,3.33,3.33,3.33,3.3,79.7,0.0,1.0,0.0,1.0,1.0,1160403,0.0,0.0
1765219665462,0.0,0.0,2.0,25.0,0.0,0.0,0.0,0.0,0.0,0.0,-0.019886,0.011712,0.991372,-0.77,0.42000000000000004,17.85,3.32,3.33,3.32,3.31,3.32,3.32,3.32,3.3,3.33,3.33,3.33,3.32,3.31,3.32,3.32,3.32,3.32,3.32,3.32,3.32,3.33,3.33,3.33,3.33,3.33,3.3,79.7,0.0,1.0,0.0,1.0,1.0,1160436,0.0,0.0
1765219665496,0.0,0.0,2.0,25.0,0.0,0.0,0.0,0.0,0.0,0.0,-0.019886,0.011712,0.991372,-0.7000000000000001,0.42000000000000004,0.0,3.32,3.33,3.32,3.31,3.32,3.32,3.32,3.3,3.33,3.33,3.33,3.32,3.31,3.32,3.32,3.32,3.32,3.32,3.32,3.32,3.33,3.33,3.33,3.33,3.33,3.3,79.7,0.0,1.0,0.0,1.0,1.0,1160470,0.0,0.0
1765219665546,0.0,0.0,2.0,25.0,0.0,0.0,0.0,0.0,0.0,0.0,-0.019032,0.010003999999999999,0.993812,-0.7000000000000001,0.42000000000000004,0.0,3.32,3.33,3.32,3.31,3.32,3.32,3.32,3.3,3.33,3.33,3.33,3.32,3.31,3.32,3.32,3.32,3.32,3.32,3.32,3.32,3.33,3.33,3.33,3.33,3.33,3.3,79.7,0.0,1.0,0.0,1.0,1.0,1160520,0.0,0.0
1765219665562,0.0,0.0,2.0,25.0,0.0,0.0,0.0,0.0,0.0,0.0,-0.019032,0.010003999999999999,0.993812,-0.7000000000000001,0.42000000000000004,0.0,3.32,3.33,3.32,3.31,3.32,3.32,3.32,3.3,3.33,3.33,3.33,3.32,3.31,3.32,3.32,3.32,3.32,3.32,3.32,3.32,3.33,3.33,3.33,3.33,3.33,3.3,79.7,0.0,1.0,0.0,1.0,1.0,1160536,0.0,0.0
1765219665581,0.0,0.0,2.0,25.0,0.0,0.0,0.0,0.0,0.0,0.0,-0.019032,0.010003999999999999,0.993812,-0.7000000000000001,0.42000000000000004,0.0,3.32,3.33,3.32,3.31,3.32,3.32,3.32,3.3,3.33,3.33,3.33,3.32,3.31,3.32,3.32,3.32,3.32,3.32,3.32,3.32,3.33,3.33,3.33,3.33,3.33,3.3,79.7,0.0,1.0,0.0,1.0,1.0,1160555,0.0,0.0
1765219665612,0.0,0.0,2.0,25.0,0.0,0.0,0.0,0.0,0.0,0.0,-0.015616,0.010735999999999999,0.992714,-0.7000000000000001,0.42000000000000004,0.0,3.32,3.33,3.32,3.31,3.32,3.32,3.32,3.3,3.33,3.33,3.33,3.32,3.31,3.32,3.32,3.32,3.32,3.32,3.32,3.32,3.33,3.33,3.33,3.33,3.33,3.3,79.7,0.0,1.0,0.0,1.0,1.0,1160586,0.0,0.0
1765219665646,0.0,0.0,2.0,25.0,0.0,0.0,0.0,0.0,0.0,0.0,-0.015616,0.010735999999999999,0.992714,-0.7000000000000001,0.49000000000000005,-0.07,3.32,3.33,3.32,3.31,3.32,3.32,3.32,3.3,3.33,3.33,3.33,3.32,3.31,3.32,3.32,3.32,3.32,3.32,3.32,3.32,3.33,3.33,3.33,3.33,3.33,3.3,79.7,0.0,1.0,0.0,1.0,1.0,1160620,0.0,0.0
1765219665680,0.0,0.0,2.0,25.0,0.0,0.0,0.0,0.0,0.0,0.0,-0.015616,0.010735999999999999,0.992714,-0.7000000000000001,0.49000000000000005,-0.07,3.32,3.33,3.32,3.31,3.32,3.32,3.32,3.3,3.33,3.33,3.33,3.32,3.31,3.32,3.32,3.32,3.32,3.32,3.32,3.32,3.33,3.33,3.33,3.33,3.33,3.3,79.7,0.0,1.0,0.0,1.0,1.0,1160654,0.0,0.0
1765219665697,0.0,0.0,2.0,25.0,0.0,0.0,0.0,0.0,0.0,0.0,-0.015616,0.010735999999999999,0.992714,-0.7000000000000001,0.49000000000000005,-0.07,3.32,3.33,3.32,3.31,3.32,3.32,3.32,3.3,3.33,3.33,3.33,3.32,3.31,3.32,3.32,3.32,3.32,3.32,3.32,3.32,3.33,3.33,3.33,3.33,3.33,3.3,79.7,0.0,1.0,0.0,1.0,1.0,1160671,0.0,0.0
1765219665713,0.0,0.0,2.0,25.0,0.0,0.0,0.0,0.0,0.0,0.0,-0.015616,0.010735999999999999,0.992714,-0.7000000000000001,0.49000000000000005,-0.07,3.32,3.33,3.32,3.31,3.32,3.32,3.32,3.3,3.33,3.33,3.33,3.32,3.31,3.32,3.32,3.32,3.32,3.32,3.32,3.32,3.33,3.33,3.33,3.33,3.33,3.3,79.7,0.0,1.0,0.0,1.0,1.0,1160687,0.0,0.0
1765219665730,0.0,0.0,2.0,25.0,0.0,0.0,0.0,0.0,0.0,0.0,-0.015616,0.010735999999999999,0.992714,-0.7000000000000001,0.49000000000000005,-0.07,3.32,3.33,3.32,3.31,3.32,3.32,3.32,3.3,3.33,3.33,3.33,3.32,3.31,3.32,3.32,3.32,3.32,3.32,3.32,3.32,3.33,3.33,3.33,3.33,3.33,3.3,79.7,0.0,1.0,0.0,1.0,1.0,1160704,0.0,0.0
1765219665747,0.0,0.0,2.0,25.0,0.0,0.0,0.0,0.0,0.0,0.0,-0.02318,0.008905999999999999,0.993568,-0.7000000000000001,0.49000000000000005,-0.07,3.32,3.33,3.32,3.31,3.32,3.32,3.32,3.3,3.33,3.33,3.33,3.32,3.31,3.32,3.32,3.32,3.32,3.32,3.32,3.32,3.33,3.33,3.33,3.33,3.33,3.3,79.7,0.0,1.0,0.0,1.0,1.0,1160721,0.0,0.0
1765219665766,0.0,0.0,2.0,25.0,0.0,0.0,0.0,0.0,0.0,0.0,-0.02318,0.008905999999999999,0.993568,-0.7000000000000001,0.49000000000000005,-0.07,3.32,3.33,3.32,3.31,3.32,3.32,3.32,3.3,3.33,3.33,3.33,3.32,3.31,3.32,3.32,3.32,3.32,3.32,3.32,3.32,3.33,3.33,3.33,3.33,3.33,3.3,79.7,0.0,1.0,0.0,1.0,1.0,1160740,0.0,0.0
1765219665814,0.0,0.0,2.0,25.0,0.0,0.0,0.0,0.0,0.0,0.0,-0.02318,0.008905999999999999,0.993568,-0.8400000000000001,0.42000000000000004,-0.07,3.32,3.33,3.32,3.31,3.32,3.32,3.32,3.3,3.33,3.33,3.33,3.32,3.31,3.32,3.32,3.32,3.32,3.32,3.32,3.32,3.33,3.33,3.33,3.33,3.33,3.3,79.7,0.0,1.0,0.0,1.0,1.0,1160788,0.0,0.0
1765219665831,0.0,0.0,2.0,25.0,0.0,0.0,0.0,0.0,0.0,0.0,-0.02318,0.008905999999999999,0.993568,-0.8400000000000001,0.42000000000000004,-0.07,3.32,3.33,3.32,3.31,3.32,3.32,3.32,3.3,3.33,3.33,3.33,3.32,3.31,3.32,3.32,3.32,3.32,3.32,3.32,3.32,3.33,3.33,3.33,3.33,3.33,3.3,79.7,0.0,1.0,0.0,1.0,1.0,1160805,0.0,0.0
1765219665915,0.0,0.0,2.0,25.0,0.0,0.0,0.0,0.0,0.0,0.0,-0.019764,0.011467999999999999,0.992958,-0.8400000000000001,0.42000000000000004,-0.07,3.32,3.33,3.32,3.31,3.32,3.32,3.32,3.3,3.33,3.33,3.33,3.32,3.31,3.32,3.32,3.32,3.32,3.32,3.32,3.32,3.33,3.33,3.33,3.33,3.33,3.3,79.7,0.0,1.0,0.0,1.0,1.0,1160889,0.0,0.0
1765219665931,0.0,0.0,2.0,25.0,0.0,0.0,0.0,0.0,0.0,0.0,-0.019764,0.011467999999999999,0.992958,-0.77,0.49000000000000005,0.0,3.32,3.33,3.32,3.31,3.32,3.32,3.32,3.3,3.33,3.33,3.33,3.32,3.31,3.32,3.32,3.32,3.32,3.32,3.32,3.32,3.33,3.33,3.33,3.33,3.33,3.3,79.7,0.0,1.0,0.0,1.0,1.0,1160905,0.0,0.0
1765219665980,0.0,0.0,2.0,25.0,0.0,0.0,0.0,0.0,0.0,0.0,-0.019764,0.011467999999999999,0.992958,-0.77,0.49000000000000005,0.0,3.32,3.33,3.32,3.31,3.32,3.32,3.32,3.3,3.33,3.33,3.33,3.32,3.31,3.32,3.32,3.32,3.32,3.32,3.32,3.32,3.33,3.33,3.33,3.33,3.33,3.3,79.7,0.0,1.0,0.0,1.0,1.0,1160954,0.0,0.0
1765219665997,0.0,0.0,2.0,25.0,0.0,128.0,0.0,0.0,0.0,0.0,-0.019764,0.011467999999999999,0.992958,-0.77,0.49000000000000005,0.0,3.32,3.33,3.32,3.31,3.32,3.32,3.32,3.3,3.33,3.33,3.33,3.32,3.31,3.32,3.32,3.32,3.32,3.32,3.32,3.32,3.33,3.33,3.33,3.33,3.33,3.3,79.7,0.0,1.0,0.0,1.0,1.0,1160971,0.0,0.0
1765219666016,0.0,0.0,2.0,25.0,0.0,128.0,0.0,0.0,0.0,0.0,-0.019764,0.011467999999999999,0.992958,-0.77,0.49000000000000005,0.0,3.32,3.33,3.32,3.31,3.32,3.32,3.32,3.3,3.33,3.33,3.33,3.32,3.31,3.32,3.32,3.32,3.32,3.32,3.32,3.32,3.33,3.33,3.33,3.33,3.33,3.3,79.7,0.0,1.0,0.0,1.0,1.0,1160990,0.0,0.0
1765219666048,0.0,0.0,2.0,25.0,0.0,128.0,0.0,0.0,0.0,0.0,-0.019764,0.011467999999999999,0.992958,-0.77,0.49000000000000005,0.0,3.32,3.33,3.32,3.31,3.32,3.32,3.32,3.3,3.33,3.33,3.33,3.32,3.31,3.32,3.32,3.32,3.32,3.32,3.32,3.32,3.33,3.33,3.33,3.33,3.33,3.3,79.7,0.0,1.0,0.0,1.0,1.0,1161022,0.0,0.0
1765219666065,0.0,0.0,2.0,25.0,0.0,128.0,0.0,0.0,0.0,0.0,-0.019764,0.011467999999999999,0.992958,-0.77,0.49000000000000005,0.0,3.32,3.33,3.32,3.31,3.32,3.32,3.32,3.3,3.33,3.33,3.33,3.32,3.31,3.32,3.32,3.32,3.32,3.32,3.32,3.32,3.33,3.33,3.33,3.33,3.33,3.3,79.7,0.0,1.0,0.0,1.0,1.0,1161039,0.0,0.0
