timestamp,THROTTLE,BRAKE,ECU_MODE_ID,TORQUE_GAIN,TORQUE_REF_LEFT_MOTOR,TORQUE_REF_RIGHT_MOTOR,LEFT_MOTOR_SPEED,RIGHT_MOTOR_SPEED,REAR_LEFT_WHEEL_SPEED,REAR_RIGHT_WHEEL_SPEED,ACCEL_LONGITUDINAL,ACCEL_LATERAL,ACCEL_NORMAL,VEL_ANGULAR_YAW,VEL_ANGULAR_PITCH,VEL_ANGULAR_ROLL,STACK_1_CELL_1,STACK_1_CELL_2,STACK_1_CELL_3,STACK_1_CELL_4,STACK_2_CELL_1,STACK_2_CELL_2,STACK_2_CELL_3,STACK_2_CELL_4,STACK_3_CELL_1,STACK_3_CELL_2,STACK_3_CELL_3,STACK_3_CELL_4,STACK_4_CELL_1,STACK_4_CELL_2,STACK_4_CELL_3,STACK_4_CELL_4,STACK_5_CELL_1,STACK_5_CELL_2,STACK_5_CELL_3,STACK_5_CELL_4,STACK_6_CELL_1,STACK_6_CELL_2,STACK_6_CELL_3,STACK_6_CELL_4,MAX_VOLTAGE,MIN_VOLTAGE,TOTAL_VOLTAGE,SHUNT_CURRENT,BMS_MODE_ID,BMS_ERROR_ID,AIR_P,AIR_N,t
1765221700020,0.0,0.0,1.0,10.0,0.0,0.0,0.0,0.0,0.0,0.0,0.0068319999999999995,-0.061854,0.992104,-0.6300000000000001,0.49000000000000005,0.0,3.32,3.32,3.32,3.3,3.3,3.31,3.3,3.31,3.32,3.32,3.32,3.31,3.29,3.31,3.3,3.31,3.32,3.32,3.32,3.32,3.32,3.33,3.32,3.32,3.33,3.29,79.5,0.0,1.0,0.0,1.0,1.0,3194994
1765221700293,0.0,0.0,2.0,25.0,0.0,0.0,0.0,0.0,0.0,0.0,-0.011224,0.00671,0.992348,-0.6300000000000001,0.35000000000000003,-0.07,3.32,3.32,3.32,3.3,3.3,3.31,3.3,3.31,3.32,3.32,3.32,3.31,3.29,3.31,3.3,3.31,3.32,3.32,3.32,3.32,3.32,3.33,3.32,3.32,3.33,3.29,79.5,0.0,1.0,0.0,1.0,1.0,3195267
1765221700302,0.0,0.0,2.0,25.0,0.0,0.0,0.0,0.0,0.0,0.0,-0.011101999999999999,0.0046359999999999995,0.990762,-0.6300000000000001,0.35000000000000003,-0.07,3.32,3.32,3.32,3.3,3.3,3.31,3.3,3.31,3.32,3.32,3.32,3.31,3.29,3.31,3.3,3.31,3.32,3.32,3.32,3.32,3.32,3.33,3.32,3.32,3.33,3.3,79.6,0.0,1.0,0.0,1.0,1.0,3195276
1765221700337,0.0,0.0,2.0,25.0,0.0,0.0,0.0,0.0,0.0,0.0,-0.00976,0.004758,0.99308,-0.6300000000000001,0.35000000000000003,-0.07,3.32,3.32,3.32,3.3,3.3,3.31,3.3,3.31,3.32,3.32,3.32,3.31,3.29,3.31,3.3,3.31,3.32,3.32,3.32,3.32,3.32,3.33,3.32,3.32,3.33,3.3,79.6,0.0,1.0,0.0,1.0,1.0,3195311
1765221700353,0.0,0.0,2.0,25.0,0.0,0.0,0.0,0.0,0.0,0.0,-0.00976,0.004758,0.99308,-0.56,0.35000000000000003,0.0,3.32,3.32,3.32,3.3,3.3,3.31,3.3,3.31,3.32,3.32,3.32,3.31,3.29,3.31,3.3,3.31,3.32,3.32,3.32,3.32,3.32,3.33,3.32,3.32,3.33,3.3,79.6,0.0,1.0,0.0,1.0,1.0,3195327
1765221700405,0.0,0.0,2.0,25.0,0.0,0.0,0.0,0.0,0.0,0.0,-0.00976,0.004758,0.99308,-0.56,0.35000000000000003,0.0,3.32,3.32,3.32,3.3,3.3,3.31,3.3,3.31,3.32,3.32,3.32,3.31,3.29,3.31,3.3,3.31,3.32,3.32,3.32,3.32,3.32,3.33,3.32,3.32,3.33,3.3,79.6,-2.0,1.0,0.0,1.0,1.0,3195379
1765221700423,0.0,0.0,2.0,25.0,0.0,0.0,0.0,0.0,0.0,0.0,-0.00976,0.004758,0.99308,-0.56,0.35000000000000003,0.0,3.32,3.32,3.32,3.3,3.3,3.31,3.3,3.31,3.32,3.32,3.32,3.31,3.29,3.31,3.3,3.31,3.32,3.32,3.32,3.32,3.32,3.33,3.32,3.32,3.33,3.3,79.6,-2.0,1.0,0.0,1.0,1.0,3195397
1765221700470,0.0,0.0,2.0,25.0,0.0,0.0,0.0,0.0,0.0,0.0,-0.013786,0.004758,0.9943,-0.56,0.35000000000000003,0.0,3.32,3.32,3.32,3.3,3.3,3.31,3.3,3.31,3.32,3.32,3.32,3.31,3.29,3.31,3.3,3.31,3.32,3.32,3.32,3.32,3.32,3.33,3.32,3.32,3.33,3.3,79.6,-2.0,1.0,0.0,1.0,1.0,3195444
1765221700488,0.0,0.0,2.0,25.0,0.0,0.0,0.0,0.0,0.0,0.0,-0.013786,0.004758,0.9943,-0.56,0.35000000000000003,0.0,3.32,3.32,3.32,3.3,3.3,3.31,3.3,3.31,3.32,3.32,3.32,3.31,3.29,3.31,3.3,3.31,3.32,3.32,3.32,3.32,3.32,3.33,3.32,3.32,3.33,3.3,79.6,-2.0,1.0,0.0,1.0,1.0,3195462
1765221700505,0.0,0.0,2.0,25.0,0.0,0.0,0.0,0.0,0.0,0.0,-0.013786,0.004758,0.9943,-0.56,0.35000000000000003,0.0,3.32,3.32,3.32,3.3,3.3,3.31,3.3,3.31,3.32,3.32,3.32,3.31,3.29,3.31,3.3,3.31,3.32,3.32,3.32,3.32,3.32,3.33,3.32,3.32,3.33,3.3,79.6,-2.0,1.0,0.0,1.0,1.0,3195479
1765221700538,0.0,0.0,2.0,25.0,0.0,0.0,0.0,0.0,0.0,0.0,-0.013786,0.004758,0.9943,-0.6300000000000001,0.35000000000000003,0.0,3.32,3.32,3.32,3.3,3.3,3.31,3.3,3.31,3.32,3.32,3.32,3.31,3.29,3.31,3.3,3.31,3.32,3.32,3.32,3.32,3.32,3.33,3.32,3.32,3.33,3.3,79.6,-2.0,1.0,0.0,1.0,1.0,3195512
1765221700555,0.0,0.0,2.0,25.0,0.0,0.0,0.0,0.0,0.0,0.0,-0.013786,0.004758,0.9943,-0.6300000000000001,0.35000000000000003,0.0,3.32,3.32,3.32,3.3,3.3,3.31,3.3,3.31,3.32,3.32,3.32,3.31,3.29,3.31,3.3,3.31,3.32,3.32,3.32,3.32,3.32,3.33,3.32,3.32,3.33,3.3,79.6,-2.0,1.0,0.0,1.0,1.0,3195529
1765221700604,0.0,0.0,2.0,25.0,0.0,0.0,0.0,0.0,0.0,0.0,-0.013786,0.004758,0.9943,-0.6300000000000001,0.35000000000000003,0.0,3.32,3.32,3.32,3.3,3.3,3.31,3.3,3.31,3.32,3.32,3.32,3.31,3.29,3.31,3.3,3.31,3.32,3.32,3.32,3.32,3.32,3.33,3.32,3.32,3.33,3.3,79.6,-2.0,1.0,0.0,1.0,1.0,3195578
1765221700688,0.0,0.0,2.0,25.0,0.0,0.0,0.0,0.0,0.0,0.0,-0.012078,0.00732,0.990884,-0.6300000000000001,0.35000000000000003,0.0,3.32,3.32,3.32,3.3,3.3,3.31,3.3,3.31,3.32,3.32,3.32,3.31,3.29,3.31,3.3,3.31,3.32,3.32,3.32,3.32,3.32,3.33,3.32,3.32,3.33,3.3,79.6,-2.0,1.0,0.0,1.0,1.0,3195662
1765221700704,0.0,0.0,2.0,25.0,0.0,0.0,0.0,0.0,0.0,0.0,-0.012078,0.00732,0.990884,-0.6300000000000001,0.35000000000000003,-0.07,3.32,3.32,3.32,3.3,3.3,3.31,3.3,3.31,3.32,3.32,3.32,3.31,3.29,3.31,3.3,3.31,3.32,3.32,3.32,3.32,3.32,3.33,3.32,3.32,3.33,3.3,79.6,-2.0,1.0,0.0,1.0,1.0,3195678
1765221700754,0.0,0.0,2.0,25.0,0.0,0.0,0.0,0.0,0.0,0.0,-0.012078,0.00732,0.990884,-0.6300000000000001,0.35000000000000003,-0.07,3.32,3.32,3.32,3.3,3.3,3.31,3.3,3.31,3.32,3.32,3.32,3.31,3.29,3.31,3.3,3.31,3.32,3.32,3.32,3.32,3.32,3.33,3.32,3.32,3.33,3.3,79.6,-2.0,1.0,0.0,1.0,1.0,3195728
1765221700787,0.0,0.0,2.0,25.0,0.0,0.0,0.0,0.0,0.0,0.0,-0.012078,0.00732,0.990884,-0.6300000000000001,0.35000000000000003,-0.07,3.32,3.32,3.32,3.3,3.3,3.31,3.3,3.31,3.32,3.32,3.32,3.31,3.29,3.31,3.3,3.31,3.32,3.32,3.32,3.32,3.32,3.33,3.32,3.32,3.33,3.3,79.6,-2.0,1.0,0.0,1.0,1.0,3195761
1765221700821,0.0,0.0,2.0,25.0,0.0,0.0,0.0,0.0,0.0,0.0,-0.010248,0.004392,0.994544,-0.6300000000000001,0.35000000000000003,-0.07,3.32,3.32,3.32,3.3,3.3,3.31,3.3,3.31,3.32,3.32,3.32,3.31,3.29,3.31,3.3,3.31,3.32,3.32,3.32,3.32,3.32,3.33,3.32,3.32,3.33,3.3,79.6,-2.0,1.0,0.0,1.0,1.0,3195795
1765221700888,0.0,0.0,2.0,25.0,0.0,0.0,0.0,0.0,0.0,0.0,-0.010248,0.004392,0.994544,-0.49000000000000005,0.35000000000000003,0.0,3.32,3.32,3.32,3.3,3.3,3.31,3.3,3.31,3.32,3.32,3.32,3.31,3.29,3.31,3.3,3.31,3.32,3.32,3.32,3.32,3.32,3.33,3.32,3.32,3.33,3.3,79.6,-2.0,1.0,0.0,1.0,1.0,3195862
1765221701004,0.0,0.0,2.0,25.0,0.0,0.0,0.0,0.0,0.0,0.0,-0.01098,0.0042699999999999995,0.99186,-0.49000000000000005,0.35000000000000003,0.0,3.32,3.32,3.32,3.3,3.3,3.31,3.3,3.31,3.32,3.32,3.32,3.31,3.29,3.31,3.3,3.31,3.32,3.32,3.32,3.32,3.32,3.33,3.32,3.32,3.33,3.3,79.6,-2.0,1.0,0.0,1.0,1.0,3195978
1765221701069,0.0,0.0,2.0,25.0,0.0,0.0,0.0,0.0,0.0,0.0,-0.01098,0.0042699999999999995,0.99186,-0.56,0.28,0.0,3.32,3.32,3.32,3.3,3.3,3.31,3.3,3.31,3.32,3.32,3.32,3.31,3.29,3.31,3.3,3.31,3.32,3.32,3.32,3.32,3.32,3.33,3.32,3.32,3.33,3.3,79.6,-2.0,1.0,0.0,1.0,1.0,3196043
1765221701121,0.0,0.0,2.0,25.0,0.0,0.0,0.0,0.0,0.0,0.0,-0.013054,0.006222,0.992348,-0.56,0.28,0.0,3.32,3.32,3.32,3.3,3.3,3.31,3.3,3.31,3.32,3.32,3.32,3.31,3.29,3.31,3.3,3.31,3.32,3.32,3.32,3.32,3.32,3.33,3.32,3.32,3.33,3.3,79.6,-2.0,1.0,0.0,1.0,1.0,3196095
1765221701138,0.0,0.0,2.0,25.0,0.0,0.0,0.0,0.0,0.0,0.0,-0.013054,0.006222,0.992348,-0.56,0.28,0.0,3.32,3.33,3.33,3.31,3.3,3.31,3.3,3.31,3.32,3.32,3.32,3.31,3.29,3.31,3.3,3.31,3.32,3.32,3.32,3.32,3.32,3.33,3.32,3.32,3.33,3.3,79.6,-2.0,1.0,0.0,1.0,1.0,3196112
1765221701154,0.0,0.0,2.0,25.0,0.0,0.0,0.0,0.0,0.0,0.0,-0.013054,0.006222,0.992348,-0.56,0.28,0.07,3.32,3.33,3.33,3.31,3.3,3.31,3.3,3.31,3.32,3.32,3.32,3.31,3.29,3.31,3.3,3.31,3.32,3.32,3.32,3.32,3.32,3.33,3.32,3.32,3.33,3.3,79.6,-2.0,1.0,0.0,1.0,1.0,3196128
1765221701170,0.0,0.0,2.0,25.0,0.0,0.0,0.0,0.0,0.0,0.0,-0.013054,0.006222,0.992348,-0.56,0.28,0.07,3.32,3.33,3.33,3.31,3.3,3.31,3.3,3.31,3.32,3.32,3.32,3.31,3.29,3.31,3.3,3.31,3.32,3.32,3.32,3.32,3.32,3.33,3.32,3.32,3.33,3.3,79.6,-2.0,1.0,0.0,1.0,1.0,3196144
1765221701171,0.0,0.0,2.0,25.0,0.0,0.0,0.0,0.0,0.0,0.0,-0.013054,0.006222,0.992348,-0.56,0.28,0.07,3.32,3.33,3.33,3.31,3.31,3.31,3.3,3.32,3.32,3.32,3.32,3.31,3.29,3.31,3.3,3.31,3.32,3.32,3.32,3.32,3.32,3.33,3.32,3.32,3.33,3.3,79.6,-2.0,1.0,0.0,1.0,1.0,3196145
1765221701187,0.0,0.0,2.0,25.0,0.0,0.0,0.0,0.0,0.0,0.0,-0.013054,0.006222,0.992348,-0.56,0.28,0.07,3.32,3.33,3.33,3.31,3.31,3.31,3.3,3.32,3.32,3.32,3.32,3.31,3.29,3.31,3.3,3.31,3.32,3.32,3.32,3.32,3.32,3.33,3.32,3.32,3.33,3.3,79.6,-2.0,1.0,0.0,1.0,1.0,3196161
1765221701202,0.0,0.0,2.0,25.0,0.0,0.0,0.0,0.0,0.0,0.0,-0.013054,0.006222,0.992348,-0.56,0.28,0.07,3.32,3.33,3.33,3.31,3.31,3.31,3.3,3.32,3.32,3.33,3.33,3.32,3.29,3.31,3.3,3.31,3.32,3.32,3.32,3.32,3.32,3.33,3.32,3.32,3.33,3.3,79.6,-2.0,1.0,0.0,1.0,1.0,3196176
1765221701220,0.0,0.0,2.0,25.0,0.0,0.0,0.0,0.0,0.0,0.0,-0.013054,0.006222,0.992348,-0.56,0.28,0.07,3.32,3.33,3.33,3.31,3.31,3.31,3.3,3.32,3.32,3.33,3.33,3.32,3.29,3.31,3.3,3.31,3.32,3.32,3.32,3.32,3.32,3.33,3.32,3.32,3.33,3.3,79.6,-2.0,1.0,0.0,1.0,1.0,3196194
1765221701238,0.0,0.0,2.0,25.0,0.0,0.0,0.0,0.0,0.0,0.0,-0.013054,0.006222,0.992348,-0.56,0.28,0.07,3.32,3.33,3.33,3.31,3.31,3.31,3.3,3.32,3.32,3.33,3.33,3.32,3.3,3.32,3.3,3.31,3.32,3.32,3.32,3.32,3.32,3.33,3.32,3.32,3.33,3.3,79.6,-2.0,1.0,0.0,1.0,1.0,3196212
1765221701251,0.0,0.0,2.0,25.0,0.0,0.0,0.0,0.0,0.0,0.0,-0.013054,0.006222,0.992348,-0.56,0.28,0.07,3.32,3.33,3.33,3.31,3.31,3.31,3.3,3.32,3.32,3.33,3.33,3.32,3.3,3.32,3.3,3.31,3.32,3.32,3.32,3.32,3.32,3.33,3.32,3.32,3.33,3.3,79.6,-2.0,1.0,0.0,1.0,1.0,3196225
1765221701268,0.0,0.0,2.0,25.0,0.0,0.0,0.0,0.0,0.0,0.0,-0.013054,0.006222,0.992348,-0.56,0.28,0.07,3.32,3.33,3.33,3.31,3.31,3.31,3.3,3.32,3.32,3.33,3.33,3.32,3.3,3.32,3.3,3.31,3.32,3.32,3.32,3.32,3.33,3.33,3.33,3.33,3.33,3.3,79.6,-2.0,1.0,0.0,1.0,1.0,3196242
1765221701287,0.0,0.0,2.0,25.0,0.0,0.0,0.0,0.0,0.0,0.0,-0.013054,0.006222,0.992348,-0.56,0.28,0.07,3.32,3.33,3.33,3.31,3.31,3.31,3.3,3.32,3.32,3.33,3.33,3.32,3.3,3.32,3.3,3.31,3.32,3.32,3.32,3.32,3.33,3.33,3.33,3.33,3.33,3.3,79.6,-2.0,1.0,0.0,1.0,1.0,3196261
1765221701337,0.0,0.0,2.0,25.0,0.0,0.0,0.0,0.0,0.0,0.0,-0.013054,0.006222,0.992348,-0.56,0.28,0.07,3.32,3.33,3.33,3.31,3.31,3.31,3.3,3.32,3.32,3.33,3.33,3.32,3.3,3.32,3.3,3.31,3.32,3.32,3.32,3.32,3.33,3.33,3.33,3.33,3.33,3.3,79.6,-2.0,1.0,0.0,1.0,1.0,3196311
1765221701421,0.0,0.0,2.0,25.0,0.0,0.0,0.0,0.0,0.0,0.0,-0.010248,0.006222,0.992592,-0.56,0.28,0.07,3.32,3.33,3.33,3.31,3.31,3.31,3.3,3.32,3.32,3.33,3.33,3.32,3.3,3.32,3.3,3.31,3.32,3.32,3.32,3.32,3.33,3.33,3.33,3.33,3.33,3.3,79.6,-2.0,1.0,0.0,1.0,1.0,3196395
1765221701454,0.0,0.0,2.0,25.0,0.0,0.0,0.0,0.0,0.0,0.0,-0.010248,0.006222,0.992592,-0.56,0.35000000000000003,0.0,3.32,3.33,3.33,3.31,3.31,3.31,3.3,3.32,3.32,3.33,3.33,3.32,3.3,3.32,3.3,3.31,3.32,3.32,3.32,3.32,3.33,3.33,3.33,3.33,3.33,3.3,79.6,-2.0,1.0,0.0,1.0,1.0,3196428
1765221701488,0.0,0.0,2.0,25.0,0.0,0.0,0.0,0.0,0.0,0.0,-0.010248,0.006222,0.992592,-0.56,0.35000000000000003,0.0,3.32,3.33,3.33,3.31,3.31,3.31,3.3,3.32,3.32,3.33,3.33,3.32,3.3,3.32,3.3,3.31,3.32,3.32,3.32,3.32,3.33,3.33,3.33,3.33,3.33,3.3,79.6,-2.0,1.0,0.0,1.0,1.0,3196462
1765221701505,0.0,0.0,2.0,25.0,0.0,0.0,0.0,0.0,0.0,0.0,-0.010248,0.006222,0.992592,-0.56,0.35000000000000003,0.0,3.32,3.33,3.33,3.31,3.31,3.31,3.3,3.32,3.32,3.33,3.33,3.32,3.3,3.32,3.3,3.31,3.32,3.32,3.32,3.32,3.33,3.33,3.33,3.33,3.33,3.3,79.6,-2.0,1.0,0.0,1.0,1.0,3196479
1765221701537,0.0,0.0,2.0,25.0,0.0,0.0,0.0,0.0,0.0,0.0,-0.010248,0.006222,0.992592,-0.56,0.35000000000000003,0.0,3.32,3.33,3.33,3.31,3.31,3.31,3.3,3.32,3.32,3.33,3.33,3.32,3.3,3.32,3.3,3.31,3.32,3.32,3.32,3.32,3.33,3.33,3.33,3.33,3.33,3.3,79.6,-2.0,1.0,0.0,1.0,1.0,3196511
1765221701552,0.0,0.0,2.0,25.0,0.0,0.0,0.0,0.0,0.0,0.0,-0.010248,0.006222,0.992592,-0.56,0.35000000000000003,0.0,3.32,3.33,3.33,3.31,3.31,3.31,3.3,3.32,3.32,3.33,3.33,3.32,3.3,3.32,3.3,3.31,3.32,3.32,3.32,3.32,3.33,3.33,3.33,3.33,3.33,3.3,79.6,-2.0,1.0,0.0,1.0,1.0,3196526
1765221701587,0.0,0.0,2.0,25.0,0.0,0.0,0.0,0.0,0.0,0.0,-0.011956,0.005246,0.993202,-0.56,0.35000000000000003,0.0,3.32,3.33,3.33,3.31,3.31,3.31,3.3,3.32,3.32,3.33,3.33,3.32,3.3,3.32,3.3,3.31,3.32,3.32,3.32,3.32,3.33,3.33,3.33,3.33,3.33,3.3,79.6,-2.0,1.0,0.0,1.0,1.0,3196561
1765221701604,0.0,0.0,2.0,25.0,0.0,0.0,0.0,0.0,0.0,0.0,-0.011956,0.005246,0.993202,-0.56,0.35000000000000003,0.0,3.32,3.33,3.33,3.31,3.31,3.31,3.3,3.32,3.32,3.33,3.33,3.32,3.3,3.32,3.3,3.31,3.32,3.32,3.32,3.32,3.33,3.33,3.33,3.33,3.33,3.3,79.6,-2.0,1.0,0.0,1.0,1.0,3196578
1765221701638,0.0,0.0,2.0,25.0,0.0,0.0,0.0,0.0,0.0,0.0,-0.011956,0.005246,0.993202,-0.56,0.35000000000000003,0.0,3.32,3.33,3.33,3.31,3.31,3.31,3.3,3.32,3.32,3.33,3.33,3.32,3.3,3.32,3.3,3.31,3.32,3.32,3.32,3.32,3.33,3.33,3.33,3.33,3.33,3.3,79.6,-2.0,1.0,0.0,1.0,1.0,3196612
1765221701671,0.0,0.0,2.0,25.0,0.0,0.0,0.0,0.0,0.0,0.0,-0.011956,0.005246,0.993202,-0.56,0.35000000000000003,0.0,3.32,3.33,3.33,3.31,3.31,3.31,3.3,3.32,3.32,3.33,3.33,3.32,3.3,3.32,3.3,3.31,3.32,3.32,3.32,3.32,3.33,3.33,3.33,3.33,3.33,3.3,79.6,-2.0,1.0,0.0,1.0,1.0,3196645
1765221701737,0.0,0.0,2.0,25.0,0.0,0.0,0.0,0.0,0.0,0.0,-0.011956,0.005246,0.993202,-0.56,0.35000000000000003,0.0,3.32,3.33,3.33,3.31,3.31,3.31,3.3,3.32,3.32,3.33,3.33,3.32,3.3,3.32,3.3,3.31,3.32,3.32,3.32,3.32,3.33,3.33,3.33,3.33,3.33,3.3,79.6,-2.0,1.0,0.0,1.0,1.0,3196711
1765221701770,0.0,0.0,2.0,25.0,0.0,0.0,0.0,0.0,0.0,0.0,-0.012688,0.006588,0.99186,-0.56,0.35000000000000003,0.0,3.32,3.33,3.33,3.31,3.31,3.31,3.3,3.32,3.32,3.33,3.33,3.32,3.3,3.32,3.3,3.31,3.32,3.32,3.32,3.32,3.33,3.33,3.33,3.33,3.33,3.3,79.6,-2.0,1.0,0.0,1.0,1.0,3196744
1765221701804,0.0,0.0,2.0,25.0,0.0,0.0,0.0,0.0,0.0,0.0,-0.012688,0.006588,0.99186,-0.7000000000000001,0.35000000000000003,-0.07,3.32,3.33,3.33,3.31,3.31,3.31,3.3,3.32,3.32,3.33,3.33,3.32,3.3,3.32,3.3,3.31,3.32,3.32,3.32,3.32,3.33,3.33,3.33,3.33,3.33,3.3,79.6,-2.0,1.0,0.0,1.0,1.0,3196778
1765221701854,0.0,0.0,2.0,25.0,0.0,0.0,0.0,0.0,0.0,0.0,-0.011224,0.0060999999999999995,0.992104,-0.7000000000000001,0.35000000000000003,-0.07,3.32,3.33,3.33,3.31,3.31,3.31,3.3,3.32,3.32,3.33,3.33,3.32,3.3,3.32,3.3,3.31,3.32,3.32,3.32,3.32,3.33,3.33,3.33,3.33,3.33,3.3,79.6,-2.0,1.0,0.0,1.0,1.0,3196828
1765221701871,0.0,0.0,2.0,25.0,0.0,0.0,0.0,0.0,0.0,0.0,-0.011224,0.0060999999999999995,0.992104,-0.7000000000000001,0.35000000000000003,-0.07,3.32,3.33,3.33,3.31,3.31,3.31,3.3,3.32,3.32,3.33,3.33,3.32,3.3,3.32,3.3,3.31,3.32,3.32,3.32,3.32,3.33,3.33,3.33,3.33,3.33,3.3,79.6,-2.0,1.0,0.0,1.0,1.0,3196845
1765221701887,0.0,0.0,2.0,25.0,0.0,0.0,0.0,0.0,0.0,0.0,-0.011224,0.0060999999999999995,0.992104,-0.6300000000000001,0.21000000000000002,-0.07,3.32,3.33,3.33,3.31,3.31,3.31,3.3,3.32,3.32,3.33,3.33,3.32,3.3,3.32,3.3,3.31,3.32,3.32,3.32,3.32,3.33,3.33,3.33,3.33,3.33,3.3,79.6,-2.0,1.0,0.0,1.0,1.0,3196861
1765221701921,0.0,0.0,2.0,25.0,0.0,0.0,0.0,0.0,0.0,0.0,-0.011224,0.0060999999999999995,0.992104,-0.6300000000000001,0.21000000000000002,-0.07,3.32,3.33,3.33,3.31,3.31,3.31,3.3,3.32,3.32,3.33,3.33,3.32,3.3,3.32,3.3,3.31,3.32,3.32,3.32,3.32,3.33,3.33,3.33,3.33,3.33,3.3,79.6,-2.0,1.0,0.0,1.0,1.0,3196895
1765221701937,0.0,0.0,2.0,25.0,0.0,0.0,0.0,0.0,0.0,0.0,-0.011224,0.0060999999999999995,0.992104,-0.6300000000000001,0.21000000000000002,-0.07,3.32,3.33,3.33,3.31,3.31,3.31,3.3,3.32,3.32,3.33,3.33,3.32,3.3,3.32,3.3,3.31,3.32,3.32,3.32,3.32,3.33,3.33,3.33,3.33,3.33,3.3,79.6,-2.0,1.0,0.0,1.0,1.0,3196911
1765221701954,0.0,0.0,2.0,25.0,0.0,0.0,0.0,0.0,0.0,0.0,-0.011224,0.0060999999999999995,0.992104,-0.6300000000000001,0.21000000000000002,-0.07,3.32,3.33,3.33,3.31,3.31,3.31,3.3,3.32,3.32,3.33,3.33,3.32,3.3,3.32,3.3,3.31,3.32,3.32,3.32,3.32,3.33,3.33,3.33,3.33,3.33,3.3,79.6,-2.0,1.0,0.0,1.0,1.0,3196928
1765221702020,0.0,0.0,2.0,25.0,0.0,0.0,0.0,0.0,0.0,0.0,-0.011224,0.0060999999999999995,0.992104,-0.6300000000000001,0.21000000000000002,-0.07,3.32,3.33,3.33,3.31,3.31,3.31,3.3,3.32,3.32,3.33,3.33,3.32,3.3,3.32,3.3,3.31,3.32,3.32,3.32,3.32,3.33,3.33,3.33,3.33,3.33,3.3,79.6,0.0,1.0,0.0,1.0,1.0,3196994
1765221702051,0.0,0.0,2.0,25.0,0.0,0.0,0.0,0.0,0.0,0.0,-0.011224,0.0060999999999999995,0.992104,-0.6300000000000001,0.21000000000000002,-0.07,3.32,3.33,3.33,3.31,3.31,3.31,3.3,3.32,3.32,3.33,3.33,3.32,3.3,3.32,3.3,3.31,3.32,3.32,3.32,3.32,3.33,3.33,3.33,3.33,3.33,3.3,79.6,0.0,1.0,0.0,1.0,1.0,3197025
1765221702121,0.0,0.0,2.0,25.0,0.0,0.0,0.0,0.0,0.0,0.0,-0.011224,0.0057339999999999995,0.99369,-0.6300000000000001,0.21000000000000002,-0.07,3.32,3.33,3.33,3.31,3.31,3.31,3.3,3.32,3.32,3.33,3.33,3.32,3.3,3.32,3.3,3.31,3.32,3.32,3.32,3.32,3.33,3.33,3.33,3.33,3.33,3.3,79.6,0.0,1.0,0.0,1.0,1.0,3197095
1765221702137,0.0,0.0,2.0,25.0,0.0,0.0,0.0,0.0,0.0,0.0,-0.011224,0.0057339999999999995,0.99369,-0.6300000000000001,0.35000000000000003,0.0,3.32,3.33,3.33,3.31,3.31,3.31,3.3,3.32,3.32,3.33,3.33,3.32,3.3,3.32,3.3,3.31,3.32,3.32,3.32,3.32,3.33,3.33,3.33,3.33,3.33,3.3,79.6,0.0,1.0,0.0,1.0,1.0,3197111
1765221702221,0.0,0.0,2.0,25.0,0.0,0.0,0.0,0.0,0.0,0.0,-0.011224,0.0057339999999999995,0.99369,-0.6300000000000001,0.35000000000000003,0.0,3.32,3.33,3.33,3.31,3.31,3.31,3.3,3.32,3.32,3.33,3.33,3.32,3.3,3.32,3.3,3.31,3.32,3.32,3.32,3.32,3.33,3.33,3.33,3.33,3.33,3.3,79.6,-1.0,1.0,0.0,1.0,1.0,3197195
1765221702238,0.0,0.0,2.0,25.0,0.0,0.0,0.0,0.0,0.0,0.0,-0.011224,0.0057339999999999995,0.99369,-0.6300000000000001,0.35000000000000003,0.0,3.32,3.33,3.33,3.31,3.31,3.31,3.3,3.32,3.32,3.33,3.33,3.32,3.3,3.32,3.3,3.31,3.32,3.32,3.32,3.32,3.33,3.33,3.33,3.33,3.33,3.3,79.6,-1.0,1.0,0.0,1.0,1.0,3197212
1765221702270,0.0,0.0,2.0,25.0,0.0,0.0,0.0,0.0,0.0,0.0,-0.012199999999999999,0.005856,0.99308,-0.6300000000000001,0.35000000000000003,0.0,3.32,3.33,3.33,3.31,3.31,3.31,3.3,3.32,3.32,3.33,3.33,3.32,3.3,3.32,3.3,3.31,3.32,3.32,3.32,3.32,3.33,3.33,3.33,3.33,3.33,3.3,79.6,-1.0,1.0,0.0,1.0,1.0,3197244
1765221702288,0.0,0.0,2.0,25.0,0.0,0.0,0.0,0.0,0.0,0.0,-0.012199999999999999,0.005856,0.99308,-0.6300000000000001,0.35000000000000003,-0.07,3.32,3.33,3.33,3.31,3.31,3.31,3.3,3.32,3.32,3.33,3.33,3.32,3.3,3.32,3.3,3.31,3.32,3.32,3.32,3.32,3.33,3.33,3.33,3.33,3.33,3.3,79.6,-1.0,1.0,0.0,1.0,1.0,3197262
1765221702320,0.0,0.0,2.0,25.0,0.0,0.0,0.0,0.0,0.0,0.0,-0.012199999999999999,0.005856,0.99308,-0.6300000000000001,0.35000000000000003,-0.07,3.32,3.33,3.33,3.31,3.31,3.31,3.3,3.32,3.32,3.33,3.33,3.32,3.3,3.32,3.3,3.31,3.32,3.32,3.32,3.32,3.33,3.33,3.33,3.33,3.33,3.3,79.6,-1.0,1.0,0.0,1.0,1.0,3197294
1765221702337,0.0,0.0,2.0,25.0,0.0,0.0,0.0,0.0,0.0,0.0,-0.012199999999999999,0.005856,0.99308,-0.6300000000000001,0.35000000000000003,-0.07,3.32,3.33,3.33,3.31,3.31,3.31,3.3,3.32,3.32,3.33,3.33,3.32,3.3,3.32,3.3,3.31,3.32,3.32,3.32,3.32,3.33,3.33,3.33,3.33,3.33,3.3,79.6,-1.0,1.0,0.0,1.0,1.0,3197311
1765221702354,0.0,0.0,2.0,25.0,0.0,0.0,0.0,0.0,0.0,0.0,-0.012199999999999999,0.005856,0.99308,-0.6300000000000001,0.35000000000000003,-0.07,3.32,3.33,3.33,3.31,3.31,3.31,3.3,3.32,3.32,3.33,3.33,3.32,3.3,3.32,3.3,3.31,3.32,3.32,3.32,3.32,3.33,3.33,3.33,3.33,3.33,3.3,79.6,-1.0,1.0,0.0,1.0,1.0,3197328
1765221702370,0.0,0.0,2.0,25.0,0.0,0.0,0.0,0.0,0.0,0.0,-0.012199999999999999,0.005856,0.99308,-0.6300000000000001,0.35000000000000003,-0.07,3.32,3.33,3.33,3.31,3.31,3.31,3.3,3.32,3.32,3.33,3.33,3.32,3.3,3.32,3.3,3.31,3.32,3.32,3.32,3.32,3.33,3.33,3.33,3.33,3.33,3.3,79.6,-1.0,1.0,0.0,1.0,1.0,3197344
1765221702402,0.0,0.0,2.0,25.0,0.0,0.0,0.0,0.0,0.0,0.0,-0.012199999999999999,0.005856,0.99308,-0.6300000000000001,0.35000000000000003,-0.07,3.32,3.33,3.33,3.31,3.31,3.31,3.3,3.32,3.32,3.33,3.33,3.32,3.3,3.32,3.3,3.31,3.32,3.32,3.32,3.32,3.33,3.33,3.33,3.33,3.33,3.3,79.6,-1.0,1.0,0.0,1.0,1.0,3197376
1765221702437,0.0,0.0,2.0,25.0,0.0,0.0,0.0,0.0,0.0,0.0,-0.012565999999999999,0.005856,0.993324,-0.6300000000000001,0.35000000000000003,-0.07,3.32,3.33,3.33,3.31,3.31,3.31,3.3,3.32,3.32,3.33,3.33,3.32,3.3,3.32,3.3,3.31,3.32,3.32,3.32,3.32,3.33,3.33,3.33,3.33,3.33,3.3,79.6,-1.0,1.0,0.0,1.0,1.0,3197411
1765221702453,0.0,0.0,2.0,25.0,0.0,0.0,0.0,0.0,0.0,0.0,-0.012565999999999999,0.005856,0.993324,-0.6300000000000001,0.35000000000000003,-0.07,3.32,3.33,3.33,3.31,3.31,3.31,3.3,3.32,3.32,3.33,3.33,3.32,3.3,3.32,3.3,3.31,3.32,3.32,3.32,3.32,3.33,3.33,3.33,3.33,3.33,3.3,79.6,-1.0,1.0,0.0,1.0,1.0,3197427
1765221702501,0.0,0.0,2.0,25.0,0.0,0.0,0.0,0.0,0.0,0.0,-0.012565999999999999,0.005856,0.993324,-0.56,0.28,0.0,3.32,3.33,3.33,3.31,3.31,3.31,3.3,3.32,3.32,3.33,3.33,3.32,3.3,3.32,3.3,3.31,3.32,3.32,3.32,3.32,3.33,3.33,3.33,3.33,3.33,3.3,79.6,-1.0,1.0,0.0,1.0,1.0,3197475
1765221702568,0.0,0.0,2.0,25.0,0.0,0.0,0.0,0.0,0.0,0.0,-0.011467999999999999,0.0068319999999999995,0.992348,-0.56,0.28,0.0,3.32,3.33,3.33,3.31,3.31,3.31,3.3,3.32,3.32,3.33,3.33,3.32,3.3,3.32,3.3,3.31,3.32,3.32,3.32,3.32,3.33,3.33,3.33,3.33,3.33,3.3,79.6,-1.0,1.0,0.0,1.0,1.0,3197542
1765221702586,0.0,0.0,2.0,25.0,0.0,0.0,0.0,0.0,0.0,0.0,-0.011467999999999999,0.0068319999999999995,0.992348,-0.56,0.28,0.0,3.32,3.33,3.33,3.31,3.31,3.31,3.3,3.32,3.32,3.33,3.33,3.32,3.3,3.32,3.3,3.31,3.32,3.32,3.32,3.32,3.33,3.33,3.33,3.33,3.33,3.3,79.6,-1.0,1.0,0.0,1.0,1.0,3197560
1765221702602,0.0,0.0,2.0,25.0,0.0,0.0,0.0,0.0,0.0,0.0,-0.011467999999999999,0.0068319999999999995,0.992348,-0.56,0.28,0.0,3.32,3.33,3.33,3.31,3.31,3.31,3.3,3.32,3.32,3.33,3.33,3.32,3.3,3.32,3.3,3.31,3.32,3.32,3.32,3.32,3.33,3.33,3.33,3.33,3.33,3.3,79.6,-1.0,1.0,0.0,1.0,1.0,3197576
1765221702620,0.0,0.0,2.0,25.0,0.0,0.0,0.0,0.0,0.0,0.0,-0.011467999999999999,0.0068319999999999995,0.992348,-0.56,0.28,0.0,3.32,3.33,3.33,3.31,3.31,3.31,3.3,3.32,3.32,3.33,3.33,3.32,3.3,3.32,3.3,3.31,3.32,3.32,3.32,3.32,3.33,3.33,3.33,3.33,3.33,3.3,79.6,-1.0,1.0,0.0,1.0,1.0,3197594
1765221702636,0.0,0.0,2.0,25.0,0.0,0.0,0.0,0.0,0.0,0.0,-0.011467999999999999,0.0068319999999999995,0.992348,-0.56,0.28,0.0,3.32,3.33,3.33,3.31,3.31,3.31,3.3,3.32,3.32,3.33,3.33,3.32,3.3,3.32,3.3,3.31,3.32,3.32,3.32,3.32,3.33,3.33,3.33,3.33,3.33,3.3,79.6,-1.0,1.0,0.0,1.0,1.0,3197610
1765221702654,0.0,0.0,2.0,25.0,0.0,0.0,0.0,0.0,0.0,0.0,-0.011467999999999999,0.0068319999999999995,0.992348,-0.56,0.28,0.0,3.32,3.33,3.33,3.31,3.31,3.31,3.3,3.32,3.32,3.33,3.33,3.32,3.3,3.32,3.3,3.31,3.32,3.32,3.32,3.32,3.33,3.33,3.33,3.33,3.33,3.3,79.6,-1.0,1.0,0.0,1.0,1.0,3197628
1765221702687,0.0,0.0,2.0,25.0,0.0,0.0,0.0,0.0,0.0,0.0,-0.011467999999999999,0.0068319999999999995,0.992348,-0.56,0.28,0.0,3.32,3.33,3.33,3.31,3.31,3.31,3.3,3.32,3.32,3.33,3.33,3.32,3.3,3.32,3.3,3.31,3.32,3.32,3.32,3.32,3.33,3.33,3.33,3.33,3.33,3.3,79.6,-1.0,1.0,0.0,1.0,1.0,3197661
1765221702734,0.0,0.0,2.0,25.0,0.0,0.0,0.0,0.0,0.0,0.0,-0.011467999999999999,0.0068319999999999995,0.992348,-0.56,0.28,0.0,3.32,3.33,3.33,3.31,3.31,3.31,3.3,3.32,3.32,3.33,3.33,3.32,3.3,3.32,3.3,3.31,3.32,3.32,3.32,3.32,3.33,3.33,3.33,3.33,3.33,3.3,79.6,-1.0,1.0,0.0,1.0,1.0,3197708
1765221702769,0.0,0.0,2.0,25.0,0.0,0.0,0.0,0.0,0.0,0.0,-0.011467999999999999,0.0068319999999999995,0.992348,-0.56,0.28,0.0,3.32,3.33,3.33,3.31,3.31,3.31,3.3,3.32,3.32,3.33,3.33,3.32,3.3,3.32,3.3,3.31,3.32,3.32,3.32,3.32,3.33,3.33,3.33,3.33,3.33,3.3,79.6,-1.0,1.0,0.0,1.0,1.0,3197743
1765221702786,0.0,0.0,2.0,25.0,0.0,0.0,0.0,0.0,0.0,0.0,-0.011467999999999999,0.0068319999999999995,0.992348,-0.56,0.28,0.0,3.32,3.33,3.33,3.31,3.31,3.31,3.3,3.32,3.32,3.33,3.33,3.32,3.3,3.32,3.3,3.31,3.32,3.32,3.32,3.32,3.33,3.33,3.33,3.33,3.33,3.3,79.6,-1.0,1.0,0.0,1.0,1.0,3197760
1765221702852,0.0,0.0,2.0,25.0,0.0,0.0,0.0,0.0,0.0,0.0,-0.011467999999999999,0.0068319999999999995,0.992348,-0.56,0.28,0.0,3.32,3.33,3.33,3.31,3.31,3.31,3.3,3.32,3.32,3.33,3.33,3.32,3.3,3.32,3.3,3.31,3.32,3.32,3.32,3.32,3.33,3.33,3.33,3.33,3.33,3.3,79.6,-1.0,1.0,0.0,1.0,1.0,3197826
1765221702935,0.0,0.0,2.0,25.0,0.0,0.0,0.0,0.0,0.0,0.0,-0.011467999999999999,0.0068319999999999995,0.992348,-0.56,0.28,0.0,3.32,3.33,3.33,3.31,3.31,3.31,3.3,3.32,3.32,3.33,3.33,3.32,3.3,3.32,3.3,3.31,3.32,3.32,3.32,3.32,3.33,3.33,3.33,3.33,3.33,3.3,79.6,-1.0,1.0,0.0,1.0,1.0,3197909
1765221702952,0.0,0.0,2.0,25.0,0.0,0.0,0.0,0.0,0.0,0.0,-0.011467999999999999,0.0068319999999999995,0.992348,-0.56,0.28,0.0,3.32,3.33,3.33,3.31,3.31,3.31,3.3,3.32,3.32,3.33,3.33,3.32,3.3,3.32,3.3,3.31,3.32,3.32,3.32,3.32,3.33,3.33,3.33,3.33,3.33,3.3,79.6,-1.0,1.0,0.0,1.0,1.0,3197926
1765221702985,0.0,0.0,2.0,25.0,0.0,0.0,0.0,0.0,0.0,0.0,-0.011467999999999999,0.0068319999999999995,0.992348,-0.56,0.28,0.0,3.32,3.33,3.33,3.31,3.31,3.31,3.3,3.32,3.32,3.33,3.33,3.32,3.3,3.32,3.3,3.31,3.32,3.32,3.32,3.32,3.33,3.33,3.33,3.33,3.33,3.3,79.6,-1.0,1.0,0.0,1.0,1.0,3197959
1765221703001,0.0,0.0,2.0,25.0,0.0,0.0,0.0,0.0,0.0,0.0,-0.011467999999999999,0.0068319999999999995,0.992348,-0.56,0.28,0.0,3.32,3.33,3.33,3.31,3.31,3.31,3.3,3.32,3.32,3.33,3.33,3.32,3.3,3.32,3.3,3.31,3.32,3.32,3.32,3.32,3.33,3.33,3.33,3.33,3.33,3.3,79.6,-1.0,1.0,0.0,1.0,1.0,3197975
1765221703019,0.0,0.0,2.0,25.0,0.0,0.0,0.0,0.0,0.0,0.0,-0.011712,0.0057339999999999995,0.990884,-0.56,0.28,0.0,3.32,3.33,3.33,3.31,3.31,3.31,3.3,3.32,3.32,3.33,3.33,3.32,3.3,3.32,3.3,3.31,3.32,3.32,3.32,3.32,3.33,3.33,3.33,3.33,3.33,3.3,79.6,-1.0,1.0,0.0,1.0,1.0,3197993
1765221703036,0.0,0.0,2.0,25.0,0.0,0.0,0.0,0.0,0.0,0.0,-0.011712,0.0057339999999999995,0.990884,-0.56,0.21000000000000002,0.07,3.32,3.33,3.33,3.31,3.31,3.31,3.3,3.32,3.32,3.33,3.33,3.32,3.3,3.32,3.3,3.31,3.32,3.32,3.32,3.32,3.33,3.33,3.33,3.33,3.33,3.3,79.6,-1.0,1.0,0.0,1.0,1.0,3198010
1765221703052,0.0,0.0,2.0,25.0,0.0,0.0,0.0,0.0,0.0,0.0,-0.011712,0.0057339999999999995,0.990884,-0.56,0.21000000000000002,0.07,3.32,3.33,3.33,3.31,3.31,3.31,3.3,3.32,3.32,3.33,3.33,3.32,3.3,3.32,3.3,3.31,3.32,3.32,3.32,3.32,3.33,3.33,3.33,3.33,3.33,3.3,79.6,-1.0,1.0,0.0,1.0,1.0,3198026
1765221703070,0.0,0.0,2.0,25.0,0.0,0.0,0.0,0.0,0.0,0.0,-0.011712,0.0057339999999999995,0.990884,-0.56,0.21000000000000002,0.07,3.32,3.33,3.33,3.31,3.31,3.31,3.3,3.32,3.32,3.33,3.33,3.32,3.3,3.32,3.3,3.31,3.32,3.32,3.32,3.32,3.33,3.33,3.33,3.33,3.33,3.3,79.6,-1.0,1.0,0.0,1.0,1.0,3198044
1765221703086,0.0,0.0,2.0,25.0,0.0,0.0,0.0,0.0,0.0,0.0,-0.011712,0.0057339999999999995,0.990884,-0.56,0.21000000000000002,0.07,3.32,3.33,3.33,3.31,3.31,3.31,3.3,3.32,3.32,3.33,3.33,3.32,3.3,3.32,3.3,3.31,3.32,3.32,3.32,3.32,3.33,3.33,3.33,3.33,3.33,3.3,79.6,-1.0,1.0,0.0,1.0,1.0,3198060
1765221703103,0.0,0.0,2.0,25.0,0.0,0.0,0.0,0.0,0.0,0.0,-0.011712,0.0057339999999999995,0.990884,-0.56,0.21000000000000002,0.07,3.32,3.33,3.33,3.31,3.31,3.31,3.3,3.32,3.32,3.33,3.33,3.32,3.3,3.32,3.3,3.31,3.32,3.32,3.32,3.32,3.33,3.33,3.33,3.33,3.33,3.3,79.6,-1.0,1.0,0.0,1.0,1.0,3198077
1765221703136,0.0,0.0,2.0,25.0,0.0,0.0,0.0,0.0,0.0,0.0,-0.011712,0.0057339999999999995,0.990884,-0.56,0.21000000000000002,0.07,3.32,3.33,3.33,3.31,3.31,3.31,3.3,3.32,3.32,3.33,3.33,3.32,3.3,3.32,3.3,3.31,3.32,3.32,3.32,3.32,3.33,3.33,3.33,3.33,3.33,3.3,79.6,-1.0,1.0,0.0,1.0,1.0,3198110
1765221703187,0.0,0.0,2.0,25.0,0.0,0.0,0.0,0.0,0.0,0.0,-0.011712,0.0057339999999999995,0.990884,-0.56,0.21000000000000002,0.07,3.32,3.33,3.33,3.31,3.31,3.31,3.3,3.32,3.32,3.33,3.33,3.32,3.3,3.32,3.3,3.31,3.32,3.32,3.32,3.32,3.33,3.33,3.33,3.33,3.33,3.3,79.6,-1.0,1.0,0.0,1.0,1.0,3198161
1765221703253,0.0,0.0,2.0,25.0,0.0,0.0,0.0,0.0,0.0,0.0,-0.011224,0.006344,0.9928359999999999,-0.56,0.21000000000000002,0.07,3.32,3.33,3.33,3.31,3.31,3.31,3.3,3.32,3.32,3.33,3.33,3.32,3.3,3.32,3.3,3.31,3.32,3.32,3.32,3.32,3.33,3.33,3.33,3.33,3.33,3.3,79.6,-1.0,1.0,0.0,1.0,1.0,3198227
1765221703270,0.0,0.0,2.0,25.0,0.0,0.0,0.0,0.0,0.0,0.0,-0.011224,0.006344,0.9928359999999999,-0.56,0.35000000000000003,-0.14,3.32,3.33,3.33,3.31,3.31,3.31,3.3,3.32,3.32,3.33,3.33,3.32,3.3,3.32,3.3,3.31,3.32,3.32,3.32,3.32,3.33,3.33,3.33,3.33,3.33,3.3,79.6,-1.0,1.0,0.0,1.0,1.0,3198244
1765221703320,0.0,0.0,2.0,25.0,0.0,0.0,0.0,0.0,0.0,0.0,-0.011224,0.006344,0.9928359999999999,-0.56,0.35000000000000003,-0.14,3.32,3.33,3.33,3.31,3.31,3.31,3.3,3.32,3.32,3.33,3.33,3.32,3.3,3.32,3.3,3.31,3.32,3.32,3.32,3.32,3.33,3.33,3.33,3.33,3.33,3.3,79.6,-1.0,1.0,0.0,1.0,1.0,3198294
1765221703335,0.0,0.0,2.0,25.0,0.0,0.0,0.0,0.0,0.0,0.0,-0.012688,0.006222,0.992714,-0.56,0.35000000000000003,-0.14,3.32,3.33,3.33,3.31,3.31,3.31,3.3,3.32,3.32,3.33,3.33,3.32,3.3,3.32,3.3,3.31,3.32,3.32,3.32,3.32,3.33,3.33,3.33,3.33,3.33,3.3,79.6,-1.0,1.0,0.0,1.0,1.0,3198309
1765221703352,0.0,0.0,2.0,25.0,0.0,0.0,0.0,0.0,0.0,0.0,-0.012688,0.006222,0.992714,-0.56,0.35000000000000003,-0.14,3.32,3.33,3.33,3.31,3.31,3.31,3.3,3.32,3.32,3.33,3.33,3.32,3.3,3.32,3.3,3.31,3.32,3.32,3.32,3.32,3.33,3.33,3.33,3.33,3.33,3.3,79.6,-1.0,1.0,0.0,1.0,1.0,3198326
1765221703371,0.0,0.0,2.0,25.0,0.0,0.0,0.0,0.0,0.0,0.0,-0.012688,0.006222,0.992714,-0.56,0.35000000000000003,-0.14,3.32,3.33,3.33,3.31,3.31,3.31,3.3,3.32,3.32,3.33,3.33,3.32,3.3,3.32,3.3,3.31,3.32,3.32,3.32,3.32,3.33,3.33,3.33,3.33,3.33,3.3,79.6,-1.0,1.0,0.0,1.0,1.0,3198345
1765221703403,0.0,0.0,2.0,25.0,0.0,0.0,0.0,0.0,0.0,0.0,-0.012688,0.006222,0.992714,-0.6300000000000001,0.35000000000000003,0.0,3.32,3.33,3.33,3.31,3.31,3.31,3.3,3.32,3.32,3.33,3.33,3.32,3.3,3.32,3.3,3.31,3.32,3.32,3.32,3.32,3.33,3.33,3.33,3.33,3.33,3.3,79.6,-1.0,1.0,0.0,1.0,1.0,3198377
1765221703420,0.0,0.0,2.0,25.0,0.0,0.0,0.0,0.0,0.0,0.0,-0.012688,0.006222,0.992714,-0.6300000000000001,0.35000000000000003,0.0,3.32,3.33,3.33,3.31,3.31,3.31,3.3,3.32,3.32,3.33,3.33,3.32,3.3,3.32,3.3,3.31,3.32,3.32,3.32,3.32,3.33,3.33,3.33,3.33,3.33,3.3,79.6,-1.0,1.0,0.0,1.0,1.0,3198394
1765221703452,0.0,0.0,2.0,25.0,0.0,0.0,0.0,0.0,0.0,0.0,-0.012688,0.006222,0.992714,-0.6300000000000001,0.35000000000000003,0.0,3.32,3.33,3.33,3.31,3.31,3.31,3.3,3.32,3.32,3.33,3.33,3.32,3.3,3.32,3.3,3.31,3.32,3.32,3.32,3.32,3.33,3.33,3.33,3.33,3.33,3.3,79.6,-1.0,1.0,0.0,1.0,1.0,3198426
1765221703469,0.0,0.0,2.0,25.0,0.0,0.0,0.0,0.0,0.0,0.0,-0.012688,0.006222,0.992714,-0.6300000000000001,0.35000000000000003,0.0,3.32,3.33,3.33,3.31,3.31,3.31,3.3,3.32,3.32,3.33,3.33,3.32,3.3,3.32,3.3,3.31,3.32,3.32,3.32,3.32,3.33,3.33,3.33,3.33,3.33,3.3,79.6,-1.0,1.0,0.0,1.0,1.0,3198443
1765221703487,0.0,0.0,2.0,25.0,0.0,0.0,0.0,0.0,0.0,0.0,-0.012688,0.006222,0.992714,-0.6300000000000001,0.35000000000000003,0.0,3.32,3.33,3.33,3.31,3.31,3.31,3.3,3.32,3.32,3.33,3.33,3.32,3.3,3.32,3.3,3.31,3.32,3.32,3.32,3.32,3.33,3.33,3.33,3.33,3.33,3.3,79.6,-1.0,1.0,0.0,1.0,1.0,3198461
1765221703521,0.0,0.0,2.0,25.0,0.0,0.0,0.0,0.0,0.0,0.0,-0.012688,0.006222,0.992714,-0.6300000000000001,0.35000000000000003,0.0,3.32,3.33,3.33,3.31,3.31,3.31,3.3,3.32,3.32,3.33,3.33,3.32,3.3,3.32,3.3,3.31,3.32,3.32,3.32,3.32,3.33,3.33,3.33,3.33,3.33,3.3,79.6,-1.0,1.0,0.0,1.0,1.0,3198495
1765221703570,0.0,0.0,2.0,25.0,0.0,0.0,0.0,0.0,0.0,0.0,-0.012688,0.006222,0.992714,-0.6300000000000001,0.35000000000000003,0.0,3.32,3.33,3.33,3.31,3.31,3.31,3.3,3.32,3.32,3.33,3.33,3.32,3.3,3.32,3.3,3.31,3.32,3.32,3.32,3.32,3.33,3.33,3.33,3.33,3.33,3.3,79.6,-1.0,1.0,0.0,1.0,1.0,3198544
1765221703604,0.0,0.0,2.0,25.0,0.0,0.0,0.0,0.0,0.0,0.0,-0.013054,0.0050019999999999995,0.9928359999999999,-0.6300000000000001,0.35000000000000003,0.0,3.32,3.33,3.33,3.31,3.31,3.31,3.3,3.32,3.32,3.33,3.33,3.32,3.3,3.32,3.3,3.31,3.32,3.32,3.32,3.32,3.33,3.33,3.33,3.33,3.33,3.3,79.6,-1.0,1.0,0.0,1.0,1.0,3198578
1765221703637,0.0,0.0,2.0,25.0,0.0,0.0,0.0,0.0,0.0,0.0,-0.013054,0.0050019999999999995,0.9928359999999999,-0.56,0.21000000000000002,0.0,3.32,3.33,3.33,3.31,3.31,3.31,3.3,3.32,3.32,3.33,3.33,3.32,3.3,3.32,3.3,3.31,3.32,3.32,3.32,3.32,3.33,3.33,3.33,3.33,3.33,3.3,79.6,-1.0,1.0,0.0,1.0,1.0,3198611
1765221703687,0.0,0.0,2.0,25.0,0.0,0.0,0.0,0.0,0.0,0.0,-0.011224,0.0060999999999999995,0.992714,-0.56,0.21000000000000002,0.0,3.32,3.33,3.33,3.31,3.31,3.31,3.3,3.32,3.32,3.33,3.33,3.32,3.3,3.32,3.3,3.31,3.32,3.32,3.32,3.32,3.33,3.33,3.33,3.33,3.33,3.3,79.6,-1.0,1.0,0.0,1.0,1.0,3198661
1765221703704,0.0,0.0,2.0,25.0,0.0,0.0,0.0,0.0,0.0,0.0,-0.011224,0.0060999999999999995,0.992714,-0.56,0.21000000000000002,0.0,3.32,3.33,3.33,3.31,3.31,3.31,3.3,3.32,3.32,3.33,3.33,3.32,3.3,3.32,3.3,3.31,3.32,3.32,3.32,3.32,3.33,3.33,3.33,3.33,3.33,3.3,79.6,1.0,1.0,0.0,1.0,1.0,3198678
1765221703738,0.0,0.0,2.0,25.0,0.0,0.0,0.0,0.0,0.0,0.0,-0.011224,0.0060999999999999995,0.992714,-0.56,0.21000000000000002,0.0,3.32,3.33,3.33,3.31,3.31,3.31,3.3,3.32,3.32,3.33,3.33,3.32,3.3,3.32,3.3,3.31,3.32,3.32,3.32,3.32,3.33,3.33,3.33,3.33,3.33,3.3,79.6,1.0,1.0,0.0,1.0,1.0,3198712
1765221703751,0.0,0.0,2.0,25.0,0.0,0.0,0.0,0.0,0.0,0.0,-0.011224,0.0060999999999999995,0.992714,-0.56,0.21000000000000002,0.0,3.32,3.33,3.33,3.31,3.31,3.31,3.3,3.32,3.32,3.33,3.33,3.32,3.3,3.32,3.3,3.31,3.32,3.32,3.32,3.32,3.33,3.33,3.33,3.33,3.33,3.3,79.6,1.0,1.0,0.0,1.0,1.0,3198725
1765221703768,0.0,0.0,2.0,25.0,0.0,0.0,0.0,0.0,0.0,0.0,-0.011224,0.0060999999999999995,0.992714,-0.56,0.28,-0.07,3.32,3.33,3.33,3.31,3.31,3.31,3.3,3.32,3.32,3.33,3.33,3.32,3.3,3.32,3.3,3.31,3.32,3.32,3.32,3.32,3.33,3.33,3.33,3.33,3.33,3.3,79.6,1.0,1.0,0.0,1.0,1.0,3198742
1765221703787,0.0,0.0,2.0,25.0,0.0,0.0,0.0,0.0,0.0,0.0,-0.011224,0.0060999999999999995,0.992714,-0.56,0.28,-0.07,3.32,3.33,3.33,3.31,3.31,3.31,3.3,3.32,3.32,3.33,3.33,3.32,3.3,3.32,3.3,3.31,3.32,3.32,3.32,3.32,3.33,3.33,3.33,3.33,3.33,3.3,79.6,1.0,1.0,0.0,1.0,1.0,3198761
1765221703804,0.0,0.0,2.0,25.0,0.0,0.0,0.0,0.0,0.0,0.0,-0.011224,0.0060999999999999995,0.992714,-0.56,0.28,-0.07,3.32,3.33,3.33,3.31,3.31,3.31,3.3,3.32,3.32,3.33,3.33,3.32,3.3,3.32,3.3,3.31,3.32,3.32,3.32,3.32,3.33,3.33,3.33,3.33,3.33,3.3,79.6,1.0,1.0,0.0,1.0,1.0,3198778
1765221703837,0.0,0.0,2.0,25.0,0.0,0.0,0.0,0.0,0.0,0.0,-0.011224,0.0060999999999999995,0.992714,-0.56,0.28,-0.07,3.32,3.33,3.33,3.31,3.31,3.31,3.3,3.32,3.32,3.33,3.33,3.32,3.3,3.32,3.3,3.31,3.32,3.32,3.32,3.32,3.33,3.33,3.33,3.33,3.33,3.3,79.6,1.0,1.0,0.0,1.0,1.0,3198811
1765221703902,0.0,0.0,2.0,25.0,0.0,0.0,0.0,0.0,0.0,0.0,-0.011224,0.0060999999999999995,0.992714,-0.56,0.28,-0.07,3.32,3.33,3.33,3.31,3.31,3.31,3.3,3.32,3.32,3.33,3.33,3.32,3.3,3.32,3.3,3.31,3.32,3.32,3.32,3.32,3.33,3.33,3.33,3.33,3.33,3.3,79.6,1.0,1.0,0.0,1.0,1.0,3198876
1765221703968,0.0,0.0,2.0,25.0,0.0,0.0,0.0,0.0,0.0,0.0,-0.012931999999999999,0.007076,0.99308,-0.56,0.28,-0.07,3.32,3.33,3.33,3.31,3.31,3.31,3.3,3.32,3.32,3.33,3.33,3.32,3.3,3.32,3.3,3.31,3.32,3.32,3.32,3.32,3.33,3.33,3.33,3.33,3.33,3.3,79.6,1.0,1.0,0.0,1.0,1.0,3198942
1765221703985,0.0,0.0,2.0,25.0,0.0,0.0,0.0,0.0,0.0,0.0,-0.012931999999999999,0.007076,0.99308,-0.56,0.35000000000000003,0.0,3.32,3.33,3.33,3.31,3.31,3.31,3.3,3.32,3.32,3.33,3.33,3.32,3.3,3.32,3.3,3.31,3.32,3.32,3.32,3.32,3.33,3.33,3.33,3.33,3.33,3.3,79.6,1.0,1.0,0.0,1.0,1.0,3198959
1765221704019,0.0,0.0,2.0,25.0,0.0,0.0,0.0,0.0,0.0,0.0,-0.012931999999999999,0.007076,0.99308,-0.56,0.35000000000000003,0.0,3.32,3.33,3.33,3.31,3.31,3.31,3.3,3.32,3.32,3.33,3.33,3.32,3.3,3.32,3.3,3.31,3.32,3.32,3.32,3.32,3.33,3.33,3.33,3.33,3.33,3.3,79.6,1.0,1.0,0.0,1.0,1.0,3198993
1765221704053,0.0,0.0,2.0,25.0,0.0,0.0,0.0,0.0,0.0,0.0,-0.012931999999999999,0.007076,0.99308,-0.56,0.35000000000000003,0.0,3.32,3.33,3.33,3.31,3.31,3.31,3.3,3.32,3.32,3.33,3.33,3.32,3.3,3.32,3.3,3.31,3.32,3.32,3.32,3.32,3.33,3.33,3.33,3.33,3.33,3.3,79.6,1.0,1.0,0.0,1.0,1.0,3199027
1765221704086,0.0,0.0,2.0,25.0,0.0,0.0,0.0,0.0,0.0,0.0,-0.012931999999999999,0.005246,0.991982,-0.56,0.35000000000000003,0.0,3.32,3.33,3.33,3.31,3.31,3.31,3.3,3.32,3.32,3.33,3.33,3.32,3.3,3.32,3.3,3.31,3.32,3.32,3.32,3.32,3.33,3.33,3.33,3.33,3.33,3.3,79.6,1.0,1.0,0.0,1.0,1.0,3199060
1765221704102,0.0,0.0,2.0,25.0,0.0,0.0,0.0,0.0,0.0,0.0,-0.012931999999999999,0.005246,0.991982,-0.56,0.35000000000000003,-0.07,3.32,3.33,3.33,3.31,3.31,3.31,3.3,3.32,3.32,3.33,3.33,3.32,3.3,3.32,3.3,3.31,3.32,3.32,3.32,3.32,3.33,3.33,3.33,3.33,3.33,3.3,79.6,1.0,1.0,0.0,1.0,1.0,3199076
1765221704153,0.0,0.0,2.0,25.0,0.0,0.0,0.0,0.0,0.0,0.0,-0.012931999999999999,0.005246,0.991982,-0.56,0.35000000000000003,-0.07,3.32,3.33,3.33,3.31,3.31,3.31,3.3,3.32,3.32,3.33,3.33,3.32,3.3,3.32,3.3,3.31,3.32,3.32,3.32,3.32,3.33,3.33,3.33,3.33,3.33,3.3,79.6,1.0,1.0,0.0,1.0,1.0,3199127
1765221704168,0.0,0.0,2.0,25.0,0.0,0.0,0.0,0.0,0.0,0.0,-0.012931999999999999,0.005246,0.991982,-0.56,0.35000000000000003,-0.07,3.32,3.33,3.33,3.31,3.31,3.31,3.3,3.32,3.32,3.33,3.33,3.32,3.3,3.32,3.3,3.31,3.32,3.32,3.32,3.32,3.33,3.33,3.33,3.33,3.33,3.3,79.6,1.0,1.0,0.0,1.0,1.0,3199142
1765221704185,0.0,0.0,2.0,25.0,0.0,0.0,0.0,0.0,0.0,0.0,-0.012931999999999999,0.005246,0.991982,-0.56,0.35000000000000003,-0.07,3.32,3.33,3.33,3.31,3.31,3.31,3.3,3.32,3.32,3.33,3.33,3.32,3.3,3.32,3.3,3.31,3.32,3.32,3.32,3.32,3.33,3.33,3.33,3.33,3.33,3.3,79.6,1.0,1.0,0.0,1.0,1.0,3199159
1765221704219,0.0,0.0,2.0,25.0,0.0,0.0,0.0,0.0,0.0,0.0,-0.012931999999999999,0.005246,0.991982,-0.56,0.35000000000000003,-0.07,3.32,3.33,3.33,3.31,3.31,3.31,3.3,3.32,3.32,3.33,3.33,3.32,3.3,3.32,3.3,3.31,3.32,3.32,3.32,3.32,3.33,3.33,3.33,3.33,3.33,3.3,79.6,1.0,1.0,0.0,1.0,1.0,3199193
1765221704252,0.0,0.0,2.0,25.0,0.0,0.0,0.0,0.0,0.0,0.0,-0.012322,0.0050019999999999995,0.99308,-0.56,0.35000000000000003,-0.07,3.32,3.33,3.33,3.31,3.31,3.31,3.3,3.32,3.32,3.33,3.33,3.32,3.3,3.32,3.3,3.31,3.32,3.32,3.32,3.32,3.33,3.33,3.33,3.33,3.33,3.3,79.6,1.0,1.0,0.0,1.0,1.0,3199226
1765221704302,0.0,0.0,2.0,25.0,0.0,0.0,0.0,0.0,0.0,0.0,-0.012322,0.0050019999999999995,0.99308,-0.6300000000000001,0.35000000000000003,0.0,3.32,3.33,3.33,3.31,3.31,3.31,3.3,3.32,3.32,3.33,3.33,3.32,3.3,3.32,3.3,3.31,3.32,3.32,3.32,3.32,3.33,3.33,3.33,3.33,3.33,3.3,79.6,1.0,1.0,0.0,1.0,1.0,3199276
1765221704386,0.0,0.0,2.0,25.0,0.0,0.0,0.0,0.0,0.0,0.0,-0.010003999999999999,0.005612,0.993202,-0.6300000000000001,0.35000000000000003,0.0,3.32,3.33,3.33,3.31,3.31,3.31,3.3,3.32,3.32,3.33,3.33,3.32,3.3,3.32,3.3,3.31,3.32,3.32,3.32,3.32,3.33,3.33,3.33,3.33,3.33,3.3,79.6,1.0,1.0,0.0,1.0,1.0,3199360
1765221704402,0.0,0.0,2.0,25.0,0.0,0.0,0.0,0.0,0.0,0.0,-0.010003999999999999,0.005612,0.993202,-0.56,0.35000000000000003,0.07,3.32,3.33,3.33,3.31,3.31,3.31,3.3,3.32,3.32,3.33,3.33,3.32,3.3,3.32,3.3,3.31,3.32,3.32,3.32,3.32,3.33,3.33,3.33,3.33,3.33,3.3,79.6,1.0,1.0,0.0,1.0,1.0,3199376
1765221704434,0.0,0.0,2.0,25.0,0.0,0.0,0.0,0.0,0.0,0.0,-0.010003999999999999,0.005612,0.993202,-0.56,0.35000000000000003,0.07,3.32,3.33,3.33,3.31,3.31,3.31,3.3,3.32,3.32,3.33,3.33,3.32,3.3,3.32,3.3,3.31,3.32,3.32,3.32,3.32,3.33,3.33,3.33,3.33,3.33,3.3,79.6,1.0,1.0,0.0,1.0,1.0,3199408
1765221704452,0.0,0.0,2.0,25.0,0.0,0.0,0.0,0.0,0.0,0.0,-0.010003999999999999,0.005612,0.993202,-0.56,0.35000000000000003,0.07,3.32,3.33,3.33,3.31,3.31,3.31,3.3,3.32,3.32,3.33,3.33,3.32,3.3,3.32,3.3,3.31,3.32,3.32,3.32,3.32,3.33,3.33,3.33,3.33,3.33,3.3,79.6,1.0,1.0,0.0,1.0,1.0,3199426
1765221704502,0.0,0.0,2.0,25.0,0.0,0.0,0.0,0.0,0.0,0.0,-0.010003999999999999,0.005612,0.993202,-0.56,0.35000000000000003,0.07,3.32,3.33,3.33,3.31,3.31,3.31,3.3,3.32,3.32,3.33,3.33,3.32,3.3,3.32,3.3,3.31,3.32,3.32,3.32,3.32,3.33,3.33,3.33,3.33,3.33,3.3,79.6,1.0,1.0,0.0,1.0,1.0,3199476
1765221704586,0.0,0.0,2.0,25.0,0.0,0.0,0.0,0.0,0.0,0.0,-0.010003999999999999,0.005612,0.993202,-0.56,0.35000000000000003,0.07,3.32,3.33,3.33,3.31,3.31,3.31,3.3,3.32,3.32,3.33,3.33,3.32,3.3,3.32,3.3,3.31,3.32,3.32,3.32,3.32,3.33,3.33,3.33,3.33,3.33,3.3,79.6,1.0,1.0,0.0,1.0,1.0,3199560
1765221704635,0.0,0.0,2.0,25.0,0.0,0.0,0.0,0.0,0.0,0.0,-0.010003999999999999,0.005612,0.993202,-0.56,0.35000000000000003,0.07,3.32,3.33,3.33,3.31,3.31,3.31,3.3,3.32,3.32,3.33,3.33,3.32,3.3,3.32,3.3,3.31,3.32,3.32,3.32,3.32,3.33,3.33,3.33,3.33,3.33,3.3,79.6,1.0,1.0,0.0,1.0,1.0,3199609
1765221704686,0.0,0.0,2.0,25.0,0.0,0.0,0.0,0.0,0.0,0.0,-0.011712,0.0053679999999999995,0.994422,-0.56,0.35000000000000003,0.07,3.32,3.33,3.33,3.31,3.31,3.31,3.3,3.32,3.32,3.33,3.33,3.32,3.3,3.32,3.3,3.31,3.32,3.32,3.32,3.32,3.33,3.33,3.33,3.33,3.33,3.3,79.6,1.0,1.0,0.0,1.0,1.0,3199660
1765221704702,0.0,0.0,2.0,25.0,0.0,0.0,0.0,0.0,0.0,0.0,-0.011712,0.0053679999999999995,0.994422,-0.56,0.35000000000000003,0.07,3.32,3.33,3.33,3.31,3.31,3.31,3.3,3.32,3.32,3.33,3.33,3.32,3.3,3.32,3.3,3.31,3.32,3.32,3.32,3.32,3.33,3.33,3.33,3.33,3.33,3.3,79.6,1.0,1.0,0.0,1.0,1.0,3199676
1765221704737,0.0,0.0,2.0,25.0,0.0,0.0,0.0,0.0,0.0,0.0,-0.011712,0.0053679999999999995,0.994422,-0.56,0.35000000000000003,0.07,3.32,3.33,3.33,3.31,3.31,3.31,3.3,3.32,3.32,3.33,3.33,3.32,3.3,3.32,3.3,3.31,3.32,3.32,3.32,3.32,3.33,3.33,3.33,3.33,3.33,3.3,79.6,1.0,1.0,0.0,1.0,1.0,3199711
1765221704771,0.0,0.0,2.0,25.0,0.0,0.0,0.0,0.0,0.0,0.0,-0.011712,0.0053679999999999995,0.994422,-0.56,0.35000000000000003,0.0,3.32,3.33,3.33,3.31,3.31,3.31,3.3,3.32,3.32,3.33,3.33,3.32,3.3,3.32,3.3,3.31,3.32,3.32,3.32,3.32,3.33,3.33,3.33,3.33,3.33,3.3,79.6,1.0,1.0,0.0,1.0,1.0,3199745
1765221704819,0.0,0.0,2.0,25.0,0.0,0.0,0.0,0.0,0.0,0.0,-0.012931999999999999,0.0060999999999999995,0.9928359999999999,-0.56,0.35000000000000003,0.0,3.32,3.33,3.33,3.31,3.31,3.31,3.3,3.32,3.32,3.33,3.33,3.32,3.3,3.32,3.3,3.31,3.32,3.32,3.32,3.32,3.33,3.33,3.33,3.33,3.33,3.3,79.6,1.0,1.0,0.0,1.0,1.0,3199793
1765221704853,0.0,0.0,2.0,25.0,0.0,0.0,0.0,0.0,0.0,0.0,-0.012931999999999999,0.0060999999999999995,0.9928359999999999,-0.6300000000000001,0.35000000000000003,0.0,3.32,3.33,3.33,3.31,3.31,3.31,3.3,3.32,3.32,3.33,3.33,3.32,3.3,3.32,3.3,3.31,3.32,3.32,3.32,3.32,3.33,3.33,3.33,3.33,3.33,3.3,79.6,1.0,1.0,0.0,1.0,1.0,3199827
1765221704870,0.0,0.0,2.0,25.0,0.0,0.0,0.0,0.0,0.0,0.0,-0.012931999999999999,0.0060999999999999995,0.9928359999999999,-0.6300000000000001,0.35000000000000003,0.0,3.32,3.33,3.33,3.31,3.31,3.31,3.3,3.32,3.32,3.33,3.33,3.32,3.3,3.32,3.3,3.31,3.32,3.32,3.32,3.32,3.33,3.33,3.33,3.33,3.33,3.3,79.6,1.0,1.0,0.0,1.0,1.0,3199844
1765221704903,0.0,0.0,2.0,25.0,0.0,0.0,0.0,0.0,0.0,0.0,-0.012931999999999999,0.0060999999999999995,0.9928359999999999,-0.6300000000000001,0.35000000000000003,0.0,3.32,3.33,3.33,3.31,3.31,3.31,3.3,3.32,3.32,3.33,3.33,3.32,3.3,3.32,3.3,3.31,3.32,3.32,3.32,3.32,3.33,3.33,3.33,3.33,3.33,3.3,79.6,1.0,1.0,0.0,1.0,1.0,3199877
1765221704919,0.0,0.0,2.0,25.0,0.0,0.0,0.0,0.0,0.0,0.0,-0.012931999999999999,0.0060999999999999995,0.9928359999999999,-0.6300000000000001,0.35000000000000003,0.0,3.32,3.33,3.33,3.31,3.31,3.31,3.3,3.32,3.32,3.33,3.33,3.32,3.3,3.32,3.3,3.31,3.32,3.32,3.32,3.32,3.33,3.33,3.33,3.33,3.33,3.3,79.6,1.0,1.0,0.0,1.0,1.0,3199893
1765221704936,0.0,0.0,2.0,25.0,0.0,0.0,0.0,0.0,0.0,0.0,-0.012931999999999999,0.0060999999999999995,0.9928359999999999,-0.6300000000000001,0.35000000000000003,0.0,3.32,3.33,3.33,3.31,3.31,3.31,3.3,3.32,3.32,3.33,3.33,3.32,3.3,3.32,3.3,3.31,3.32,3.32,3.32,3.32,3.33,3.33,3.33,3.33,3.33,3.3,79.6,1.0,1.0,0.0,1.0,1.0,3199910
1765221705002,0.0,0.0,2.0,25.0,0.0,0.0,0.0,0.0,0.0,0.0,-0.012931999999999999,0.0060999999999999995,0.9928359999999999,-0.6300000000000001,0.35000000000000003,0.0,3.32,3.33,3.33,3.31,3.31,3.31,3.3,3.32,3.32,3.33,3.33,3.32,3.3,3.32,3.3,3.31,3.32,3.32,3.32,3.32,3.33,3.33,3.33,3.33,3.33,3.3,79.6,1.0,1.0,0.0,1.0,1.0,3199976
1765221705070,0.0,0.0,2.0,25.0,0.0,0.0,0.0,0.0,0.0,0.0,-0.009637999999999999,0.0053679999999999995,0.9943,-0.56,0.28,0.0,3.32,3.33,3.33,3.31,3.31,3.31,3.3,3.32,3.32,3.33,3.33,3.32,3.3,3.32,3.3,3.31,3.32,3.32,3.32,3.32,3.33,3.33,3.33,3.33,3.33,3.3,79.6,1.0,1.0,0.0,1.0,1.0,3200044
1765221705136,0.0,0.0,2.0,25.0,0.0,0.0,0.0,0.0,0.0,0.0,-0.011712,0.005124,0.991982,-0.56,0.28,0.0,3.32,3.33,3.33,3.31,3.31,3.31,3.3,3.32,3.32,3.33,3.33,3.32,3.3,3.32,3.3,3.31,3.32,3.32,3.32,3.32,3.33,3.33,3.33,3.33,3.33,3.3,79.6,1.0,1.0,0.0,1.0,1.0,3200110
1765221705152,0.0,0.0,2.0,25.0,0.0,0.0,0.0,0.0,0.0,0.0,-0.011712,0.005124,0.991982,-0.56,0.28,0.0,3.32,3.33,3.33,3.31,3.31,3.31,3.3,3.32,3.32,3.33,3.33,3.32,3.3,3.32,3.3,3.31,3.32,3.32,3.32,3.32,3.33,3.33,3.33,3.33,3.33,3.3,79.6,1.0,1.0,0.0,1.0,1.0,3200126
1765221705169,0.0,0.0,2.0,25.0,0.0,0.0,0.0,0.0,0.0,0.0,-0.011712,0.005124,0.991982,-0.56,0.28,0.0,3.32,3.33,3.33,3.31,3.31,3.31,3.3,3.32,3.32,3.33,3.33,3.32,3.3,3.32,3.3,3.31,3.32,3.32,3.32,3.32,3.33,3.33,3.33,3.33,3.33,3.3,79.6,1.0,1.0,0.0,1.0,1.0,3200143
1765221705185,0.0,0.0,2.0,25.0,0.0,0.0,0.0,0.0,0.0,0.0,-0.011712,0.005124,0.991982,-0.56,0.28,0.0,3.32,3.33,3.33,3.31,3.31,3.31,3.3,3.32,3.32,3.33,3.33,3.32,3.3,3.32,3.3,3.31,3.32,3.32,3.32,3.32,3.33,3.33,3.33,3.33,3.33,3.3,79.6,1.0,1.0,0.0,1.0,1.0,3200159
1765221705202,0.0,0.0,2.0,25.0,0.0,0.0,0.0,0.0,0.0,0.0,-0.011712,0.005124,0.991982,-0.56,0.28,0.0,3.32,3.33,3.33,3.31,3.31,3.31,3.3,3.32,3.32,3.33,3.33,3.32,3.3,3.32,3.3,3.31,3.32,3.32,3.32,3.32,3.33,3.33,3.33,3.33,3.33,3.3,79.6,1.0,1.0,0.0,1.0,1.0,3200176
1765221705236,0.0,0.0,2.0,25.0,0.0,0.0,0.0,0.0,0.0,0.0,-0.011712,0.005124,0.991982,-0.56,0.28,0.0,3.32,3.33,3.33,3.31,3.31,3.31,3.3,3.32,3.32,3.33,3.33,3.32,3.3,3.32,3.3,3.31,3.32,3.32,3.32,3.32,3.33,3.33,3.33,3.33,3.33,3.3,79.6,1.0,1.0,0.0,1.0,1.0,3200210
1765221705286,0.0,0.0,2.0,25.0,0.0,0.0,0.0,0.0,0.0,0.0,-0.011712,0.005124,0.991982,-0.56,0.28,0.0,3.32,3.33,3.33,3.31,3.31,3.31,3.3,3.32,3.32,3.33,3.33,3.32,3.3,3.32,3.3,3.31,3.32,3.32,3.32,3.32,3.33,3.33,3.33,3.33,3.33,3.3,79.6,1.0,1.0,0.0,1.0,1.0,3200260
1765221705320,0.0,0.0,2.0,25.0,0.0,0.0,0.0,0.0,0.0,0.0,-0.011712,0.005124,0.991982,-0.56,0.28,0.0,3.32,3.33,3.33,3.31,3.31,3.31,3.3,3.32,3.32,3.33,3.33,3.32,3.3,3.32,3.3,3.31,3.32,3.32,3.32,3.32,3.33,3.33,3.33,3.33,3.33,3.3,79.6,0.0,1.0,0.0,1.0,1.0,3200294
1765221705336,0.0,0.0,2.0,25.0,0.0,0.0,0.0,0.0,0.0,0.0,-0.011712,0.005124,0.991982,-0.56,0.28,0.0,3.32,3.33,3.33,3.31,3.31,3.31,3.3,3.32,3.32,3.33,3.33,3.32,3.3,3.32,3.3,3.31,3.32,3.32,3.32,3.32,3.33,3.33,3.33,3.33,3.33,3.3,79.6,0.0,1.0,0.0,1.0,1.0,3200310
1765221705353,0.0,0.0,2.0,25.0,0.0,0.0,0.0,0.0,0.0,0.0,-0.011712,0.006954,0.993202,-0.56,0.28,0.0,3.32,3.33,3.33,3.31,3.31,3.31,3.3,3.32,3.32,3.33,3.33,3.32,3.3,3.32,3.3,3.31,3.32,3.32,3.32,3.32,3.33,3.33,3.33,3.33,3.33,3.3,79.6,0.0,1.0,0.0,1.0,1.0,3200327
1765221705386,0.0,0.0,2.0,25.0,0.0,0.0,0.0,0.0,0.0,0.0,-0.011712,0.006954,0.993202,-0.56,0.28,0.0,3.32,3.33,3.33,3.31,3.31,3.31,3.3,3.32,3.32,3.33,3.33,3.32,3.3,3.32,3.3,3.31,3.32,3.32,3.32,3.32,3.33,3.33,3.33,3.33,3.33,3.3,79.6,0.0,1.0,0.0,1.0,1.0,3200360
1765221705403,0.0,0.0,2.0,25.0,0.0,0.0,0.0,0.0,0.0,0.0,-0.011712,0.006954,0.993202,-0.56,0.28,-0.07,3.32,3.33,3.33,3.31,3.31,3.31,3.3,3.32,3.32,3.33,3.33,3.32,3.3,3.32,3.3,3.31,3.32,3.32,3.32,3.32,3.33,3.33,3.33,3.33,3.33,3.3,79.6,0.0,1.0,0.0,1.0,1.0,3200377
1765221705469,0.0,0.0,2.0,25.0,0.0,0.0,0.0,0.0,0.0,0.0,-0.011712,0.006954,0.993202,-0.56,0.28,-0.07,3.32,3.33,3.33,3.31,3.31,3.31,3.3,3.32,3.32,3.33,3.33,3.32,3.3,3.32,3.3,3.31,3.32,3.32,3.32,3.32,3.33,3.33,3.33,3.33,3.33,3.3,79.6,0.0,1.0,0.0,1.0,1.0,3200443
1765221705485,0.0,0.0,2.0,25.0,0.0,0.0,0.0,0.0,0.0,0.0,-0.011712,0.006954,0.993202,-0.56,0.28,-0.07,3.32,3.33,3.33,3.31,3.31,3.31,3.3,3.32,3.32,3.33,3.33,3.32,3.3,3.32,3.3,3.31,3.32,3.32,3.32,3.32,3.33,3.33,3.33,3.33,3.33,3.3,79.6,0.0,1.0,0.0,1.0,1.0,3200459
1765221705520,0.0,0.0,2.0,25.0,0.0,0.0,0.0,0.0,0.0,0.0,-0.011101999999999999,0.006222,0.99308,-0.56,0.28,-0.07,3.32,3.33,3.33,3.31,3.31,3.31,3.3,3.32,3.32,3.33,3.33,3.32,3.3,3.32,3.3,3.31,3.32,3.32,3.32,3.32,3.33,3.33,3.33,3.33,3.33,3.3,79.6,0.0,1.0,0.0,1.0,1.0,3200494
1765221705537,0.0,0.0,2.0,25.0,0.0,0.0,0.0,0.0,0.0,0.0,-0.011101999999999999,0.006222,0.99308,-0.56,0.35000000000000003,0.0,3.32,3.33,3.33,3.31,3.31,3.31,3.3,3.32,3.32,3.33,3.33,3.32,3.3,3.32,3.3,3.31,3.32,3.32,3.32,3.32,3.33,3.33,3.33,3.33,3.33,3.3,79.6,0.0,1.0,0.0,1.0,1.0,3200511
1765221705570,0.0,0.0,2.0,25.0,0.0,0.0,0.0,0.0,0.0,0.0,-0.011101999999999999,0.006222,0.99308,-0.56,0.35000000000000003,0.0,3.32,3.33,3.33,3.31,3.31,3.31,3.3,3.32,3.32,3.33,3.33,3.32,3.3,3.32,3.3,3.31,3.32,3.32,3.32,3.32,3.33,3.33,3.33,3.33,3.33,3.3,79.6,0.0,1.0,0.0,1.0,1.0,3200544
1765221705603,0.0,0.0,2.0,25.0,0.0,0.0,0.0,0.0,0.0,0.0,-0.011101999999999999,0.006222,0.99308,-0.56,0.35000000000000003,0.0,3.32,3.33,3.33,3.31,3.31,3.31,3.3,3.32,3.32,3.33,3.33,3.32,3.3,3.32,3.3,3.31,3.32,3.32,3.32,3.32,3.33,3.33,3.33,3.33,3.33,3.3,79.6,0.0,1.0,0.0,1.0,1.0,3200577
1765221705638,0.0,0.0,2.0,25.0,0.0,0.0,0.0,0.0,0.0,0.0,-0.011101999999999999,0.006222,0.99308,-0.56,0.35000000000000003,0.0,3.32,3.33,3.33,3.31,3.31,3.31,3.3,3.32,3.32,3.33,3.33,3.32,3.3,3.32,3.3,3.31,3.32,3.32,3.32,3.32,3.33,3.33,3.33,3.33,3.33,3.3,79.6,0.0,1.0,0.0,1.0,1.0,3200612
1765221705703,0.0,0.0,2.0,25.0,0.0,0.0,0.0,0.0,0.0,0.0,-0.011101999999999999,0.006222,0.99308,-0.56,0.35000000000000003,0.0,3.32,3.33,3.33,3.31,3.31,3.31,3.3,3.32,3.32,3.33,3.33,3.32,3.3,3.32,3.3,3.31,3.32,3.32,3.32,3.32,3.33,3.33,3.33,3.33,3.33,3.3,79.6,0.0,1.0,0.0,1.0,1.0,3200677
1765221705738,0.0,0.0,2.0,25.0,0.0,0.0,0.0,0.0,0.0,0.0,-0.011101999999999999,0.003538,0.992714,-0.56,0.35000000000000003,0.0,3.32,3.33,3.33,3.31,3.31,3.31,3.3,3.32,3.32,3.33,3.33,3.32,3.3,3.32,3.3,3.31,3.32,3.32,3.32,3.32,3.33,3.33,3.33,3.33,3.33,3.3,79.6,0.0,1.0,0.0,1.0,1.0,3200712
1765221705771,0.0,0.0,2.0,25.0,0.0,0.0,0.0,0.0,0.0,0.0,-0.011101999999999999,0.003538,0.992714,-0.56,0.28,-0.07,3.32,3.33,3.33,3.31,3.31,3.31,3.3,3.32,3.32,3.33,3.33,3.32,3.3,3.32,3.3,3.31,3.32,3.32,3.32,3.32,3.33,3.33,3.33,3.33,3.33,3.3,79.6,0.0,1.0,0.0,1.0,1.0,3200745
1765221705821,0.0,0.0,2.0,25.0,0.0,0.0,0.0,0.0,0.0,0.0,-0.012078,0.00488,0.99247,-0.56,0.28,-0.07,3.32,3.33,3.33,3.31,3.31,3.31,3.3,3.32,3.32,3.33,3.33,3.32,3.3,3.32,3.3,3.31,3.32,3.32,3.32,3.32,3.33,3.33,3.33,3.33,3.33,3.3,79.6,0.0,1.0,0.0,1.0,1.0,3200795
1765221705837,0.0,0.0,2.0,25.0,0.0,0.0,0.0,0.0,0.0,0.0,-0.012078,0.00488,0.99247,-0.56,0.28,-0.07,3.32,3.33,3.33,3.31,3.31,3.31,3.3,3.32,3.32,3.33,3.33,3.32,3.3,3.32,3.3,3.31,3.32,3.32,3.32,3.32,3.33,3.33,3.33,3.33,3.33,3.3,79.6,0.0,1.0,0.0,1.0,1.0,3200811
1765221705854,0.0,0.0,2.0,25.0,0.0,0.0,0.0,0.0,0.0,0.0,-0.012078,0.00488,0.99247,-0.56,0.28,-0.07,3.32,3.33,3.33,3.31,3.31,3.31,3.3,3.32,3.32,3.33,3.33,3.32,3.3,3.32,3.3,3.31,3.32,3.32,3.32,3.32,3.33,3.33,3.33,3.33,3.33,3.3,79.6,0.0,1.0,0.0,1.0,1.0,3200828
1765221705870,0.0,0.0,2.0,25.0,0.0,0.0,0.0,0.0,0.0,0.0,-0.012078,0.00488,0.99247,-0.56,0.35000000000000003,0.07,3.32,3.33,3.33,3.31,3.31,3.31,3.3,3.32,3.32,3.33,3.33,3.32,3.3,3.32,3.3,3.31,3.32,3.32,3.32,3.32,3.33,3.33,3.33,3.33,3.33,3.3,79.6,0.0,1.0,0.0,1.0,1.0,3200844
1765221705887,0.0,0.0,2.0,25.0,0.0,0.0,0.0,0.0,0.0,0.0,-0.012078,0.00488,0.99247,-0.56,0.35000000000000003,0.07,3.32,3.33,3.33,3.31,3.31,3.31,3.3,3.32,3.32,3.33,3.33,3.32,3.3,3.32,3.3,3.31,3.32,3.32,3.32,3.32,3.33,3.33,3.33,3.33,3.33,3.3,79.6,0.0,1.0,0.0,1.0,1.0,3200861
1765221705888,0.0,0.0,2.0,25.0,0.0,0.0,0.0,0.0,0.0,0.0,-0.012078,0.00488,0.99247,-0.56,0.35000000000000003,0.07,3.32,3.33,3.33,3.31,3.31,3.31,3.3,3.32,3.32,3.33,3.33,3.32,3.3,3.32,3.3,3.31,3.32,3.32,3.32,3.32,3.33,3.33,3.33,3.33,3.33,3.3,79.6,0.0,1.0,0.0,1.0,1.0,3200862
1765221705920,0.0,0.0,2.0,25.0,0.0,0.0,0.0,0.0,0.0,0.0,-0.012078,0.00488,0.99247,-0.56,0.35000000000000003,0.07,3.32,3.33,3.33,3.31,3.31,3.31,3.3,3.32,3.32,3.33,3.33,3.32,3.3,3.32,3.3,3.31,3.32,3.32,3.32,3.32,3.33,3.33,3.33,3.33,3.33,3.3,79.6,0.0,1.0,0.0,1.0,1.0,3200894
1765221705986,0.0,0.0,2.0,25.0,0.0,0.0,0.0,0.0,0.0,0.0,-0.012078,0.00488,0.99247,-0.56,0.35000000000000003,0.07,3.32,3.33,3.33,3.31,3.31,3.31,3.3,3.32,3.32,3.33,3.33,3.32,3.3,3.32,3.3,3.31,3.32,3.32,3.32,3.32,3.33,3.33,3.33,3.33,3.33,3.3,79.6,0.0,1.0,0.0,1.0,1.0,3200960
1765221706004,0.0,0.0,2.0,25.0,0.0,0.0,0.0,0.0,0.0,0.0,-0.012078,0.00488,0.99247,-0.56,0.35000000000000003,0.07,3.32,3.33,3.33,3.31,3.31,3.31,3.3,3.32,3.32,3.33,3.33,3.32,3.3,3.32,3.3,3.31,3.32,3.32,3.32,3.32,3.33,3.33,3.33,3.33,3.33,3.3,79.6,0.0,1.0,0.0,1.0,1.0,3200978
1765221706021,0.0,0.0,2.0,25.0,0.0,0.0,0.0,0.0,0.0,0.0,-0.012078,0.00488,0.99247,-0.56,0.35000000000000003,0.07,3.32,3.33,3.33,3.31,3.31,3.31,3.3,3.32,3.32,3.33,3.33,3.32,3.3,3.32,3.3,3.31,3.32,3.32,3.32,3.32,3.33,3.33,3.33,3.33,3.33,3.3,79.6,0.0,1.0,0.0,1.0,1.0,3200995
1765221706187,0.0,0.0,2.0,25.0,0.0,0.0,0.0,0.0,0.0,0.0,-0.012078,0.00488,0.99247,-0.56,0.35000000000000003,0.07,3.32,3.33,3.33,3.31,3.31,3.31,3.3,3.32,3.32,3.33,3.33,3.32,3.3,3.32,3.3,3.31,3.32,3.32,3.32,3.32,3.33,3.33,3.33,3.33,3.33,3.3,79.6,0.0,1.0,0.0,1.0,1.0,3201161
1765221706203,0.0,0.0,2.0,25.0,0.0,0.0,0.0,0.0,0.0,0.0,-0.012078,0.00488,0.99247,-0.56,0.35000000000000003,0.07,3.32,3.33,3.33,3.31,3.31,3.31,3.3,3.32,3.32,3.33,3.33,3.32,3.3,3.32,3.3,3.31,3.32,3.32,3.32,3.32,3.33,3.33,3.33,3.33,3.33,3.3,79.6,0.0,1.0,0.0,1.0,1.0,3201177
1765221706221,0.0,0.0,2.0,25.0,0.0,0.0,0.0,0.0,0.0,0.0,-0.012078,0.00488,0.99247,-0.56,0.35000000000000003,0.07,3.32,3.33,3.33,3.31,3.31,3.31,3.3,3.32,3.32,3.33,3.33,3.32,3.3,3.32,3.3,3.31,3.32,3.32,3.32,3.32,3.33,3.33,3.33,3.33,3.33,3.3,79.6,0.0,1.0,0.0,1.0,1.0,3201195
1765221706237,0.0,0.0,2.0,25.0,0.0,0.0,0.0,0.0,0.0,0.0,-0.012078,0.00488,0.99247,-0.56,0.35000000000000003,0.07,3.32,3.33,3.33,3.31,3.31,3.31,3.3,3.32,3.32,3.33,3.33,3.32,3.3,3.32,3.3,3.31,3.32,3.32,3.32,3.32,3.33,3.33,3.33,3.33,3.33,3.3,79.6,0.0,1.0,0.0,1.0,1.0,3201211
1765221706288,0.0,0.0,2.0,25.0,0.0,0.0,0.0,0.0,0.0,0.0,-0.012078,0.00488,0.99247,-0.56,0.35000000000000003,0.07,3.32,3.33,3.33,3.31,3.31,3.31,3.3,3.32,3.32,3.33,3.33,3.32,3.3,3.32,3.3,3.31,3.32,3.32,3.32,3.32,3.33,3.33,3.33,3.33,3.33,3.3,79.6,0.0,1.0,0.0,1.0,1.0,3201262
1765221706301,0.0,0.0,2.0,25.0,0.0,0.0,0.0,0.0,0.0,0.0,-0.012078,0.00488,0.99247,-0.56,0.35000000000000003,0.07,3.32,3.33,3.33,3.31,3.31,3.31,3.3,3.32,3.32,3.33,3.33,3.32,3.3,3.32,3.3,3.31,3.32,3.32,3.32,3.32,3.33,3.33,3.33,3.33,3.33,3.3,79.6,0.0,1.0,0.0,1.0,1.0,3201275
1765221706319,0.0,0.0,2.0,25.0,0.0,0.0,0.0,0.0,0.0,0.0,-0.012199999999999999,0.00549,0.995398,-0.56,0.35000000000000003,0.07,3.32,3.33,3.33,3.31,3.31,3.31,3.3,3.32,3.32,3.33,3.33,3.32,3.3,3.32,3.3,3.31,3.32,3.32,3.32,3.32,3.33,3.33,3.33,3.33,3.33,3.3,79.6,0.0,1.0,0.0,1.0,1.0,3201293
1765221706337,0.0,0.0,2.0,25.0,0.0,0.0,0.0,0.0,0.0,0.0,-0.012199999999999999,0.00549,0.995398,-0.56,0.35000000000000003,0.07,3.32,3.33,3.33,3.31,3.31,3.31,3.3,3.32,3.32,3.33,3.33,3.32,3.3,3.32,3.3,3.31,3.32,3.32,3.32,3.32,3.33,3.33,3.33,3.33,3.33,3.3,79.6,0.0,1.0,0.0,1.0,1.0,3201311
1765221706353,0.0,0.0,2.0,25.0,0.0,0.0,0.0,0.0,0.0,0.0,-0.012199999999999999,0.00549,0.995398,-0.7000000000000001,0.42000000000000004,-0.07,3.32,3.33,3.33,3.31,3.31,3.31,3.3,3.32,3.32,3.33,3.33,3.32,3.3,3.32,3.3,3.31,3.32,3.32,3.32,3.32,3.33,3.33,3.33,3.33,3.33,3.3,79.6,0.0,1.0,0.0,1.0,1.0,3201327
1765221706371,0.0,0.0,2.0,25.0,0.0,0.0,0.0,0.0,0.0,0.0,-0.012199999999999999,0.00549,0.995398,-0.7000000000000001,0.42000000000000004,-0.07,3.32,3.33,3.33,3.31,3.31,3.31,3.3,3.32,3.32,3.33,3.33,3.32,3.3,3.32,3.3,3.31,3.32,3.32,3.32,3.32,3.33,3.33,3.33,3.33,3.33,3.3,79.6,0.0,1.0,0.0,1.0,1.0,3201345
1765221706437,0.0,0.0,2.0,25.0,0.0,0.0,0.0,0.0,0.0,0.0,-0.012199999999999999,0.00549,0.995398,-0.7000000000000001,0.42000000000000004,-0.07,3.32,3.33,3.33,3.31,3.31,3.31,3.3,3.32,3.32,3.33,3.33,3.32,3.3,3.32,3.3,3.31,3.32,3.32,3.32,3.32,3.33,3.33,3.33,3.33,3.33,3.3,79.6,0.0,1.0,0.0,1.0,1.0,3201411
1765221706504,0.0,0.0,2.0,25.0,0.0,0.0,0.0,0.0,0.0,0.0,-0.014395999999999999,0.001464,0.989664,-0.7000000000000001,0.42000000000000004,-0.07,3.32,3.33,3.33,3.31,3.31,3.31,3.3,3.32,3.32,3.33,3.33,3.32,3.3,3.32,3.3,3.31,3.32,3.32,3.32,3.32,3.33,3.33,3.33,3.33,3.33,3.3,79.6,0.0,1.0,0.0,1.0,1.0,3201478
1765221706538,0.0,0.0,2.0,25.0,0.0,0.0,0.0,0.0,0.0,0.0,-0.014395999999999999,0.001464,0.989664,-0.49000000000000005,0.28,0.0,3.32,3.33,3.33,3.31,3.31,3.31,3.3,3.32,3.32,3.33,3.33,3.32,3.3,3.32,3.3,3.31,3.32,3.32,3.32,3.32,3.33,3.33,3.33,3.33,3.33,3.3,79.6,0.0,1.0,0.0,1.0,1.0,3201512
1765221706571,0.0,0.0,2.0,25.0,0.0,0.0,0.0,0.0,0.0,0.0,-0.014395999999999999,0.001464,0.989664,-0.49000000000000005,0.28,0.0,3.32,3.33,3.33,3.31,3.31,3.31,3.3,3.32,3.32,3.33,3.33,3.32,3.3,3.32,3.3,3.31,3.32,3.32,3.32,3.32,3.33,3.33,3.33,3.33,3.33,3.3,79.6,0.0,1.0,0.0,1.0,1.0,3201545
1765221706603,0.0,0.0,2.0,25.0,0.0,0.0,0.0,0.0,0.0,0.0,-0.014395999999999999,0.001464,0.989664,-0.6300000000000001,0.42000000000000004,-0.07,3.32,3.33,3.33,3.31,3.31,3.31,3.3,3.32,3.32,3.33,3.33,3.32,3.3,3.32,3.3,3.31,3.32,3.32,3.32,3.32,3.33,3.33,3.33,3.33,3.33,3.3,79.6,0.0,1.0,0.0,1.0,1.0,3201577
1765221706654,0.0,0.0,2.0,25.0,0.0,0.0,0.0,0.0,0.0,0.0,-0.009028,0.005856,0.9934459999999999,-0.6300000000000001,0.42000000000000004,-0.07,3.32,3.33,3.33,3.31,3.31,3.31,3.3,3.32,3.32,3.33,3.33,3.32,3.3,3.32,3.3,3.31,3.32,3.32,3.32,3.32,3.33,3.33,3.33,3.33,3.33,3.3,79.6,0.0,1.0,0.0,1.0,1.0,3201628
1765221706686,0.0,0.0,2.0,25.0,0.0,0.0,0.0,0.0,0.0,0.0,-0.009028,0.005856,0.9934459999999999,-0.56,0.28,0.0,3.32,3.33,3.33,3.31,3.31,3.31,3.3,3.32,3.32,3.33,3.33,3.32,3.3,3.32,3.3,3.31,3.32,3.32,3.32,3.32,3.33,3.33,3.33,3.33,3.33,3.3,79.6,0.0,1.0,0.0,1.0,1.0,3201660
1765221706703,0.0,0.0,2.0,25.0,0.0,0.0,0.0,0.0,0.0,0.0,-0.009028,0.005856,0.9934459999999999,-0.56,0.28,0.0,3.32,3.33,3.33,3.31,3.31,3.31,3.3,3.32,3.32,3.33,3.33,3.32,3.3,3.32,3.3,3.31,3.32,3.32,3.32,3.32,3.33,3.33,3.33,3.33,3.33,3.3,79.6,0.0,1.0,0.0,1.0,1.0,3201677
1765221706719,0.0,0.0,2.0,25.0,0.0,0.0,0.0,0.0,0.0,0.0,-0.009028,0.005856,0.9934459999999999,-0.56,0.28,0.0,3.32,3.33,3.33,3.31,3.31,3.31,3.3,3.32,3.32,3.33,3.33,3.32,3.3,3.32,3.3,3.31,3.32,3.32,3.32,3.32,3.33,3.33,3.33,3.33,3.33,3.3,79.6,0.0,1.0,0.0,1.0,1.0,3201693
1765221706720,0.0,0.0,2.0,25.0,0.0,0.0,0.0,0.0,0.0,0.0,-0.009028,0.005856,0.9934459999999999,-0.56,0.28,0.0,3.32,3.33,3.33,3.31,3.31,3.31,3.3,3.32,3.32,3.33,3.33,3.32,3.3,3.32,3.3,3.31,3.32,3.32,3.32,3.32,3.33,3.33,3.33,3.33,3.33,3.3,79.6,0.0,1.0,0.0,1.0,1.0,3201694
1765221706771,0.0,0.0,2.0,25.0,0.0,0.0,0.0,0.0,0.0,0.0,-0.009028,0.005856,0.9934459999999999,-0.56,0.28,0.0,3.32,3.33,3.33,3.31,3.31,3.31,3.3,3.32,3.32,3.33,3.33,3.32,3.3,3.32,3.3,3.31,3.32,3.32,3.32,3.32,3.33,3.33,3.33,3.33,3.33,3.3,79.6,0.0,1.0,0.0,1.0,1.0,3201745
1765221706821,0.0,0.0,2.0,25.0,0.0,0.0,0.0,0.0,0.0,0.0,-0.009028,0.005856,0.9934459999999999,-0.56,0.28,0.0,3.32,3.33,3.33,3.31,3.31,3.31,3.3,3.32,3.32,3.33,3.33,3.32,3.3,3.32,3.3,3.31,3.32,3.32,3.32,3.32,3.33,3.33,3.33,3.33,3.33,3.3,79.6,0.0,1.0,0.0,1.0,1.0,3201795
1765221706887,0.0,0.0,2.0,25.0,0.0,0.0,0.0,0.0,0.0,0.0,-0.01098,0.007076,0.9922259999999999,-0.56,0.28,0.0,3.32,3.33,3.33,3.31,3.31,3.31,3.3,3.32,3.32,3.33,3.33,3.32,3.3,3.32,3.3,3.31,3.32,3.32,3.32,3.32,3.33,3.33,3.33,3.33,3.33,3.3,79.6,0.0,1.0,0.0,1.0,1.0,3201861
1765221706903,0.0,0.0,2.0,25.0,0.0,0.0,0.0,0.0,0.0,0.0,-0.01098,0.007076,0.9922259999999999,-0.7000000000000001,0.35000000000000003,0.0,3.32,3.33,3.33,3.31,3.31,3.31,3.3,3.32,3.32,3.33,3.33,3.32,3.3,3.32,3.3,3.31,3.32,3.32,3.32,3.32,3.33,3.33,3.33,3.33,3.33,3.3,79.6,0.0,1.0,0.0,1.0,1.0,3201877
1765221706953,0.0,0.0,2.0,25.0,0.0,0.0,0.0,0.0,0.0,0.0,-0.01098,0.007076,0.9922259999999999,-0.7000000000000001,0.35000000000000003,0.0,3.32,3.33,3.33,3.31,3.31,3.31,3.3,3.32,3.32,3.33,3.33,3.32,3.3,3.32,3.3,3.31,3.32,3.32,3.32,3.32,3.33,3.33,3.33,3.33,3.33,3.3,79.6,-1.0,1.0,0.0,1.0,1.0,3201927
1765221706971,0.0,0.0,2.0,25.0,0.0,0.0,0.0,0.0,0.0,0.0,-0.01098,0.007076,0.9922259999999999,-0.7000000000000001,0.35000000000000003,0.0,3.32,3.33,3.33,3.31,3.31,3.31,3.3,3.32,3.32,3.33,3.33,3.32,3.3,3.32,3.3,3.31,3.32,3.32,3.32,3.32,3.33,3.33,3.33,3.33,3.33,3.3,79.6,-1.0,1.0,0.0,1.0,1.0,3201945
1765221706984,0.0,0.0,2.0,25.0,0.0,0.0,0.0,0.0,0.0,0.0,-0.01098,0.007076,0.9922259999999999,-0.7000000000000001,0.35000000000000003,0.0,3.32,3.33,3.33,3.31,3.31,3.31,3.3,3.32,3.32,3.33,3.33,3.32,3.3,3.32,3.3,3.31,3.32,3.32,3.32,3.32,3.33,3.33,3.33,3.33,3.33,3.3,79.6,-1.0,1.0,0.0,1.0,1.0,3201958
1765221707003,0.0,0.0,2.0,25.0,0.0,0.0,0.0,0.0,0.0,0.0,-0.01098,0.007076,0.9922259999999999,-0.7000000000000001,0.35000000000000003,0.0,3.32,3.33,3.33,3.31,3.31,3.31,3.3,3.32,3.32,3.33,3.33,3.32,3.3,3.32,3.3,3.31,3.32,3.32,3.32,3.32,3.33,3.33,3.33,3.33,3.33,3.3,79.6,-1.0,1.0,0.0,1.0,1.0,3201977
1765221707021,0.0,0.0,2.0,25.0,0.0,0.0,0.0,0.0,0.0,0.0,-0.01098,0.007076,0.9922259999999999,-0.7000000000000001,0.35000000000000003,0.0,3.32,3.33,3.33,3.31,3.31,3.31,3.3,3.32,3.32,3.33,3.33,3.32,3.3,3.32,3.3,3.31,3.32,3.32,3.32,3.32,3.33,3.33,3.33,3.33,3.33,3.3,79.6,-1.0,1.0,0.0,1.0,1.0,3201995
1765221707038,0.0,0.0,2.0,25.0,0.0,0.0,0.0,0.0,0.0,0.0,-0.014884,0.00488,0.991128,-0.7000000000000001,0.35000000000000003,0.0,3.32,3.33,3.33,3.31,3.31,3.31,3.3,3.32,3.32,3.33,3.33,3.32,3.3,3.32,3.3,3.31,3.32,3.32,3.32,3.32,3.33,3.33,3.33,3.33,3.33,3.3,79.6,-1.0,1.0,0.0,1.0,1.0,3202012
1765221707071,0.0,0.0,2.0,25.0,0.0,0.0,0.0,0.0,0.0,0.0,-0.014884,0.00488,0.991128,-0.6300000000000001,0.35000000000000003,-17.85,3.32,3.33,3.33,3.31,3.31,3.31,3.3,3.32,3.32,3.33,3.33,3.32,3.3,3.32,3.3,3.31,3.32,3.32,3.32,3.32,3.33,3.33,3.33,3.33,3.33,3.3,79.6,-1.0,1.0,0.0,1.0,1.0,3202045
