timestamp,THROTTLE,BRAKE,ECU_MODE_ID,TORQUE_GAIN,TORQUE_REF_LEFT_MOTOR,TORQUE_REF_RIGHT_MOTOR,LEFT_MOTOR_SPEED,RIGHT_MOTOR_SPEED,REAR_LEFT_WHEEL_SPEED,REAR_RIGHT_WHEEL_SPEED,ACCEL_LONGITUDINAL,ACCEL_LATERAL,ACCEL_NORMAL,VEL_ANGULAR_YAW,VEL_ANGULAR_PITCH,VEL_ANGULAR_ROLL,STACK_1_CELL_1,STACK_1_CELL_2,STACK_1_CELL_3,STACK_1_CELL_4,STACK_2_CELL_1,STACK_2_CELL_2,STACK_2_CELL_3,STACK_2_CELL_4,STACK_3_CELL_1,STACK_3_CELL_2,STACK_3_CELL_3,STACK_3_CELL_4,STACK_4_CELL_1,STACK_4_CELL_2,STACK_4_CELL_3,STACK_4_CELL_4,STACK_5_CELL_1,STACK_5_CELL_2,STACK_5_CELL_3,STACK_5_CELL_4,STACK_6_CELL_1,STACK_6_CELL_2,STACK_6_CELL_3,STACK_6_CELL_4,MAX_VOLTAGE,MIN_VOLTAGE,TOTAL_VOLTAGE,SHUNT_CURRENT,BMS_MODE_ID,BMS_ERROR_ID,AIR_P,AIR_N,t,LEFT_MOTOR_RPM,RIGHT_MOTOR_RPM
1765221195059,0.0,0.0,1.0,10.0,0.0,0.0,0.0,0.0,0.0,0.0,-0.036966,0.001952,0.993202,-0.7000000000000001,0.35000000000000003,0.0,3.3,3.31,3.3,3.28,3.28,3.29,3.29,3.31,3.31,3.31,3.31,3.3,3.28,3.3,3.29,3.3,3.31,3.3,3.3,3.3,3.31,3.31,3.31,3.3,3.31,3.28,79.2,0.0,1.0,0.0,1.0,1.0,2690033,0.0,0.0
1765221195075,0.0,0.0,1.0,10.0,0.0,0.0,0.0,0.0,0.0,0.0,-0.036966,0.001952,0.993202,-0.9800000000000001,0.42000000000000004,-0.07,3.3,3.31,3.3,3.28,3.28,3.29,3.29,3.31,3.31,3.31,3.31,3.3,3.28,3.3,3.29,3.3,3.31,3.3,3.3,3.3,3.31,3.31,3.31,3.3,3.31,3.28,79.2,0.0,1.0,0.0,1.0,1.0,2690049,0.0,0.0
1765221195142,0.0,0.0,2.0,25.0,0.0,0.0,0.0,0.0,0.0,0.0,-0.036966,0.001952,0.993202,-0.9800000000000001,0.42000000000000004,-0.07,3.3,3.31,3.3,3.28,3.28,3.29,3.29,3.31,3.31,3.31,3.31,3.3,3.28,3.3,3.29,3.3,3.31,3.3,3.3,3.3,3.31,3.31,3.31,3.3,3.31,3.28,79.2,0.0,1.0,0.0,1.0,1.0,2690116,0.0,0.0
1765221195192,0.0,0.0,2.0,25.0,0.0,0.0,0.0,0.0,0.0,0.0,-0.011346,0.014884,0.993568,-0.9800000000000001,0.42000000000000004,-0.07,3.3,3.31,3.3,3.28,3.28,3.29,3.29,3.31,3.31,3.31,3.31,3.3,3.28,3.3,3.29,3.3,3.31,3.3,3.3,3.3,3.31,3.31,3.31,3.3,3.31,3.28,79.2,0.0,1.0,0.0,1.0,1.0,2690166,0.0,0.0
1765221195209,0.0,0.0,2.0,25.0,0.0,0.0,0.0,0.0,0.0,0.0,-0.011346,0.014884,0.993568,-1.33,0.42000000000000004,0.0,3.3,3.31,3.3,3.28,3.28,3.29,3.29,3.31,3.31,3.31,3.31,3.3,3.28,3.3,3.29,3.3,3.31,3.3,3.3,3.3,3.31,3.31,3.31,3.3,3.31,3.28,79.2,0.0,1.0,0.0,1.0,1.0,2690183,0.0,0.0
1765221195259,0.0,0.0,2.0,25.0,0.0,0.0,0.0,0.0,0.0,0.0,-0.011346,0.014884,0.993568,-1.33,0.42000000000000004,0.0,3.3,3.31,3.3,3.28,3.28,3.29,3.29,3.31,3.31,3.31,3.31,3.3,3.28,3.3,3.29,3.3,3.31,3.3,3.3,3.3,3.31,3.31,3.31,3.3,3.31,3.28,79.2,0.0,1.0,0.0,1.0,1.0,2690233,0.0,0.0
1765221195276,0.0,0.0,2.0,25.0,0.0,0.0,0.0,0.0,0.0,0.0,-0.011346,0.014884,0.993568,-1.33,0.42000000000000004,0.0,3.3,3.31,3.3,3.28,3.28,3.29,3.29,3.31,3.31,3.31,3.31,3.3,3.28,3.3,3.29,3.3,3.31,3.3,3.3,3.3,3.31,3.31,3.31,3.3,3.31,3.28,79.2,0.0,1.0,0.0,1.0,1.0,2690250,0.0,0.0
1765221195293,0.0,0.0,2.0,25.0,0.0,0.0,0.0,0.0,0.0,0.0,-0.011346,0.014884,0.993568,-1.33,0.42000000000000004,0.0,3.3,3.31,3.3,3.28,3.28,3.29,3.29,3.31,3.31,3.31,3.31,3.3,3.28,3.3,3.29,3.3,3.31,3.3,3.3,3.3,3.31,3.31,3.31,3.3,3.31,3.28,79.2,0.0,1.0,0.0,1.0,1.0,2690267,0.0,0.0
1765221195327,0.0,0.0,2.0,25.0,0.0,0.0,0.0,0.0,0.0,0.0,-0.011346,0.014884,0.993568,-1.33,0.42000000000000004,0.0,3.3,3.31,3.3,3.28,3.28,3.29,3.29,3.31,3.31,3.31,3.31,3.3,3.28,3.3,3.29,3.3,3.31,3.3,3.3,3.3,3.31,3.31,3.31,3.3,3.31,3.28,79.2,0.0,1.0,0.0,1.0,1.0,2690301,0.0,0.0
1765221195360,0.0,0.0,2.0,25.0,0.0,0.0,0.0,0.0,0.0,0.0,-0.011467999999999999,0.00488,0.991128,-1.33,0.42000000000000004,0.0,3.3,3.31,3.3,3.28,3.28,3.29,3.29,3.31,3.31,3.31,3.31,3.3,3.28,3.3,3.29,3.3,3.31,3.3,3.3,3.3,3.31,3.31,3.31,3.3,3.31,3.28,79.2,0.0,1.0,0.0,1.0,1.0,2690334,0.0,0.0
1765221195394,0.0,0.0,2.0,25.0,0.0,0.0,0.0,0.0,0.0,0.0,-0.011467999999999999,0.00488,0.991128,-1.33,0.42000000000000004,0.0,3.3,3.31,3.3,3.28,3.28,3.29,3.29,3.31,3.31,3.31,3.31,3.3,3.28,3.3,3.29,3.3,3.31,3.3,3.3,3.3,3.31,3.31,3.31,3.3,3.31,3.28,79.2,0.0,1.0,0.0,1.0,1.0,2690368,0.0,0.0
1765221195426,0.0,0.0,2.0,25.0,0.0,0.0,0.0,0.0,0.0,0.0,-0.011467999999999999,0.00488,0.991128,-0.56,0.56,-0.14,3.3,3.31,3.3,3.28,3.28,3.29,3.29,3.31,3.31,3.31,3.31,3.3,3.28,3.3,3.29,3.3,3.31,3.3,3.3,3.3,3.31,3.31,3.31,3.3,3.31,3.28,79.2,0.0,1.0,0.0,1.0,1.0,2690400,0.0,0.0
1765221195491,0.0,0.0,2.0,25.0,0.0,0.0,0.0,0.0,0.0,0.0,-0.014395999999999999,0.005246,0.996984,-0.56,0.56,-0.14,3.3,3.31,3.3,3.28,3.28,3.29,3.29,3.31,3.31,3.31,3.31,3.3,3.28,3.3,3.29,3.3,3.31,3.3,3.3,3.3,3.31,3.31,3.31,3.3,3.31,3.28,79.2,0.0,1.0,0.0,1.0,1.0,2690465,0.0,0.0
1765221195509,0.0,0.0,2.0,25.0,0.0,0.0,0.0,0.0,0.0,0.0,-0.014395999999999999,0.005246,0.996984,-0.56,0.56,-0.14,3.3,3.31,3.3,3.28,3.28,3.29,3.29,3.31,3.31,3.31,3.31,3.3,3.28,3.3,3.29,3.3,3.31,3.3,3.3,3.3,3.31,3.31,3.31,3.3,3.33,3.3,79.7,0.0,1.0,0.0,1.0,1.0,2690483,0.0,0.0
1765221195527,0.0,0.0,2.0,25.0,0.0,0.0,0.0,0.0,0.0,0.0,-0.014395999999999999,0.005246,0.996984,-0.56,0.56,-0.14,3.3,3.31,3.3,3.28,3.28,3.29,3.29,3.31,3.31,3.31,3.31,3.3,3.28,3.3,3.29,3.3,3.31,3.3,3.3,3.3,3.31,3.31,3.31,3.3,3.33,3.3,79.7,0.0,1.0,0.0,1.0,1.0,2690501,0.0,0.0
1765221195541,0.0,0.0,2.0,25.0,0.0,0.0,0.0,0.0,0.0,0.0,-0.014395999999999999,0.005246,0.996984,-0.8400000000000001,0.35000000000000003,0.07,3.3,3.31,3.3,3.28,3.28,3.29,3.29,3.31,3.31,3.31,3.31,3.3,3.28,3.3,3.29,3.3,3.31,3.3,3.3,3.3,3.31,3.31,3.31,3.3,3.33,3.3,79.7,0.0,1.0,0.0,1.0,1.0,2690515,0.0,0.0
1765221195576,0.0,0.0,2.0,25.0,0.0,0.0,0.0,0.0,0.0,0.0,-0.014395999999999999,0.005246,0.996984,-0.8400000000000001,0.35000000000000003,0.07,3.3,3.31,3.3,3.28,3.28,3.29,3.29,3.31,3.31,3.31,3.31,3.3,3.28,3.3,3.29,3.3,3.31,3.3,3.3,3.3,3.31,3.31,3.31,3.3,3.33,3.3,79.7,0.0,1.0,0.0,1.0,1.0,2690550,0.0,0.0
1765221195610,0.0,0.0,2.0,25.0,0.0,0.0,0.0,0.0,0.0,0.0,-0.014395999999999999,0.005246,0.996984,-0.8400000000000001,0.35000000000000003,0.07,3.3,3.31,3.3,3.28,3.28,3.29,3.29,3.31,3.31,3.31,3.31,3.3,3.28,3.3,3.29,3.3,3.31,3.3,3.3,3.3,3.31,3.31,3.31,3.3,3.33,3.3,79.7,0.0,1.0,0.0,1.0,1.0,2690584,0.0,0.0
1765221195643,0.0,0.0,2.0,25.0,0.0,0.0,0.0,0.0,0.0,0.0,-0.014395999999999999,0.005246,0.996984,-0.8400000000000001,0.35000000000000003,0.07,3.3,3.31,3.3,3.28,3.28,3.29,3.29,3.31,3.31,3.31,3.31,3.3,3.28,3.3,3.29,3.3,3.31,3.3,3.3,3.3,3.31,3.31,3.31,3.3,3.33,3.3,79.7,0.0,1.0,0.0,1.0,1.0,2690617,0.0,0.0
1765221195709,0.0,0.0,2.0,25.0,0.0,0.0,0.0,0.0,0.0,0.0,-0.014395999999999999,0.005246,0.996984,-0.8400000000000001,0.35000000000000003,0.07,3.3,3.31,3.3,3.28,3.28,3.29,3.29,3.31,3.31,3.31,3.31,3.3,3.28,3.3,3.29,3.3,3.31,3.3,3.3,3.3,3.31,3.31,3.31,3.3,3.33,3.3,79.7,0.0,1.0,0.0,1.0,1.0,2690683,0.0,0.0
1765221195743,0.0,0.0,2.0,25.0,0.0,0.0,0.0,0.0,0.0,0.0,-0.014518,0.008784,0.9916159999999999,-0.8400000000000001,0.35000000000000003,0.07,3.3,3.31,3.3,3.28,3.28,3.29,3.29,3.31,3.31,3.31,3.31,3.3,3.28,3.3,3.29,3.3,3.31,3.3,3.3,3.3,3.31,3.31,3.31,3.3,3.33,3.3,79.7,0.0,1.0,0.0,1.0,1.0,2690717,0.0,0.0
1765221195776,0.0,0.0,2.0,25.0,0.0,0.0,0.0,0.0,0.0,0.0,-0.014518,0.008784,0.9916159999999999,-0.9800000000000001,0.49000000000000005,0.0,3.3,3.31,3.3,3.28,3.28,3.29,3.29,3.31,3.31,3.31,3.31,3.3,3.28,3.3,3.29,3.3,3.31,3.3,3.3,3.3,3.31,3.31,3.31,3.3,3.33,3.3,79.7,0.0,1.0,0.0,1.0,1.0,2690750,0.0,0.0
1765221195843,0.0,0.0,2.0,25.0,0.0,0.0,0.0,0.0,0.0,0.0,-0.014518,0.008784,0.9916159999999999,-0.9800000000000001,0.49000000000000005,0.0,3.3,3.31,3.3,3.28,3.28,3.29,3.29,3.31,3.31,3.31,3.31,3.3,3.28,3.3,3.29,3.3,3.31,3.3,3.3,3.3,3.31,3.31,3.31,3.3,3.33,3.3,79.7,0.0,1.0,0.0,1.0,1.0,2690817,0.0,0.0
1765221195893,0.0,0.0,2.0,25.0,0.0,0.0,0.0,0.0,0.0,0.0,-0.017446,0.004758,0.990518,-0.9800000000000001,0.49000000000000005,0.0,3.3,3.31,3.3,3.28,3.28,3.29,3.29,3.31,3.31,3.31,3.31,3.3,3.28,3.3,3.29,3.3,3.31,3.3,3.3,3.3,3.31,3.31,3.31,3.3,3.33,3.3,79.7,0.0,1.0,0.0,1.0,1.0,2690867,0.0,0.0
1765221195927,0.0,0.0,2.0,25.0,0.0,0.0,0.0,0.0,0.0,0.0,-0.017446,0.004758,0.990518,-0.7000000000000001,0.35000000000000003,-0.07,3.3,3.31,3.3,3.28,3.28,3.29,3.29,3.31,3.31,3.31,3.31,3.3,3.28,3.3,3.29,3.3,3.31,3.3,3.3,3.3,3.31,3.31,3.31,3.3,3.33,3.3,79.7,0.0,1.0,0.0,1.0,1.0,2690901,0.0,0.0
1765221195960,0.0,0.0,2.0,25.0,0.0,0.0,0.0,0.0,0.0,0.0,-0.017446,0.004758,0.990518,-0.7000000000000001,0.35000000000000003,-0.07,3.3,3.31,3.3,3.28,3.28,3.29,3.29,3.31,3.31,3.31,3.31,3.3,3.28,3.3,3.29,3.3,3.31,3.3,3.3,3.3,3.31,3.31,3.31,3.3,3.33,3.3,79.7,0.0,1.0,0.0,1.0,1.0,2690934,0.0,0.0
1765221195976,0.0,0.0,2.0,25.0,0.0,0.0,0.0,0.0,0.0,0.0,-0.017446,0.004758,0.990518,-0.7000000000000001,0.35000000000000003,-0.07,3.3,3.31,3.3,3.28,3.28,3.29,3.29,3.31,3.31,3.31,3.31,3.3,3.28,3.3,3.29,3.3,3.31,3.3,3.3,3.3,3.31,3.31,3.31,3.3,3.33,3.3,79.7,0.0,1.0,0.0,1.0,1.0,2690950,0.0,0.0
1765221195992,0.0,0.0,2.0,25.0,0.0,0.0,0.0,0.0,0.0,0.0,-0.017446,0.004758,0.990518,-0.7000000000000001,0.35000000000000003,-0.07,3.3,3.31,3.3,3.28,3.28,3.29,3.29,3.31,3.31,3.31,3.31,3.3,3.28,3.3,3.29,3.3,3.31,3.3,3.3,3.3,3.31,3.31,3.31,3.3,3.33,3.3,79.7,0.0,1.0,0.0,1.0,1.0,2690966,0.0,0.0
1765221196009,0.0,0.0,2.0,25.0,0.0,0.0,0.0,0.0,0.0,0.0,-0.017446,0.004758,0.990518,-0.7000000000000001,0.35000000000000003,-0.07,3.3,3.31,3.3,3.28,3.28,3.29,3.29,3.31,3.31,3.31,3.31,3.3,3.28,3.3,3.29,3.3,3.31,3.3,3.3,3.3,3.31,3.31,3.31,3.3,3.33,3.3,79.7,0.0,1.0,0.0,1.0,1.0,2690983,0.0,0.0
1765221196026,0.0,0.0,2.0,25.0,0.0,0.0,0.0,0.0,0.0,0.0,-0.02196,0.0037819999999999998,0.99552,-0.7000000000000001,0.35000000000000003,-0.07,3.3,3.31,3.3,3.28,3.28,3.29,3.29,3.31,3.31,3.31,3.31,3.3,3.28,3.3,3.29,3.3,3.31,3.3,3.3,3.3,3.31,3.31,3.31,3.3,3.33,3.3,79.7,0.0,1.0,0.0,1.0,1.0,2691000,0.0,0.0
1765221196044,0.0,0.0,2.0,25.0,0.0,0.0,0.0,0.0,0.0,0.0,-0.02196,0.0037819999999999998,0.99552,-0.7000000000000001,0.35000000000000003,-0.07,3.3,3.31,3.3,3.28,3.28,3.29,3.29,3.31,3.31,3.31,3.31,3.3,3.28,3.3,3.29,3.3,3.31,3.3,3.3,3.3,3.31,3.31,3.31,3.3,3.33,3.3,79.7,0.0,1.0,0.0,1.0,1.0,2691018,0.0,0.0
1765221196093,0.0,0.0,2.0,25.0,0.0,0.0,0.0,0.0,0.0,0.0,-0.02196,0.0037819999999999998,0.99552,-0.8400000000000001,0.49000000000000005,-0.07,3.3,3.31,3.3,3.28,3.28,3.29,3.29,3.31,3.31,3.31,3.31,3.3,3.28,3.3,3.29,3.3,3.31,3.3,3.3,3.3,3.31,3.31,3.31,3.3,3.33,3.3,79.7,0.0,1.0,0.0,1.0,1.0,2691067,0.0,0.0
1765221196109,0.0,0.0,2.0,25.0,0.0,0.0,0.0,0.0,0.0,0.0,-0.02196,0.0037819999999999998,0.99552,-0.8400000000000001,0.49000000000000005,-0.07,3.3,3.31,3.3,3.28,3.28,3.29,3.29,3.31,3.31,3.31,3.31,3.3,3.28,3.3,3.29,3.3,3.31,3.3,3.3,3.3,3.31,3.31,3.31,3.3,3.33,3.3,79.7,0.0,1.0,0.0,1.0,1.0,2691083,0.0,0.0
1765221196193,0.0,0.0,2.0,25.0,0.0,0.0,0.0,0.0,0.0,0.0,-0.019886,0.011956,0.992592,-0.8400000000000001,0.49000000000000005,-0.07,3.3,3.31,3.3,3.28,3.28,3.29,3.29,3.31,3.31,3.31,3.31,3.3,3.28,3.3,3.29,3.3,3.31,3.3,3.3,3.3,3.31,3.31,3.31,3.3,3.33,3.3,79.7,0.0,1.0,0.0,1.0,1.0,2691167,0.0,0.0
1765221196227,0.0,0.0,2.0,25.0,0.0,0.0,0.0,0.0,0.0,0.0,-0.019886,0.011956,0.992592,-0.7000000000000001,0.42000000000000004,-17.92,3.3,3.31,3.3,3.28,3.28,3.29,3.29,3.31,3.31,3.31,3.31,3.3,3.28,3.3,3.29,3.3,3.31,3.3,3.3,3.3,3.31,3.31,3.31,3.3,3.33,3.3,79.7,0.0,1.0,0.0,1.0,1.0,2691201,0.0,0.0
1765221196244,0.0,0.0,2.0,25.0,0.0,0.0,0.0,0.0,0.0,0.0,-0.019886,0.011956,0.992592,-0.7000000000000001,0.42000000000000004,-17.92,3.33,3.33,3.33,3.32,3.28,3.29,3.29,3.31,3.31,3.31,3.31,3.3,3.28,3.3,3.29,3.3,3.31,3.3,3.3,3.3,3.31,3.31,3.31,3.3,3.33,3.3,79.7,0.0,1.0,0.0,1.0,1.0,2691218,0.0,0.0
1765221196276,0.0,0.0,2.0,25.0,0.0,0.0,0.0,0.0,0.0,0.0,-0.019886,0.011956,0.992592,-0.7000000000000001,0.42000000000000004,-17.92,3.33,3.33,3.33,3.32,3.32,3.32,3.31,3.32,3.31,3.31,3.31,3.3,3.28,3.3,3.29,3.3,3.31,3.3,3.3,3.3,3.31,3.31,3.31,3.3,3.33,3.3,79.7,0.0,1.0,0.0,1.0,1.0,2691250,0.0,0.0
1765221196292,0.0,0.0,2.0,25.0,0.0,0.0,0.0,0.0,0.0,0.0,-0.019886,0.011956,0.992592,-0.7000000000000001,0.42000000000000004,-17.92,3.33,3.33,3.33,3.32,3.32,3.32,3.31,3.32,3.33,3.33,3.33,3.33,3.28,3.3,3.29,3.3,3.31,3.3,3.3,3.3,3.31,3.31,3.31,3.3,3.33,3.3,79.7,0.0,1.0,0.0,1.0,1.0,2691266,0.0,0.0
1765221196310,0.0,0.0,2.0,25.0,0.0,0.0,0.0,0.0,0.0,0.0,-0.019886,0.011956,0.992592,-0.7000000000000001,0.42000000000000004,-17.92,3.33,3.33,3.33,3.32,3.32,3.32,3.31,3.32,3.33,3.33,3.33,3.33,3.3,3.33,3.31,3.32,3.31,3.3,3.3,3.3,3.31,3.31,3.31,3.3,3.33,3.3,79.7,0.0,1.0,0.0,1.0,1.0,2691284,0.0,0.0
1765221196324,0.0,0.0,2.0,25.0,0.0,0.0,0.0,0.0,0.0,0.0,-0.019886,0.011956,0.992592,-0.7000000000000001,0.42000000000000004,-17.92,3.33,3.33,3.33,3.32,3.32,3.32,3.31,3.32,3.33,3.33,3.33,3.33,3.3,3.33,3.31,3.32,3.31,3.3,3.3,3.3,3.31,3.31,3.31,3.3,3.33,3.3,79.7,0.0,1.0,0.0,1.0,1.0,2691298,0.0,0.0
1765221196342,0.0,0.0,2.0,25.0,0.0,0.0,0.0,0.0,0.0,0.0,-0.019886,0.011956,0.992592,-0.7000000000000001,0.42000000000000004,-17.92,3.33,3.33,3.33,3.32,3.32,3.32,3.31,3.32,3.33,3.33,3.33,3.33,3.3,3.33,3.31,3.32,3.33,3.33,3.33,3.32,3.31,3.31,3.31,3.3,3.33,3.3,79.7,0.0,1.0,0.0,1.0,1.0,2691316,0.0,0.0
1765221196360,0.0,0.0,2.0,25.0,0.0,0.0,0.0,0.0,0.0,0.0,-0.019886,0.011956,0.992592,-0.7000000000000001,0.42000000000000004,-17.92,3.33,3.33,3.33,3.32,3.32,3.32,3.31,3.32,3.33,3.33,3.33,3.33,3.3,3.33,3.31,3.32,3.33,3.33,3.33,3.32,3.33,3.33,3.33,3.33,3.33,3.3,79.7,0.0,1.0,0.0,1.0,1.0,2691334,0.0,0.0
1765221196393,0.0,0.0,2.0,25.0,0.0,0.0,0.0,0.0,0.0,0.0,-0.019886,0.011956,0.992592,-0.7000000000000001,0.42000000000000004,-17.92,3.33,3.33,3.33,3.32,3.32,3.32,3.31,3.32,3.33,3.33,3.33,3.33,3.3,3.33,3.31,3.32,3.33,3.33,3.33,3.32,3.33,3.33,3.33,3.33,3.33,3.3,79.7,0.0,1.0,0.0,1.0,1.0,2691367,0.0,0.0
1765221196443,0.0,0.0,2.0,25.0,0.0,0.0,0.0,0.0,0.0,0.0,-0.019886,0.011956,0.992592,-0.7000000000000001,0.42000000000000004,-17.92,3.33,3.33,3.33,3.32,3.32,3.32,3.31,3.32,3.33,3.33,3.33,3.33,3.3,3.33,3.31,3.32,3.33,3.33,3.33,3.32,3.33,3.33,3.33,3.33,3.33,3.3,79.7,0.0,1.0,0.0,1.0,1.0,2691417,0.0,0.0
1765221196460,0.0,0.0,2.0,25.0,0.0,0.0,0.0,0.0,0.0,0.0,-0.019886,0.011956,0.992592,-0.7000000000000001,0.42000000000000004,-17.92,3.33,3.33,3.33,3.32,3.32,3.32,3.31,3.32,3.33,3.33,3.33,3.33,3.3,3.33,3.31,3.32,3.33,3.33,3.33,3.32,3.33,3.33,3.33,3.33,3.33,3.3,79.7,0.0,1.0,0.0,1.0,1.0,2691434,0.0,0.0
1765221196476,0.0,0.0,2.0,25.0,0.0,0.0,0.0,0.0,0.0,0.0,-0.019886,0.011956,0.992592,-0.7000000000000001,0.42000000000000004,-17.92,3.33,3.33,3.33,3.32,3.32,3.32,3.31,3.32,3.33,3.33,3.33,3.33,3.3,3.33,3.31,3.32,3.33,3.33,3.33,3.32,3.33,3.33,3.33,3.33,3.33,3.3,79.7,0.0,1.0,0.0,1.0,1.0,2691450,0.0,0.0
1765221196493,0.0,0.0,2.0,25.0,0.0,0.0,0.0,0.0,0.0,0.0,-0.019886,0.011956,0.992592,-0.7000000000000001,0.42000000000000004,-17.92,3.33,3.33,3.33,3.32,3.32,3.32,3.31,3.32,3.33,3.33,3.33,3.33,3.3,3.33,3.31,3.32,3.33,3.33,3.33,3.32,3.33,3.33,3.33,3.33,3.33,3.3,79.7,0.0,1.0,0.0,1.0,1.0,2691467,0.0,0.0
1765221196509,0.0,0.0,2.0,25.0,0.0,0.0,0.0,0.0,0.0,0.0,-0.019886,0.011956,0.992592,-0.7000000000000001,0.42000000000000004,-17.92,3.33,3.33,3.33,3.32,3.32,3.32,3.31,3.32,3.33,3.33,3.33,3.33,3.3,3.33,3.31,3.32,3.33,3.33,3.33,3.32,3.33,3.33,3.33,3.33,3.33,3.3,79.7,0.0,1.0,0.0,1.0,1.0,2691483,0.0,0.0
1765221196543,0.0,0.0,2.0,25.0,0.0,0.0,0.0,0.0,0.0,0.0,-0.019886,0.011956,0.992592,-0.7000000000000001,0.42000000000000004,-17.92,3.33,3.33,3.33,3.32,3.32,3.32,3.31,3.32,3.33,3.33,3.33,3.33,3.3,3.33,3.31,3.32,3.33,3.33,3.33,3.32,3.33,3.33,3.33,3.33,3.33,3.3,79.7,0.0,1.0,0.0,1.0,1.0,2691517,0.0,0.0
1765221196559,0.0,0.0,2.0,25.0,0.0,0.0,0.0,0.0,0.0,0.0,-0.019886,0.011956,0.992592,-0.7000000000000001,0.42000000000000004,-17.92,3.33,3.33,3.33,3.32,3.32,3.32,3.31,3.32,3.33,3.33,3.33,3.33,3.3,3.33,3.31,3.32,3.33,3.33,3.33,3.32,3.33,3.33,3.33,3.33,3.33,3.3,79.7,0.0,1.0,0.0,1.0,1.0,2691533,0.0,0.0
1765221196626,0.0,0.0,2.0,25.0,0.0,0.0,0.0,0.0,0.0,0.0,-0.027694,0.001098,0.99552,-0.7000000000000001,0.42000000000000004,-17.92,3.33,3.33,3.33,3.32,3.32,3.32,3.31,3.32,3.33,3.33,3.33,3.33,3.3,3.33,3.31,3.32,3.33,3.33,3.33,3.32,3.33,3.33,3.33,3.33,3.33,3.3,79.7,0.0,1.0,0.0,1.0,1.0,2691600,0.0,0.0
1765221196659,0.0,0.0,2.0,25.0,0.0,0.0,0.0,0.0,0.0,0.0,-0.027694,0.001098,0.99552,-0.77,0.49000000000000005,0.0,3.33,3.33,3.33,3.32,3.32,3.32,3.31,3.32,3.33,3.33,3.33,3.33,3.3,3.33,3.31,3.32,3.33,3.33,3.33,3.32,3.33,3.33,3.33,3.33,3.33,3.3,79.7,0.0,1.0,0.0,1.0,1.0,2691633,0.0,0.0
1765221196693,0.0,0.0,2.0,25.0,0.0,0.0,0.0,0.0,0.0,0.0,-0.027694,0.001098,0.99552,-0.77,0.49000000000000005,0.0,3.33,3.33,3.33,3.32,3.32,3.32,3.31,3.32,3.33,3.33,3.33,3.33,3.3,3.33,3.31,3.32,3.33,3.33,3.33,3.32,3.33,3.33,3.33,3.33,3.33,3.3,79.7,0.0,1.0,0.0,1.0,1.0,2691667,0.0,0.0
1765221196710,0.0,0.0,2.0,25.0,0.0,0.0,0.0,0.0,0.0,0.0,-0.027694,0.001098,0.99552,-0.77,0.49000000000000005,0.0,3.33,3.33,3.33,3.32,3.32,3.32,3.31,3.32,3.33,3.33,3.33,3.33,3.3,3.33,3.31,3.32,3.33,3.33,3.33,3.32,3.33,3.33,3.33,3.33,3.33,3.3,79.7,0.0,1.0,0.0,1.0,1.0,2691684,0.0,0.0
1765221196728,0.0,0.0,2.0,25.0,0.0,0.0,0.0,0.0,0.0,0.0,-0.027694,0.001098,0.99552,-0.77,0.49000000000000005,0.0,3.33,3.33,3.33,3.32,3.32,3.32,3.31,3.32,3.33,3.33,3.33,3.33,3.3,3.33,3.31,3.32,3.33,3.33,3.33,3.32,3.33,3.33,3.33,3.33,3.33,3.3,79.7,0.0,1.0,0.0,1.0,1.0,2691702,0.0,0.0
1765221196761,0.0,0.0,2.0,25.0,0.0,0.0,0.0,0.0,0.0,0.0,-0.021838,0.00915,0.988444,-0.77,0.49000000000000005,0.0,3.33,3.33,3.33,3.32,3.32,3.32,3.31,3.32,3.33,3.33,3.33,3.33,3.3,3.33,3.31,3.32,3.33,3.33,3.33,3.32,3.33,3.33,3.33,3.33,3.33,3.3,79.7,0.0,1.0,0.0,1.0,1.0,2691735,0.0,0.0
1765221196777,0.0,0.0,2.0,25.0,0.0,0.0,0.0,0.0,0.0,0.0,-0.021838,0.00915,0.988444,-0.77,0.49000000000000005,0.0,3.33,3.33,3.33,3.32,3.32,3.32,3.31,3.32,3.33,3.33,3.33,3.33,3.3,3.33,3.31,3.32,3.33,3.33,3.33,3.32,3.33,3.33,3.33,3.33,3.33,3.3,79.7,0.0,1.0,0.0,1.0,1.0,2691751,0.0,0.0
1765221196826,0.0,0.0,2.0,25.0,0.0,0.0,0.0,0.0,0.0,0.0,-0.021838,0.00915,0.988444,-0.7000000000000001,0.42000000000000004,0.0,3.33,3.33,3.33,3.32,3.32,3.32,3.31,3.32,3.33,3.33,3.33,3.33,3.3,3.33,3.31,3.32,3.33,3.33,3.33,3.32,3.33,3.33,3.33,3.33,3.33,3.3,79.7,0.0,1.0,0.0,1.0,1.0,2691800,0.0,0.0
1765221196843,0.0,0.0,2.0,25.0,0.0,0.0,0.0,0.0,0.0,0.0,-0.021838,0.00915,0.988444,-0.7000000000000001,0.42000000000000004,0.0,3.33,3.33,3.33,3.32,3.32,3.32,3.31,3.32,3.33,3.33,3.33,3.33,3.3,3.33,3.31,3.32,3.33,3.33,3.33,3.32,3.33,3.33,3.33,3.33,3.33,3.3,79.7,0.0,1.0,0.0,1.0,1.0,2691817,0.0,0.0
1765221196925,0.0,0.0,2.0,25.0,0.0,0.0,0.0,0.0,0.0,0.0,-0.015127999999999999,0.010735999999999999,0.992592,-0.7000000000000001,0.42000000000000004,0.0,3.33,3.33,3.33,3.32,3.32,3.32,3.31,3.32,3.33,3.33,3.33,3.33,3.3,3.33,3.31,3.32,3.33,3.33,3.33,3.32,3.33,3.33,3.33,3.33,3.33,3.3,79.7,0.0,1.0,0.0,1.0,1.0,2691899,0.0,0.0
1765221196942,0.0,0.0,2.0,25.0,0.0,0.0,0.0,0.0,0.0,0.0,-0.015127999999999999,0.010735999999999999,0.992592,-0.7000000000000001,0.35000000000000003,-0.07,3.33,3.33,3.33,3.32,3.32,3.32,3.31,3.32,3.33,3.33,3.33,3.33,3.3,3.33,3.31,3.32,3.33,3.33,3.33,3.32,3.33,3.33,3.33,3.33,3.33,3.3,79.7,0.0,1.0,0.0,1.0,1.0,2691916,0.0,0.0
1765221196976,0.0,0.0,2.0,25.0,0.0,0.0,0.0,0.0,0.0,0.0,-0.015127999999999999,0.010735999999999999,0.992592,-0.7000000000000001,0.35000000000000003,-0.07,3.33,3.33,3.33,3.32,3.32,3.32,3.31,3.32,3.33,3.33,3.33,3.33,3.3,3.33,3.31,3.32,3.33,3.33,3.33,3.32,3.33,3.33,3.33,3.33,3.33,3.3,79.7,0.0,1.0,0.0,1.0,1.0,2691950,0.0,0.0
1765221197010,0.0,0.0,2.0,25.0,0.0,0.0,0.0,0.0,0.0,0.0,-0.015127999999999999,0.010735999999999999,0.992592,-0.7000000000000001,0.35000000000000003,-0.07,3.33,3.33,3.33,3.32,3.32,3.32,3.31,3.32,3.33,3.33,3.33,3.33,3.3,3.33,3.31,3.32,3.33,3.33,3.33,3.32,3.33,3.33,3.33,3.33,3.33,3.3,79.7,0.0,1.0,0.0,1.0,1.0,2691984,0.0,0.0
1765221197029,0.0,0.0,2.0,25.0,0.0,0.0,0.0,0.0,0.0,0.0,-0.015127999999999999,0.010735999999999999,0.992592,-0.7000000000000001,0.35000000000000003,-0.07,3.33,3.33,3.33,3.32,3.32,3.32,3.31,3.32,3.33,3.33,3.33,3.33,3.3,3.33,3.31,3.32,3.33,3.33,3.33,3.32,3.33,3.33,3.33,3.33,3.33,3.3,79.7,0.0,1.0,0.0,1.0,1.0,2692003,0.0,0.0
1765221197059,0.0,0.0,2.0,25.0,0.0,0.0,0.0,0.0,0.0,0.0,-0.022082,0.00793,0.980148,-0.7000000000000001,0.35000000000000003,-0.07,3.33,3.33,3.33,3.32,3.32,3.32,3.31,3.32,3.33,3.33,3.33,3.33,3.3,3.33,3.31,3.32,3.33,3.33,3.33,3.32,3.33,3.33,3.33,3.33,3.33,3.3,79.7,0.0,1.0,0.0,1.0,1.0,2692033,0.0,0.0
1765221197094,0.0,0.0,2.0,25.0,0.0,0.0,0.0,0.0,0.0,0.0,-0.022082,0.00793,0.980148,-0.6300000000000001,0.56,-0.07,3.33,3.33,3.33,3.32,3.32,3.32,3.31,3.32,3.33,3.33,3.33,3.33,3.3,3.33,3.31,3.32,3.33,3.33,3.33,3.32,3.33,3.33,3.33,3.33,3.33,3.3,79.7,0.0,1.0,0.0,1.0,1.0,2692068,0.0,0.0
1765221197111,0.0,0.0,2.0,25.0,0.0,0.0,0.0,0.0,0.0,0.0,-0.022082,0.00793,0.980148,-0.6300000000000001,0.56,-0.07,3.33,3.33,3.33,3.32,3.32,3.32,3.31,3.32,3.33,3.33,3.33,3.33,3.3,3.33,3.31,3.32,3.33,3.33,3.33,3.32,3.33,3.33,3.33,3.33,3.33,3.3,79.7,0.0,1.0,0.0,1.0,1.0,2692085,0.0,0.0
1765221197126,0.0,0.0,2.0,25.0,0.0,0.0,0.0,0.0,0.0,0.0,-0.022082,0.00793,0.980148,-0.6300000000000001,0.56,-0.07,3.33,3.33,3.33,3.32,3.32,3.32,3.31,3.32,3.33,3.33,3.33,3.33,3.3,3.33,3.31,3.32,3.33,3.33,3.33,3.32,3.33,3.33,3.33,3.33,3.33,3.3,79.7,0.0,1.0,0.0,1.0,1.0,2692100,0.0,0.0
1765221197145,0.0,0.0,2.0,25.0,0.0,0.0,0.0,0.0,0.0,0.0,-0.022082,0.00793,0.980148,-0.6300000000000001,0.56,-0.07,3.33,3.33,3.33,3.32,3.32,3.32,3.31,3.32,3.33,3.33,3.33,3.33,3.3,3.33,3.31,3.32,3.33,3.33,3.33,3.32,3.33,3.33,3.33,3.33,3.33,3.3,79.7,0.0,1.0,0.0,1.0,1.0,2692119,0.0,0.0
1765221197160,0.0,0.0,2.0,25.0,0.0,0.0,0.0,0.0,0.0,0.0,-0.022082,0.00793,0.980148,-0.6300000000000001,0.56,-0.07,3.33,3.33,3.33,3.32,3.32,3.32,3.31,3.32,3.33,3.33,3.33,3.33,3.3,3.33,3.31,3.32,3.33,3.33,3.33,3.32,3.33,3.33,3.33,3.33,3.33,3.3,79.7,0.0,1.0,0.0,1.0,1.0,2692134,0.0,0.0
1765221197192,0.0,0.0,2.0,25.0,0.0,0.0,0.0,0.0,0.0,0.0,-0.022082,0.00793,0.980148,-0.6300000000000001,0.56,-0.07,3.33,3.33,3.33,3.32,3.32,3.32,3.31,3.32,3.33,3.33,3.33,3.33,3.3,3.33,3.31,3.32,3.33,3.33,3.33,3.32,3.33,3.33,3.33,3.33,3.33,3.3,79.7,0.0,1.0,0.0,1.0,1.0,2692166,0.0,0.0
1765221197242,0.0,0.0,2.0,25.0,0.0,0.0,0.0,0.0,0.0,0.0,-0.022082,0.00793,0.980148,-0.6300000000000001,0.56,-0.07,3.33,3.33,3.33,3.32,3.32,3.32,3.31,3.32,3.33,3.33,3.33,3.33,3.3,3.33,3.31,3.32,3.33,3.33,3.33,3.32,3.33,3.33,3.33,3.33,3.33,3.3,79.7,0.0,1.0,0.0,1.0,1.0,2692216,0.0,0.0
1765221197292,0.0,0.0,2.0,25.0,0.0,0.0,0.0,0.0,0.0,0.0,-0.022082,0.00793,0.980148,-0.6300000000000001,0.56,-0.07,3.33,3.33,3.33,3.32,3.32,3.32,3.31,3.32,3.33,3.33,3.33,3.33,3.3,3.33,3.31,3.32,3.33,3.33,3.33,3.32,3.33,3.33,3.33,3.33,3.33,3.3,79.7,2.0,1.0,0.0,1.0,1.0,2692266,0.0,0.0
1765221197326,0.0,0.0,2.0,25.0,0.0,0.0,0.0,0.0,0.0,0.0,-0.022082,0.00793,0.980148,-0.6300000000000001,0.56,-0.07,3.33,3.33,3.33,3.32,3.32,3.32,3.31,3.32,3.33,3.33,3.33,3.33,3.3,3.33,3.31,3.32,3.33,3.33,3.33,3.32,3.33,3.33,3.33,3.33,3.33,3.3,79.7,2.0,1.0,0.0,1.0,1.0,2692300,0.0,0.0
1765221197342,0.0,0.0,2.0,25.0,0.0,0.0,0.0,0.0,0.0,0.0,-0.02318,0.0057339999999999995,1.003084,-0.7000000000000001,-0.07,0.07,3.33,3.33,3.33,3.32,3.32,3.32,3.31,3.32,3.33,3.33,3.33,3.33,3.3,3.33,3.31,3.32,3.33,3.33,3.33,3.32,3.33,3.33,3.33,3.33,3.33,3.3,79.7,2.0,1.0,0.0,1.0,1.0,2692316,0.0,0.0
1765221197392,0.0,0.0,2.0,25.0,0.0,0.0,0.0,0.0,0.0,0.0,-0.02867,0.008662,0.986858,-0.7000000000000001,-0.07,0.07,3.33,3.33,3.33,3.32,3.32,3.32,3.31,3.32,3.33,3.33,3.33,3.33,3.3,3.33,3.31,3.32,3.33,3.33,3.33,3.32,3.33,3.33,3.33,3.33,3.33,3.3,79.7,2.0,1.0,0.0,1.0,1.0,2692366,0.0,0.0
1765221197409,0.0,0.0,2.0,25.0,0.0,0.0,0.0,0.0,0.0,0.0,-0.02867,0.008662,0.986858,-0.7000000000000001,-0.07,0.07,3.33,3.33,3.33,3.32,3.32,3.32,3.31,3.32,3.33,3.33,3.33,3.33,3.3,3.33,3.31,3.32,3.33,3.33,3.33,3.32,3.33,3.33,3.33,3.33,3.33,3.3,79.7,2.0,1.0,0.0,1.0,1.0,2692383,0.0,0.0
1765221197425,0.0,0.0,2.0,25.0,0.0,0.0,0.0,0.0,0.0,0.0,-0.02867,0.008662,0.986858,-0.7000000000000001,-0.07,0.07,3.33,3.33,3.33,3.32,3.32,3.32,3.31,3.32,3.33,3.33,3.33,3.33,3.3,3.33,3.31,3.32,3.33,3.33,3.33,3.32,3.33,3.33,3.33,3.33,3.33,3.3,79.7,2.0,1.0,0.0,1.0,1.0,2692399,0.0,0.0
1765221197443,0.0,0.0,2.0,25.0,0.0,0.0,0.0,0.0,0.0,0.0,-0.02867,0.008662,0.986858,-0.42000000000000004,0.6300000000000001,-0.14,3.33,3.33,3.33,3.32,3.32,3.32,3.31,3.32,3.33,3.33,3.33,3.33,3.3,3.33,3.31,3.32,3.33,3.33,3.33,3.32,3.33,3.33,3.33,3.33,3.33,3.3,79.7,2.0,1.0,0.0,1.0,1.0,2692417,0.0,0.0
1765221197459,0.0,0.0,2.0,25.0,0.0,0.0,0.0,0.0,0.0,0.0,-0.02867,0.008662,0.986858,-0.42000000000000004,0.6300000000000001,-0.14,3.33,3.33,3.33,3.32,3.32,3.32,3.31,3.32,3.33,3.33,3.33,3.33,3.3,3.33,3.31,3.32,3.33,3.33,3.33,3.32,3.33,3.33,3.33,3.33,3.33,3.3,79.7,2.0,1.0,0.0,1.0,1.0,2692433,0.0,0.0
1765221197493,0.0,0.0,2.0,25.0,0.0,0.0,0.0,0.0,0.0,0.0,-0.02867,0.008662,0.986858,-0.42000000000000004,0.6300000000000001,-0.14,3.33,3.33,3.33,3.32,3.32,3.32,3.31,3.32,3.33,3.33,3.33,3.33,3.3,3.33,3.31,3.32,3.33,3.33,3.33,3.32,3.33,3.33,3.33,3.33,3.33,3.3,79.7,2.0,1.0,0.0,1.0,1.0,2692467,0.0,0.0
1765221197543,0.0,0.0,2.0,25.0,0.0,0.0,0.0,0.0,0.0,0.0,-0.02867,0.008662,0.986858,-0.42000000000000004,0.6300000000000001,-0.14,3.33,3.33,3.33,3.32,3.32,3.32,3.31,3.32,3.33,3.33,3.33,3.33,3.3,3.33,3.31,3.32,3.33,3.33,3.33,3.32,3.33,3.33,3.33,3.33,3.33,3.3,79.7,2.0,1.0,0.0,1.0,1.0,2692517,0.0,0.0
1765221197627,0.0,0.0,2.0,25.0,0.0,0.0,0.0,0.0,0.0,0.0,-0.028914,0.003294,0.988444,-0.8400000000000001,0.28,0.0,3.33,3.33,3.33,3.32,3.32,3.32,3.31,3.32,3.33,3.33,3.33,3.33,3.3,3.33,3.31,3.32,3.33,3.33,3.33,3.32,3.33,3.33,3.33,3.33,3.33,3.3,79.7,2.0,1.0,0.0,1.0,1.0,2692601,0.0,0.0
1765221197759,0.0,0.0,2.0,25.0,0.0,0.0,0.0,0.0,0.0,0.0,-0.021228,0.005978,0.99064,-0.8400000000000001,0.28,0.0,3.33,3.33,3.33,3.32,3.32,3.32,3.31,3.32,3.33,3.33,3.33,3.33,3.3,3.33,3.31,3.32,3.33,3.33,3.33,3.32,3.33,3.33,3.33,3.33,3.33,3.3,79.7,2.0,1.0,0.0,1.0,1.0,2692733,0.0,0.0
1765221197776,0.0,0.0,2.0,25.0,0.0,0.0,0.0,0.0,0.0,0.0,-0.021228,0.005978,0.99064,-0.7000000000000001,0.42000000000000004,0.0,3.33,3.33,3.33,3.32,3.32,3.32,3.31,3.32,3.33,3.33,3.33,3.33,3.3,3.33,3.31,3.32,3.33,3.33,3.33,3.32,3.33,3.33,3.33,3.33,3.33,3.3,79.7,2.0,1.0,0.0,1.0,1.0,2692750,0.0,0.0
1765221197827,0.0,0.0,2.0,25.0,0.0,0.0,0.0,0.0,0.0,0.0,-0.021228,0.005978,0.99064,-0.7000000000000001,0.42000000000000004,0.0,3.33,3.33,3.33,3.32,3.32,3.32,3.31,3.32,3.33,3.33,3.33,3.33,3.3,3.33,3.31,3.32,3.33,3.33,3.33,3.32,3.33,3.33,3.33,3.33,3.33,3.3,79.7,2.0,1.0,0.0,1.0,1.0,2692801,0.0,0.0
1765221197843,0.0,0.0,2.0,25.0,0.0,0.0,0.0,0.0,0.0,0.0,-0.021228,0.005978,0.99064,-0.7000000000000001,0.42000000000000004,0.0,3.33,3.33,3.33,3.32,3.32,3.32,3.31,3.32,3.33,3.33,3.33,3.33,3.3,3.33,3.31,3.32,3.33,3.33,3.33,3.32,3.33,3.33,3.33,3.33,3.33,3.3,79.7,2.0,1.0,0.0,1.0,1.0,2692817,0.0,0.0
1765221197860,0.0,0.0,2.0,25.0,0.0,0.0,0.0,0.0,0.0,0.0,-0.021228,0.005978,0.99064,-0.7000000000000001,0.42000000000000004,0.0,3.33,3.33,3.33,3.32,3.32,3.32,3.31,3.32,3.33,3.33,3.33,3.33,3.3,3.33,3.31,3.32,3.33,3.33,3.33,3.32,3.33,3.33,3.33,3.33,3.33,3.3,79.7,2.0,1.0,0.0,1.0,1.0,2692834,0.0,0.0
1765221197893,0.0,0.0,2.0,25.0,0.0,0.0,0.0,0.0,0.0,0.0,-0.021228,0.005978,0.99064,-0.7000000000000001,0.42000000000000004,0.0,3.33,3.33,3.33,3.32,3.32,3.32,3.31,3.32,3.33,3.33,3.33,3.33,3.3,3.33,3.31,3.32,3.33,3.33,3.33,3.32,3.33,3.33,3.33,3.33,3.33,3.3,79.7,2.0,1.0,0.0,1.0,1.0,2692867,0.0,0.0
1765221197941,0.0,0.0,2.0,25.0,0.0,0.0,0.0,0.0,0.0,0.0,-0.021228,0.005978,0.99064,-0.7000000000000001,0.42000000000000004,0.0,3.33,3.33,3.33,3.32,3.32,3.32,3.31,3.32,3.33,3.33,3.33,3.33,3.3,3.33,3.31,3.32,3.33,3.33,3.33,3.32,3.33,3.33,3.33,3.33,3.33,3.3,79.7,2.0,1.0,0.0,1.0,1.0,2692915,0.0,0.0
1765221197959,0.0,0.0,2.0,25.0,0.0,0.0,0.0,0.0,0.0,0.0,-0.022935999999999998,0.009028,0.9946659999999999,-0.7000000000000001,0.42000000000000004,0.0,3.33,3.33,3.33,3.32,3.32,3.32,3.31,3.32,3.33,3.33,3.33,3.33,3.3,3.33,3.31,3.32,3.33,3.33,3.33,3.32,3.33,3.33,3.33,3.33,3.33,3.3,79.7,2.0,1.0,0.0,1.0,1.0,2692933,0.0,0.0
1765221198009,0.0,0.0,2.0,25.0,0.0,0.0,0.0,0.0,0.0,0.0,-0.022935999999999998,0.009028,0.9946659999999999,-0.77,0.49000000000000005,-0.07,3.33,3.33,3.33,3.32,3.32,3.32,3.31,3.32,3.33,3.33,3.33,3.33,3.3,3.33,3.31,3.32,3.33,3.33,3.33,3.32,3.33,3.33,3.33,3.33,3.33,3.3,79.7,2.0,1.0,0.0,1.0,1.0,2692983,0.0,0.0
1765221198028,0.0,0.0,2.0,25.0,0.0,0.0,0.0,0.0,0.0,0.0,-0.022935999999999998,0.009028,0.9946659999999999,-0.77,0.49000000000000005,-0.07,3.33,3.33,3.33,3.32,3.32,3.32,3.31,3.32,3.33,3.33,3.33,3.33,3.3,3.33,3.31,3.32,3.33,3.33,3.33,3.32,3.33,3.33,3.33,3.33,3.33,3.3,79.7,2.0,1.0,0.0,1.0,1.0,2693002,0.0,0.0
1765221198041,0.0,0.0,2.0,25.0,0.0,0.0,0.0,0.0,0.0,0.0,-0.022935999999999998,0.009028,0.9946659999999999,-0.77,0.49000000000000005,-0.07,3.33,3.33,3.33,3.32,3.32,3.32,3.31,3.32,3.33,3.33,3.33,3.33,3.3,3.33,3.31,3.32,3.33,3.33,3.33,3.32,3.33,3.33,3.33,3.33,3.33,3.3,79.7,2.0,1.0,0.0,1.0,1.0,2693015,0.0,0.0
1765221198076,0.0,0.0,2.0,25.0,0.0,0.0,0.0,0.0,0.0,0.0,-0.022935999999999998,0.009028,0.9946659999999999,-0.77,0.49000000000000005,-0.07,3.33,3.33,3.33,3.32,3.32,3.32,3.31,3.32,3.33,3.33,3.33,3.33,3.3,3.33,3.31,3.32,3.33,3.33,3.33,3.32,3.33,3.33,3.33,3.33,3.33,3.3,79.7,2.0,1.0,0.0,1.0,1.0,2693050,0.0,0.0
1765221198093,0.0,0.0,2.0,25.0,0.0,0.0,0.0,0.0,0.0,0.0,-0.022935999999999998,0.009028,0.9946659999999999,-0.77,0.49000000000000005,-0.07,3.33,3.33,3.33,3.32,3.32,3.32,3.31,3.32,3.33,3.33,3.33,3.33,3.3,3.33,3.31,3.32,3.33,3.33,3.33,3.32,3.33,3.33,3.33,3.33,3.33,3.3,79.7,2.0,1.0,0.0,1.0,1.0,2693067,0.0,0.0
1765221198109,0.0,0.0,2.0,25.0,0.0,0.0,0.0,0.0,0.0,0.0,-0.022935999999999998,0.009028,0.9946659999999999,-0.77,0.49000000000000005,-0.07,3.33,3.33,3.33,3.32,3.32,3.32,3.31,3.32,3.33,3.33,3.33,3.33,3.3,3.33,3.31,3.32,3.33,3.33,3.33,3.32,3.33,3.33,3.33,3.33,3.33,3.3,79.7,2.0,1.0,0.0,1.0,1.0,2693083,0.0,0.0
1765221198142,0.0,0.0,2.0,25.0,0.0,0.0,0.0,0.0,0.0,0.0,-0.022935999999999998,0.009028,0.9946659999999999,-0.77,0.49000000000000005,-0.07,3.33,3.33,3.33,3.32,3.32,3.32,3.31,3.32,3.33,3.33,3.33,3.33,3.3,3.33,3.31,3.32,3.33,3.33,3.33,3.32,3.33,3.33,3.33,3.33,3.33,3.3,79.7,2.0,1.0,0.0,1.0,1.0,2693116,0.0,0.0
1765221198159,0.0,0.0,2.0,25.0,0.0,0.0,0.0,0.0,0.0,0.0,-0.022935999999999998,0.009028,0.9946659999999999,-0.77,0.49000000000000005,-0.07,3.33,3.33,3.33,3.32,3.32,3.32,3.31,3.32,3.33,3.33,3.33,3.33,3.3,3.33,3.31,3.32,3.33,3.33,3.33,3.32,3.33,3.33,3.33,3.33,3.33,3.3,79.7,2.0,1.0,0.0,1.0,1.0,2693133,0.0,0.0
1765221198177,0.0,0.0,2.0,25.0,0.0,0.0,0.0,0.0,0.0,0.0,-0.022935999999999998,0.009028,0.9946659999999999,-0.77,0.49000000000000005,-0.07,3.33,3.33,3.33,3.32,3.32,3.32,3.31,3.32,3.33,3.33,3.33,3.33,3.3,3.33,3.31,3.32,3.33,3.33,3.33,3.32,3.33,3.33,3.33,3.33,3.33,3.3,79.7,2.0,1.0,0.0,1.0,1.0,2693151,0.0,0.0
1765221198194,0.0,0.0,2.0,25.0,0.0,0.0,0.0,0.0,0.0,0.0,-0.022935999999999998,0.00488,0.990518,-0.77,0.49000000000000005,-0.07,3.33,3.33,3.33,3.32,3.32,3.32,3.31,3.32,3.33,3.33,3.33,3.33,3.3,3.33,3.31,3.32,3.33,3.33,3.33,3.32,3.33,3.33,3.33,3.33,3.33,3.3,79.7,2.0,1.0,0.0,1.0,1.0,2693168,0.0,0.0
1765221198209,0.0,0.0,2.0,25.0,0.0,0.0,0.0,0.0,0.0,0.0,-0.022935999999999998,0.00488,0.990518,-0.77,0.49000000000000005,-0.07,3.33,3.33,3.33,3.32,3.32,3.32,3.31,3.32,3.33,3.33,3.33,3.33,3.3,3.33,3.31,3.32,3.33,3.33,3.33,3.32,3.33,3.33,3.33,3.33,3.33,3.3,79.7,2.0,1.0,0.0,1.0,1.0,2693183,0.0,0.0
1765221198260,0.0,0.0,2.0,25.0,0.0,0.0,0.0,0.0,0.0,0.0,-0.022935999999999998,0.00488,0.990518,-0.7000000000000001,0.35000000000000003,0.0,3.33,3.33,3.33,3.32,3.32,3.32,3.31,3.32,3.33,3.33,3.33,3.33,3.3,3.33,3.31,3.32,3.33,3.33,3.33,3.32,3.33,3.33,3.33,3.33,3.33,3.3,79.7,2.0,1.0,0.0,1.0,1.0,2693234,0.0,0.0
1765221198277,0.0,0.0,2.0,25.0,0.0,0.0,0.0,0.0,0.0,0.0,-0.022935999999999998,0.00488,0.990518,-0.7000000000000001,0.35000000000000003,0.0,3.33,3.33,3.33,3.32,3.32,3.32,3.31,3.32,3.33,3.33,3.33,3.33,3.3,3.33,3.31,3.32,3.33,3.33,3.33,3.32,3.33,3.33,3.33,3.33,3.33,3.3,79.7,2.0,1.0,0.0,1.0,1.0,2693251,0.0,0.0
1765221198309,0.0,0.0,2.0,25.0,0.0,0.0,0.0,0.0,0.0,0.0,-0.022935999999999998,0.00488,0.990518,-0.7000000000000001,0.35000000000000003,0.0,3.33,3.33,3.33,3.32,3.32,3.32,3.31,3.32,3.33,3.33,3.33,3.33,3.3,3.33,3.31,3.32,3.33,3.33,3.33,3.32,3.33,3.33,3.33,3.33,3.33,3.3,79.7,2.0,1.0,0.0,1.0,1.0,2693283,0.0,0.0
1765221198326,0.0,0.0,2.0,25.0,0.0,0.0,0.0,0.0,0.0,0.0,-0.022935999999999998,0.00488,0.990518,-0.7000000000000001,0.35000000000000003,0.0,3.33,3.33,3.33,3.32,3.32,3.32,3.31,3.32,3.33,3.33,3.33,3.33,3.3,3.33,3.31,3.32,3.33,3.33,3.33,3.32,3.33,3.33,3.33,3.33,3.33,3.3,79.7,2.0,1.0,0.0,1.0,1.0,2693300,0.0,0.0
1765221198342,0.0,0.0,2.0,25.0,0.0,0.0,0.0,0.0,0.0,0.0,-0.022935999999999998,0.00488,0.990518,-0.7000000000000001,0.35000000000000003,0.0,3.33,3.33,3.33,3.32,3.32,3.32,3.31,3.32,3.33,3.33,3.33,3.33,3.3,3.33,3.31,3.32,3.33,3.33,3.33,3.32,3.33,3.33,3.33,3.33,3.33,3.3,79.7,2.0,1.0,0.0,1.0,1.0,2693316,0.0,0.0
1765221198393,0.0,0.0,2.0,25.0,0.0,0.0,0.0,0.0,0.0,0.0,-0.022935999999999998,0.00488,0.990518,-0.7000000000000001,0.35000000000000003,0.0,3.33,3.33,3.33,3.32,3.32,3.32,3.31,3.32,3.33,3.33,3.33,3.33,3.3,3.33,3.31,3.32,3.33,3.33,3.33,3.32,3.33,3.33,3.33,3.33,3.33,3.3,79.7,2.0,1.0,0.0,1.0,1.0,2693367,0.0,0.0
1765221198410,0.0,0.0,2.0,25.0,0.0,0.0,0.0,0.0,0.0,0.0,-0.022448,0.00366,0.9871019999999999,-0.7000000000000001,0.35000000000000003,0.0,3.33,3.33,3.33,3.32,3.32,3.32,3.31,3.32,3.33,3.33,3.33,3.33,3.3,3.33,3.31,3.32,3.33,3.33,3.33,3.32,3.33,3.33,3.33,3.33,3.33,3.3,79.7,2.0,1.0,0.0,1.0,1.0,2693384,0.0,0.0
1765221198459,0.0,0.0,2.0,25.0,0.0,0.0,0.0,0.0,0.0,0.0,-0.022448,0.00366,0.9871019999999999,-0.7000000000000001,0.49000000000000005,0.0,3.33,3.33,3.33,3.32,3.32,3.32,3.31,3.32,3.33,3.33,3.33,3.33,3.3,3.33,3.31,3.32,3.33,3.33,3.33,3.32,3.33,3.33,3.33,3.33,3.33,3.3,79.7,2.0,1.0,0.0,1.0,1.0,2693433,0.0,0.0
1765221198526,0.0,0.0,2.0,25.0,0.0,0.0,0.0,0.0,0.0,0.0,-0.027206,0.010248,1.002352,-0.6300000000000001,0.42000000000000004,0.0,3.33,3.33,3.33,3.32,3.32,3.32,3.31,3.32,3.33,3.33,3.33,3.33,3.3,3.33,3.31,3.32,3.33,3.33,3.33,3.32,3.33,3.33,3.33,3.33,3.33,3.3,79.7,2.0,1.0,0.0,1.0,1.0,2693500,0.0,0.0
1765221198559,0.0,0.0,2.0,25.0,0.0,0.0,0.0,0.0,0.0,0.0,-0.027206,0.010248,1.002352,-0.6300000000000001,0.42000000000000004,0.0,3.33,3.33,3.33,3.32,3.32,3.32,3.31,3.32,3.33,3.33,3.33,3.33,3.3,3.33,3.31,3.32,3.33,3.33,3.33,3.32,3.33,3.33,3.33,3.33,3.33,3.3,79.7,2.0,1.0,0.0,1.0,1.0,2693533,0.0,0.0
1765221198575,0.0,0.0,2.0,25.0,0.0,0.0,0.0,0.0,0.0,0.0,-0.027206,0.010248,1.002352,-0.6300000000000001,0.42000000000000004,0.0,3.33,3.33,3.33,3.32,3.32,3.32,3.31,3.32,3.33,3.33,3.33,3.33,3.3,3.33,3.31,3.32,3.33,3.33,3.33,3.32,3.33,3.33,3.33,3.33,3.33,3.3,79.7,2.0,1.0,0.0,1.0,1.0,2693549,0.0,0.0
1765221198592,0.0,0.0,2.0,25.0,0.0,0.0,0.0,0.0,0.0,0.0,-0.027206,0.010248,1.002352,-0.6300000000000001,0.42000000000000004,0.0,3.33,3.33,3.33,3.32,3.32,3.32,3.31,3.32,3.33,3.33,3.33,3.33,3.3,3.33,3.31,3.32,3.33,3.33,3.33,3.32,3.33,3.33,3.33,3.33,3.33,3.3,79.7,2.0,1.0,0.0,1.0,1.0,2693566,0.0,0.0
1765221198608,0.0,0.0,2.0,25.0,0.0,0.0,0.0,0.0,0.0,0.0,-0.027206,0.010248,1.002352,-0.6300000000000001,0.42000000000000004,0.0,3.33,3.33,3.33,3.32,3.32,3.32,3.31,3.32,3.33,3.33,3.33,3.33,3.3,3.33,3.31,3.32,3.33,3.33,3.33,3.32,3.33,3.33,3.33,3.33,3.33,3.3,79.7,2.0,1.0,0.0,1.0,1.0,2693582,0.0,0.0
1765221198780,0.0,0.0,2.0,25.0,0.0,0.0,0.0,0.0,0.0,0.0,-0.027206,0.010248,1.002352,-0.6300000000000001,0.42000000000000004,0.0,3.33,3.33,3.33,3.32,3.32,3.32,3.31,3.32,3.33,3.33,3.33,3.33,3.3,3.33,3.31,3.32,3.33,3.33,3.33,3.32,3.33,3.33,3.33,3.33,3.33,3.3,79.7,2.0,1.0,0.0,1.0,1.0,2693754,0.0,0.0
1765221198783,0.0,0.0,2.0,25.0,0.0,0.0,0.0,0.0,0.0,0.0,-0.023546,0.004392,0.988322,-0.77,0.56,-0.07,3.33,3.33,3.33,3.32,3.32,3.32,3.31,3.32,3.33,3.33,3.33,3.33,3.3,3.33,3.31,3.32,3.33,3.33,3.33,3.32,3.33,3.33,3.33,3.33,3.33,3.3,79.7,2.0,1.0,0.0,1.0,1.0,2693757,0.0,0.0
1765221198808,0.0,0.0,2.0,25.0,0.0,0.0,0.0,0.0,0.0,0.0,-0.023546,0.004392,0.988322,-0.77,0.56,-0.07,3.33,3.33,3.33,3.32,3.32,3.32,3.31,3.32,3.33,3.33,3.33,3.33,3.3,3.33,3.31,3.32,3.33,3.33,3.33,3.32,3.33,3.33,3.33,3.33,3.33,3.3,79.7,1.0,1.0,0.0,1.0,1.0,2693782,0.0,0.0
1765221198826,0.0,0.0,2.0,25.0,0.0,0.0,0.0,0.0,0.0,0.0,-0.023546,0.004392,0.988322,-0.77,0.56,-0.07,3.33,3.33,3.33,3.32,3.32,3.32,3.31,3.32,3.33,3.33,3.33,3.33,3.3,3.33,3.31,3.32,3.33,3.33,3.33,3.32,3.33,3.33,3.33,3.33,3.33,3.3,79.7,1.0,1.0,0.0,1.0,1.0,2693800,0.0,0.0
1765221198859,0.0,0.0,2.0,25.0,0.0,0.0,0.0,0.0,0.0,0.0,-0.021471999999999998,0.0037819999999999998,0.990884,-0.77,0.56,-0.07,3.33,3.33,3.33,3.32,3.32,3.32,3.31,3.32,3.33,3.33,3.33,3.33,3.3,3.33,3.31,3.32,3.33,3.33,3.33,3.32,3.33,3.33,3.33,3.33,3.33,3.3,79.7,1.0,1.0,0.0,1.0,1.0,2693833,0.0,0.0
1765221198876,0.0,0.0,2.0,25.0,0.0,0.0,0.0,0.0,0.0,0.0,-0.021471999999999998,0.0037819999999999998,0.990884,-0.77,0.56,-0.07,3.33,3.33,3.33,3.32,3.32,3.32,3.31,3.32,3.33,3.33,3.33,3.33,3.3,3.33,3.31,3.32,3.33,3.33,3.33,3.32,3.33,3.33,3.33,3.33,3.33,3.3,79.7,1.0,1.0,0.0,1.0,1.0,2693850,0.0,0.0
1765221198891,0.0,0.0,2.0,25.0,0.0,0.0,0.0,0.0,0.0,0.0,-0.021471999999999998,0.0037819999999999998,0.990884,-0.77,0.56,-0.07,3.33,3.33,3.33,3.32,3.32,3.32,3.31,3.32,3.33,3.33,3.33,3.33,3.3,3.33,3.31,3.32,3.33,3.33,3.33,3.32,3.33,3.33,3.33,3.33,3.33,3.3,79.7,1.0,1.0,0.0,1.0,1.0,2693865,0.0,0.0
1765221198908,0.0,0.0,2.0,25.0,0.0,0.0,0.0,0.0,0.0,0.0,-0.021471999999999998,0.0037819999999999998,0.990884,-0.77,0.56,-0.07,3.33,3.33,3.33,3.32,3.32,3.32,3.31,3.32,3.33,3.33,3.33,3.33,3.3,3.33,3.31,3.32,3.33,3.33,3.33,3.32,3.33,3.33,3.33,3.33,3.33,3.3,79.7,1.0,1.0,0.0,1.0,1.0,2693882,0.0,0.0
1765221198924,0.0,0.0,2.0,25.0,0.0,0.0,0.0,0.0,0.0,0.0,-0.021471999999999998,0.0037819999999999998,0.990884,-0.7000000000000001,0.42000000000000004,0.07,3.33,3.33,3.33,3.32,3.32,3.32,3.31,3.32,3.33,3.33,3.33,3.33,3.3,3.33,3.31,3.32,3.33,3.33,3.33,3.32,3.33,3.33,3.33,3.33,3.33,3.3,79.7,1.0,1.0,0.0,1.0,1.0,2693898,0.0,0.0
1765221198943,0.0,0.0,2.0,25.0,0.0,0.0,0.0,0.0,0.0,0.0,-0.021471999999999998,0.0037819999999999998,0.990884,-0.7000000000000001,0.42000000000000004,0.07,3.33,3.33,3.33,3.32,3.32,3.32,3.31,3.32,3.33,3.33,3.33,3.33,3.3,3.33,3.31,3.32,3.33,3.33,3.33,3.32,3.33,3.33,3.33,3.33,3.33,3.3,79.7,1.0,1.0,0.0,1.0,1.0,2693917,0.0,0.0
1765221198959,0.0,0.0,2.0,25.0,0.0,0.0,0.0,0.0,0.0,0.0,-0.021471999999999998,0.0037819999999999998,0.990884,-0.7000000000000001,0.42000000000000004,0.07,3.33,3.33,3.33,3.32,3.32,3.32,3.31,3.32,3.33,3.33,3.33,3.33,3.3,3.33,3.31,3.32,3.33,3.33,3.33,3.32,3.33,3.33,3.33,3.33,3.33,3.3,79.7,1.0,1.0,0.0,1.0,1.0,2693933,0.0,0.0
1765221198993,0.0,0.0,2.0,25.0,0.0,0.0,0.0,0.0,0.0,0.0,-0.021471999999999998,0.0037819999999999998,0.990884,-0.7000000000000001,0.42000000000000004,0.07,3.33,3.33,3.33,3.32,3.32,3.32,3.31,3.32,3.33,3.33,3.33,3.33,3.3,3.33,3.31,3.32,3.33,3.33,3.33,3.32,3.33,3.33,3.33,3.33,3.33,3.3,79.7,1.0,1.0,0.0,1.0,1.0,2693967,0.0,0.0
1765221199009,0.0,0.0,2.0,25.0,0.0,0.0,0.0,0.0,0.0,0.0,-0.021471999999999998,0.0037819999999999998,0.990884,-0.7000000000000001,0.42000000000000004,0.07,3.33,3.33,3.33,3.32,3.32,3.32,3.31,3.32,3.33,3.33,3.33,3.33,3.3,3.33,3.31,3.32,3.33,3.33,3.33,3.32,3.33,3.33,3.33,3.33,3.33,3.3,79.7,1.0,1.0,0.0,1.0,1.0,2693983,0.0,0.0
1765221199026,0.0,0.0,2.0,25.0,0.0,0.0,0.0,0.0,0.0,0.0,-0.021471999999999998,0.0037819999999999998,0.990884,-0.7000000000000001,0.42000000000000004,0.07,3.33,3.33,3.33,3.32,3.32,3.32,3.31,3.32,3.33,3.33,3.33,3.33,3.3,3.33,3.31,3.32,3.33,3.33,3.33,3.32,3.33,3.33,3.33,3.33,3.33,3.3,79.7,1.0,1.0,0.0,1.0,1.0,2694000,0.0,0.0
1765221199060,0.0,0.0,2.0,25.0,0.0,0.0,0.0,0.0,0.0,0.0,-0.02257,0.003904,0.98637,-0.7000000000000001,0.42000000000000004,0.07,3.33,3.33,3.33,3.32,3.32,3.32,3.31,3.32,3.33,3.33,3.33,3.33,3.3,3.33,3.31,3.32,3.33,3.33,3.33,3.32,3.33,3.33,3.33,3.33,3.33,3.3,79.7,1.0,1.0,0.0,1.0,1.0,2694034,0.0,0.0
1765221199127,0.0,0.0,2.0,25.0,0.0,0.0,0.0,0.0,0.0,0.0,-0.02257,0.003904,0.98637,-0.6300000000000001,0.35000000000000003,0.0,3.33,3.33,3.33,3.32,3.32,3.32,3.31,3.32,3.33,3.33,3.33,3.33,3.3,3.33,3.31,3.32,3.33,3.33,3.33,3.32,3.33,3.33,3.33,3.33,3.33,3.3,79.7,1.0,1.0,0.0,1.0,1.0,2694101,0.0,0.0
1765221199226,0.0,0.0,2.0,25.0,0.0,0.0,0.0,0.0,0.0,0.0,-0.030987999999999998,0.011224,0.995032,-0.6300000000000001,0.35000000000000003,0.0,3.33,3.33,3.33,3.32,3.32,3.32,3.31,3.32,3.33,3.33,3.33,3.33,3.3,3.33,3.31,3.32,3.33,3.33,3.33,3.32,3.33,3.33,3.33,3.33,3.33,3.3,79.7,1.0,1.0,0.0,1.0,1.0,2694200,0.0,0.0
1765221199243,0.0,0.0,2.0,25.0,0.0,0.0,0.0,0.0,0.0,0.0,-0.030987999999999998,0.011224,0.995032,-0.6300000000000001,0.49000000000000005,0.0,3.33,3.33,3.33,3.32,3.32,3.32,3.31,3.32,3.33,3.33,3.33,3.33,3.3,3.33,3.31,3.32,3.33,3.33,3.33,3.32,3.33,3.33,3.33,3.33,3.33,3.3,79.7,1.0,1.0,0.0,1.0,1.0,2694217,0.0,0.0
1765221199277,0.0,0.0,2.0,25.0,0.0,0.0,0.0,0.0,0.0,0.0,-0.030987999999999998,0.011224,0.995032,-0.6300000000000001,0.49000000000000005,0.0,3.33,3.33,3.33,3.32,3.32,3.32,3.31,3.32,3.33,3.33,3.33,3.33,3.3,3.33,3.31,3.32,3.33,3.33,3.33,3.32,3.33,3.33,3.33,3.33,3.33,3.3,79.7,1.0,1.0,0.0,1.0,1.0,2694251,0.0,0.0
1765221199293,0.0,0.0,2.0,25.0,0.0,0.0,0.0,0.0,0.0,0.0,-0.030987999999999998,0.011224,0.995032,-0.6300000000000001,0.49000000000000005,0.0,3.33,3.33,3.33,3.32,3.32,3.32,3.31,3.32,3.33,3.33,3.33,3.33,3.3,3.33,3.31,3.32,3.33,3.33,3.33,3.32,3.33,3.33,3.33,3.33,3.33,3.3,79.7,1.0,1.0,0.0,1.0,1.0,2694267,0.0,0.0
1765221199310,0.0,0.0,2.0,25.0,0.0,0.0,0.0,0.0,0.0,0.0,-0.030987999999999998,0.011224,0.995032,-0.6300000000000001,0.49000000000000005,0.0,3.33,3.33,3.33,3.32,3.32,3.32,3.31,3.32,3.33,3.33,3.33,3.33,3.3,3.33,3.31,3.32,3.33,3.33,3.33,3.32,3.33,3.33,3.33,3.33,3.33,3.3,79.7,1.0,1.0,0.0,1.0,1.0,2694284,0.0,0.0
1765221199343,0.0,0.0,2.0,25.0,0.0,0.0,0.0,0.0,0.0,0.0,-0.030987999999999998,0.011224,0.995032,-0.6300000000000001,0.49000000000000005,0.0,3.33,3.33,3.33,3.32,3.32,3.32,3.31,3.32,3.33,3.33,3.33,3.33,3.3,3.33,3.31,3.32,3.33,3.33,3.33,3.32,3.33,3.33,3.33,3.33,3.33,3.3,79.7,1.0,1.0,0.0,1.0,1.0,2694317,0.0,0.0
1765221199393,0.0,0.0,2.0,25.0,0.0,0.0,0.0,0.0,0.0,0.0,-0.030987999999999998,0.011224,0.995032,-0.6300000000000001,0.49000000000000005,0.0,3.33,3.33,3.33,3.32,3.32,3.32,3.31,3.32,3.33,3.33,3.33,3.33,3.3,3.33,3.31,3.32,3.33,3.33,3.33,3.32,3.33,3.33,3.33,3.33,3.33,3.3,79.7,1.0,1.0,0.0,1.0,1.0,2694367,0.0,0.0
1765221199410,0.0,0.0,2.0,25.0,0.0,0.0,0.0,0.0,0.0,0.0,-0.027327999999999998,0.008662,1.005402,-0.6300000000000001,0.49000000000000005,0.0,3.33,3.33,3.33,3.32,3.32,3.32,3.31,3.32,3.33,3.33,3.33,3.33,3.3,3.33,3.31,3.32,3.33,3.33,3.33,3.32,3.33,3.33,3.33,3.33,3.33,3.3,79.7,1.0,1.0,0.0,1.0,1.0,2694384,0.0,0.0
1765221199476,0.0,0.0,2.0,25.0,0.0,0.0,0.0,0.0,0.0,0.0,-0.027327999999999998,0.008662,1.005402,-0.77,0.28,-0.14,3.33,3.33,3.33,3.32,3.32,3.32,3.31,3.32,3.33,3.33,3.33,3.33,3.3,3.33,3.31,3.32,3.33,3.33,3.33,3.32,3.33,3.33,3.33,3.33,3.33,3.3,79.7,1.0,1.0,0.0,1.0,1.0,2694450,0.0,0.0
1765221199510,0.0,0.0,2.0,25.0,0.0,0.0,0.0,0.0,0.0,0.0,-0.024034,-0.000244,0.9821,-0.77,0.28,-0.14,3.33,3.33,3.33,3.32,3.32,3.32,3.31,3.32,3.33,3.33,3.33,3.33,3.3,3.33,3.31,3.32,3.33,3.33,3.33,3.32,3.33,3.33,3.33,3.33,3.33,3.3,79.7,1.0,1.0,0.0,1.0,1.0,2694484,0.0,0.0
1765221199543,0.0,0.0,2.0,25.0,0.0,0.0,0.0,0.0,0.0,0.0,-0.024034,-0.000244,0.9821,-0.77,0.28,-0.14,3.33,3.33,3.33,3.32,3.32,3.32,3.31,3.32,3.33,3.33,3.33,3.33,3.3,3.33,3.31,3.32,3.33,3.33,3.33,3.32,3.33,3.33,3.33,3.33,3.33,3.3,79.7,1.0,1.0,0.0,1.0,1.0,2694517,0.0,0.0
1765221199575,0.0,0.0,2.0,25.0,0.0,0.0,0.0,0.0,0.0,0.0,-0.02562,0.001464,0.992348,-0.77,0.28,-0.14,3.33,3.33,3.33,3.32,3.32,3.32,3.31,3.32,3.33,3.33,3.33,3.33,3.3,3.33,3.31,3.32,3.33,3.33,3.33,3.32,3.33,3.33,3.33,3.33,3.33,3.3,79.7,1.0,1.0,0.0,1.0,1.0,2694549,0.0,0.0
1765221199608,0.0,0.0,2.0,25.0,0.0,0.0,0.0,0.0,0.0,0.0,-0.02562,0.001464,0.992348,-0.7000000000000001,0.56,0.0,3.33,3.33,3.33,3.32,3.32,3.32,3.31,3.32,3.33,3.33,3.33,3.33,3.3,3.33,3.31,3.32,3.33,3.33,3.33,3.32,3.33,3.33,3.33,3.33,3.33,3.3,79.7,1.0,1.0,0.0,1.0,1.0,2694582,0.0,0.0
1765221199659,0.0,0.0,2.0,25.0,0.0,0.0,0.0,0.0,0.0,0.0,-0.025986,0.0060999999999999995,1.008574,-0.7000000000000001,0.56,0.0,3.33,3.33,3.33,3.32,3.32,3.32,3.31,3.32,3.33,3.33,3.33,3.33,3.3,3.33,3.31,3.32,3.33,3.33,3.33,3.32,3.33,3.33,3.33,3.33,3.33,3.3,79.7,1.0,1.0,0.0,1.0,1.0,2694633,0.0,0.0
1765221199675,0.0,0.0,2.0,25.0,0.0,0.0,0.0,0.0,0.0,0.0,-0.025986,0.0060999999999999995,1.008574,-0.7000000000000001,0.56,0.0,3.33,3.33,3.33,3.32,3.32,3.32,3.31,3.32,3.33,3.33,3.33,3.33,3.3,3.33,3.31,3.32,3.33,3.33,3.33,3.32,3.33,3.33,3.33,3.33,3.33,3.3,79.7,1.0,1.0,0.0,1.0,1.0,2694649,0.0,0.0
1765221199692,0.0,0.0,2.0,25.0,0.0,0.0,0.0,0.0,0.0,0.0,-0.025986,0.0060999999999999995,1.008574,-0.7000000000000001,0.56,0.0,3.33,3.33,3.33,3.32,3.32,3.32,3.31,3.32,3.33,3.33,3.33,3.33,3.3,3.33,3.31,3.32,3.33,3.33,3.33,3.32,3.33,3.33,3.33,3.33,3.33,3.3,79.7,1.0,1.0,0.0,1.0,1.0,2694666,0.0,0.0
1765221199710,0.0,0.0,2.0,25.0,0.0,0.0,0.0,0.0,0.0,0.0,-0.025986,0.0060999999999999995,1.008574,-0.7000000000000001,0.56,0.0,3.33,3.33,3.33,3.32,3.32,3.32,3.31,3.32,3.33,3.33,3.33,3.33,3.3,3.33,3.31,3.32,3.33,3.33,3.33,3.32,3.33,3.33,3.33,3.33,3.33,3.3,79.7,1.0,1.0,0.0,1.0,1.0,2694684,0.0,0.0
1765221199726,0.0,0.0,2.0,25.0,0.0,0.0,0.0,0.0,0.0,0.0,-0.025986,0.0060999999999999995,1.008574,-0.7000000000000001,0.56,0.0,3.33,3.33,3.33,3.32,3.32,3.32,3.31,3.32,3.33,3.33,3.33,3.33,3.3,3.33,3.31,3.32,3.33,3.33,3.33,3.32,3.33,3.33,3.33,3.33,3.33,3.3,79.7,1.0,1.0,0.0,1.0,1.0,2694700,0.0,0.0
1765221199758,0.0,0.0,2.0,25.0,0.0,0.0,0.0,0.0,0.0,0.0,-0.025986,0.0060999999999999995,1.008574,-0.7000000000000001,0.56,0.0,3.33,3.33,3.33,3.32,3.32,3.32,3.31,3.32,3.33,3.33,3.33,3.33,3.3,3.33,3.31,3.32,3.33,3.33,3.33,3.32,3.33,3.33,3.33,3.33,3.33,3.3,79.7,1.0,1.0,0.0,1.0,1.0,2694732,0.0,0.0
1765221199775,0.0,0.0,2.0,25.0,0.0,0.0,0.0,0.0,0.0,0.0,-0.025986,0.0060999999999999995,1.008574,-0.7000000000000001,0.56,0.0,3.33,3.33,3.33,3.32,3.32,3.32,3.31,3.32,3.33,3.33,3.33,3.33,3.3,3.33,3.31,3.32,3.33,3.33,3.33,3.32,3.33,3.33,3.33,3.33,3.33,3.3,79.7,1.0,1.0,0.0,1.0,1.0,2694749,0.0,0.0
1765221199792,0.0,0.0,2.0,25.0,0.0,0.0,0.0,0.0,0.0,0.0,-0.025986,0.0060999999999999995,1.008574,-0.7000000000000001,0.56,0.0,3.33,3.33,3.33,3.32,3.32,3.32,3.31,3.32,3.33,3.33,3.33,3.33,3.3,3.33,3.31,3.32,3.33,3.33,3.33,3.32,3.33,3.33,3.33,3.33,3.33,3.3,79.7,1.0,1.0,0.0,1.0,1.0,2694766,0.0,0.0
1765221199827,0.0,0.0,2.0,25.0,0.0,0.0,0.0,0.0,0.0,0.0,-0.025986,0.0060999999999999995,1.008574,-0.7000000000000001,0.56,0.0,3.33,3.33,3.33,3.32,3.32,3.32,3.31,3.32,3.33,3.33,3.33,3.33,3.3,3.33,3.31,3.32,3.33,3.33,3.33,3.32,3.33,3.33,3.33,3.33,3.33,3.3,79.7,1.0,1.0,0.0,1.0,1.0,2694801,0.0,0.0
1765221199843,0.0,0.0,2.0,25.0,0.0,0.0,0.0,0.0,0.0,0.0,-0.025986,0.0060999999999999995,1.008574,-0.7000000000000001,0.35000000000000003,-0.07,3.33,3.33,3.33,3.32,3.32,3.32,3.31,3.32,3.33,3.33,3.33,3.33,3.3,3.33,3.31,3.32,3.33,3.33,3.33,3.32,3.33,3.33,3.33,3.33,3.33,3.3,79.7,1.0,1.0,0.0,1.0,1.0,2694817,0.0,0.0
1765221199860,0.0,0.0,2.0,25.0,0.0,0.0,0.0,0.0,0.0,0.0,-0.025986,0.0060999999999999995,1.008574,-0.7000000000000001,0.35000000000000003,-0.07,3.33,3.33,3.33,3.32,3.32,3.32,3.31,3.32,3.33,3.33,3.33,3.33,3.3,3.33,3.31,3.32,3.33,3.33,3.33,3.32,3.33,3.33,3.33,3.33,3.33,3.3,79.7,1.0,1.0,0.0,1.0,1.0,2694834,0.0,0.0
1765221199959,0.0,0.0,2.0,25.0,0.0,0.0,0.0,0.0,0.0,0.0,-0.020984,0.009394,0.990762,-0.56,0.28,0.0,3.33,3.33,3.33,3.32,3.32,3.32,3.31,3.32,3.33,3.33,3.33,3.33,3.3,3.33,3.31,3.32,3.33,3.33,3.33,3.32,3.33,3.33,3.33,3.33,3.33,3.3,79.7,1.0,1.0,0.0,1.0,1.0,2694933,0.0,0.0
1765221200010,0.0,0.0,2.0,25.0,0.0,0.0,0.0,0.0,0.0,0.0,-0.020984,0.009394,0.990762,-0.56,0.28,0.0,3.33,3.33,3.33,3.32,3.32,3.32,3.31,3.32,3.33,3.33,3.33,3.33,3.3,3.33,3.31,3.32,3.33,3.33,3.33,3.32,3.33,3.33,3.33,3.33,3.33,3.3,79.7,1.0,1.0,0.0,1.0,1.0,2694984,0.0,0.0
1765221200043,0.0,0.0,2.0,25.0,0.0,0.0,0.0,0.0,0.0,0.0,-0.020984,0.009394,0.990762,-0.56,0.28,0.0,3.33,3.33,3.33,3.32,3.32,3.32,3.31,3.32,3.33,3.33,3.33,3.33,3.3,3.33,3.31,3.32,3.33,3.33,3.33,3.32,3.33,3.33,3.33,3.33,3.33,3.3,79.7,1.0,1.0,0.0,1.0,1.0,2695017,0.0,0.0
1765221200076,0.0,0.0,2.0,25.0,0.0,0.0,0.0,0.0,0.0,0.0,-0.020984,0.009394,0.990762,-0.56,0.28,0.0,3.33,3.33,3.33,3.32,3.32,3.32,3.31,3.32,3.33,3.33,3.33,3.33,3.3,3.33,3.31,3.32,3.33,3.33,3.33,3.32,3.33,3.33,3.33,3.33,3.33,3.3,79.7,1.0,1.0,0.0,1.0,1.0,2695050,0.0,0.0
1765221200126,0.0,0.0,2.0,25.0,0.0,0.0,0.0,0.0,0.0,0.0,-0.020984,0.009394,0.990762,-0.56,0.28,0.0,3.33,3.33,3.33,3.32,3.32,3.32,3.31,3.32,3.33,3.33,3.33,3.33,3.3,3.33,3.31,3.32,3.33,3.33,3.33,3.32,3.33,3.33,3.33,3.33,3.33,3.3,79.7,1.0,1.0,0.0,1.0,1.0,2695100,0.0,0.0
1765221200143,0.0,0.0,2.0,25.0,0.0,0.0,0.0,0.0,0.0,0.0,-0.016836,0.0075639999999999995,0.987712,-0.56,0.28,0.0,3.33,3.33,3.33,3.32,3.32,3.32,3.31,3.32,3.33,3.33,3.33,3.33,3.3,3.33,3.31,3.32,3.33,3.33,3.33,3.32,3.33,3.33,3.33,3.33,3.33,3.3,79.7,1.0,1.0,0.0,1.0,1.0,2695117,0.0,0.0
1765221200243,0.0,0.0,2.0,25.0,0.0,0.0,0.0,0.0,0.0,0.0,-0.016836,0.0075639999999999995,0.987712,-0.56,0.28,0.0,3.33,3.33,3.33,3.32,3.32,3.32,3.31,3.32,3.33,3.33,3.33,3.33,3.3,3.33,3.31,3.32,3.33,3.33,3.33,3.32,3.33,3.33,3.33,3.33,3.33,3.3,79.7,1.0,1.0,0.0,1.0,1.0,2695217,0.0,0.0
1765221200309,0.0,0.0,2.0,25.0,0.0,0.0,0.0,0.0,0.0,0.0,-0.025986,0.01098,0.99674,-0.56,0.28,0.0,3.33,3.33,3.33,3.32,3.32,3.32,3.31,3.32,3.33,3.33,3.33,3.33,3.3,3.33,3.31,3.32,3.33,3.33,3.33,3.32,3.33,3.33,3.33,3.33,3.33,3.3,79.7,1.0,1.0,0.0,1.0,1.0,2695283,0.0,0.0
1765221200327,0.0,0.0,2.0,25.0,0.0,0.0,0.0,0.0,0.0,0.0,-0.025986,0.01098,0.99674,-0.77,0.28,-0.07,3.33,3.33,3.33,3.32,3.32,3.32,3.31,3.32,3.33,3.33,3.33,3.33,3.3,3.33,3.31,3.32,3.33,3.33,3.33,3.32,3.33,3.33,3.33,3.33,3.33,3.3,79.7,1.0,1.0,0.0,1.0,1.0,2695301,0.0,0.0
1765221200376,231.0,0.0,2.0,25.0,0.0,0.0,0.0,0.0,0.0,0.0,-0.025986,0.01098,0.99674,-0.77,0.28,-0.07,3.33,3.33,3.33,3.32,3.32,3.32,3.31,3.32,3.33,3.33,3.33,3.33,3.3,3.33,3.31,3.32,3.33,3.33,3.33,3.32,3.33,3.33,3.33,3.33,3.33,3.3,79.7,1.0,1.0,0.0,1.0,1.0,2695350,0.0,0.0
1765221200393,231.0,0.0,2.0,25.0,0.0,0.0,0.0,0.0,0.0,0.0,-0.025986,0.01098,0.99674,-0.77,0.28,-0.07,3.33,3.33,3.33,3.32,3.32,3.32,3.31,3.32,3.33,3.33,3.33,3.33,3.3,3.33,3.31,3.32,3.33,3.33,3.33,3.32,3.33,3.33,3.33,3.33,3.33,3.3,79.7,1.0,1.0,0.0,1.0,1.0,2695367,0.0,0.0
1765221200410,231.0,0.0,2.0,25.0,577.0,577.0,0.0,0.0,0.0,0.0,-0.025986,0.01098,0.99674,-0.77,0.28,-0.07,3.33,3.33,3.33,3.32,3.32,3.32,3.31,3.32,3.33,3.33,3.33,3.33,3.3,3.33,3.31,3.32,3.33,3.33,3.33,3.32,3.33,3.33,3.33,3.33,3.33,3.3,79.7,1.0,1.0,0.0,1.0,1.0,2695384,0.0,0.0
1765221200426,231.0,0.0,2.0,25.0,577.0,577.0,0.0,0.0,0.0,0.0,-0.021716,0.005978,0.997472,-0.77,0.28,-0.07,3.33,3.33,3.33,3.32,3.32,3.32,3.31,3.32,3.33,3.33,3.33,3.33,3.3,3.33,3.31,3.32,3.33,3.33,3.33,3.32,3.33,3.33,3.33,3.33,3.33,3.3,79.7,1.0,1.0,0.0,1.0,1.0,2695400,0.0,0.0
1765221200460,231.0,0.0,2.0,25.0,577.0,577.0,0.0,0.0,0.0,0.0,-0.021716,0.005978,0.997472,-0.77,0.28,-0.07,3.33,3.33,3.33,3.32,3.32,3.32,3.31,3.32,3.33,3.33,3.33,3.33,3.3,3.33,3.31,3.32,3.33,3.33,3.33,3.32,3.33,3.33,3.33,3.33,3.33,3.3,79.7,1.0,1.0,0.0,1.0,1.0,2695434,0.0,0.0
1765221200494,231.0,0.0,2.0,25.0,577.0,577.0,0.0,0.0,0.0,0.0,-0.021716,0.005978,0.997472,-0.6300000000000001,0.56,-0.07,3.33,3.33,3.33,3.32,3.32,3.32,3.31,3.32,3.33,3.33,3.33,3.33,3.3,3.33,3.31,3.32,3.33,3.33,3.33,3.32,3.33,3.33,3.33,3.33,3.33,3.3,79.7,1.0,1.0,0.0,1.0,1.0,2695468,0.0,0.0
1765221200526,231.0,0.0,2.0,25.0,577.0,577.0,0.0,0.0,0.0,0.0,-0.021716,0.005978,0.997472,-0.6300000000000001,0.56,-0.07,3.33,3.33,3.33,3.32,3.32,3.32,3.31,3.32,3.33,3.33,3.33,3.33,3.3,3.33,3.31,3.32,3.33,3.33,3.33,3.32,3.33,3.33,3.33,3.33,3.33,3.3,79.7,1.0,1.0,0.0,1.0,1.0,2695500,0.0,0.0
1765221200593,231.0,0.0,2.0,25.0,577.0,577.0,0.0,0.0,0.0,0.0,-0.021716,0.005978,0.997472,-0.6300000000000001,0.56,-0.07,3.33,3.33,3.33,3.32,3.32,3.32,3.31,3.32,3.33,3.33,3.33,3.33,3.3,3.33,3.31,3.32,3.33,3.33,3.33,3.32,3.33,3.33,3.33,3.33,3.33,3.3,79.7,1.0,1.0,0.0,1.0,1.0,2695567,0.0,0.0
1765221200610,231.0,0.0,2.0,25.0,577.0,577.0,0.0,0.0,0.0,0.0,-0.021716,0.005978,0.997472,-0.6300000000000001,0.56,-0.07,3.33,3.33,3.33,3.32,3.32,3.32,3.31,3.32,3.33,3.33,3.33,3.33,3.3,3.33,3.31,3.32,3.33,3.33,3.33,3.32,3.33,3.33,3.33,3.33,3.33,3.3,79.7,1.0,1.0,0.0,1.0,1.0,2695584,0.0,0.0
1765221200626,231.0,0.0,2.0,25.0,577.0,577.0,0.0,0.0,0.0,0.0,-0.024888,0.004148,0.988566,-0.6300000000000001,0.56,-0.07,3.33,3.33,3.33,3.32,3.32,3.32,3.31,3.32,3.33,3.33,3.33,3.33,3.3,3.33,3.31,3.32,3.33,3.33,3.33,3.32,3.33,3.33,3.33,3.33,3.33,3.3,79.7,1.0,1.0,0.0,1.0,1.0,2695600,0.0,0.0
1765221200643,231.0,0.0,2.0,25.0,577.0,577.0,0.0,0.0,0.0,0.0,-0.024888,0.004148,0.988566,-0.77,0.35000000000000003,0.07,3.33,3.33,3.33,3.32,3.32,3.32,3.31,3.32,3.33,3.33,3.33,3.33,3.3,3.33,3.31,3.32,3.33,3.33,3.33,3.32,3.33,3.33,3.33,3.33,3.33,3.3,79.7,1.0,1.0,0.0,1.0,1.0,2695617,0.0,0.0
1765221200693,254.0,0.0,2.0,25.0,577.0,577.0,0.0,0.0,0.0,0.0,-0.024888,0.004148,0.988566,-0.77,0.35000000000000003,0.07,3.33,3.33,3.33,3.32,3.32,3.32,3.31,3.32,3.33,3.33,3.33,3.33,3.3,3.33,3.31,3.32,3.33,3.33,3.33,3.32,3.33,3.33,3.33,3.33,3.33,3.3,79.7,1.0,1.0,0.0,1.0,1.0,2695667,0.0,0.0
1765221200710,254.0,0.0,2.0,25.0,615.0,615.0,0.0,0.0,0.0,0.0,-0.024888,0.004148,0.988566,-0.77,0.35000000000000003,0.07,3.33,3.33,3.33,3.32,3.32,3.32,3.31,3.32,3.33,3.33,3.33,3.33,3.3,3.33,3.31,3.32,3.33,3.33,3.33,3.32,3.33,3.33,3.33,3.33,3.33,3.3,79.7,1.0,1.0,0.0,1.0,1.0,2695684,0.0,0.0
1765221200743,254.0,0.0,2.0,25.0,615.0,615.0,0.0,0.0,0.0,0.0,-0.024888,0.004148,0.988566,-0.77,0.35000000000000003,0.07,3.33,3.33,3.33,3.32,3.32,3.32,3.31,3.32,3.33,3.33,3.33,3.33,3.3,3.33,3.31,3.32,3.33,3.33,3.33,3.32,3.33,3.33,3.33,3.33,3.33,3.3,79.7,1.0,1.0,0.0,1.0,1.0,2695717,0.0,0.0
1765221200760,254.0,0.0,2.0,25.0,615.0,615.0,0.0,0.0,0.0,0.0,-0.024888,0.004148,0.988566,-0.77,0.35000000000000003,0.07,3.33,3.33,3.33,3.32,3.32,3.32,3.31,3.32,3.33,3.33,3.33,3.33,3.3,3.33,3.31,3.32,3.33,3.33,3.33,3.32,3.33,3.33,3.33,3.33,3.33,3.3,79.7,1.0,1.0,0.0,1.0,1.0,2695734,0.0,0.0
1765221200810,254.0,0.0,2.0,25.0,615.0,615.0,0.0,0.0,0.0,0.0,-0.02013,0.012565999999999999,0.995642,-0.77,0.35000000000000003,0.07,3.33,3.33,3.33,3.32,3.32,3.32,3.31,3.32,3.33,3.33,3.33,3.33,3.3,3.33,3.31,3.32,3.33,3.33,3.33,3.32,3.33,3.33,3.33,3.33,3.33,3.3,79.7,1.0,1.0,0.0,1.0,1.0,2695784,0.0,0.0
1765221200827,254.0,0.0,2.0,25.0,615.0,615.0,0.0,0.0,0.0,0.0,-0.02013,0.012565999999999999,0.995642,-0.77,0.35000000000000003,0.07,3.33,3.33,3.33,3.32,3.32,3.32,3.31,3.32,3.33,3.33,3.33,3.33,3.3,3.33,3.31,3.32,3.33,3.33,3.33,3.32,3.33,3.33,3.33,3.33,3.33,3.3,79.7,1.0,1.0,0.0,1.0,1.0,2695801,0.0,0.0
1765221200843,254.0,0.0,2.0,25.0,832.0,832.0,0.0,0.0,0.0,0.0,-0.02013,0.012565999999999999,0.995642,-0.77,0.35000000000000003,0.07,3.33,3.33,3.33,3.32,3.32,3.32,3.31,3.32,3.33,3.33,3.33,3.33,3.3,3.33,3.31,3.32,3.33,3.33,3.33,3.32,3.33,3.33,3.33,3.33,3.33,3.3,79.7,1.0,1.0,0.0,1.0,1.0,2695817,0.0,0.0
1765221200860,254.0,0.0,2.0,25.0,832.0,832.0,0.0,0.0,0.0,0.0,-0.02013,0.012565999999999999,0.995642,-0.77,0.35000000000000003,0.07,3.33,3.33,3.33,3.32,3.32,3.32,3.31,3.32,3.33,3.33,3.33,3.33,3.3,3.33,3.31,3.32,3.33,3.33,3.33,3.32,3.33,3.33,3.33,3.33,3.33,3.3,79.7,1.0,1.0,0.0,1.0,1.0,2695834,0.0,0.0
1765221200909,254.0,0.0,2.0,25.0,832.0,832.0,0.0,0.0,0.0,0.0,-0.02013,0.012565999999999999,0.995642,-0.77,0.35000000000000003,0.07,3.33,3.33,3.33,3.32,3.32,3.32,3.31,3.32,3.33,3.33,3.33,3.33,3.3,3.33,3.31,3.32,3.33,3.33,3.33,3.32,3.33,3.33,3.33,3.33,3.33,3.3,79.7,1.0,1.0,0.0,1.0,1.0,2695883,0.0,0.0
1765221200943,254.0,0.0,2.0,25.0,832.0,832.0,0.0,0.0,0.0,0.0,-0.02013,0.012565999999999999,0.995642,-0.77,0.35000000000000003,0.07,3.33,3.33,3.33,3.32,3.32,3.32,3.31,3.32,3.33,3.33,3.33,3.33,3.3,3.33,3.31,3.32,3.33,3.33,3.33,3.32,3.33,3.33,3.33,3.33,3.33,3.3,79.7,1.0,1.0,0.0,1.0,1.0,2695917,0.0,0.0
1765221201027,254.0,0.0,2.0,25.0,832.0,832.0,0.0,0.0,0.0,0.0,-0.025863999999999998,0.005856,0.9946659999999999,-0.77,0.56,-0.07,3.33,3.33,3.33,3.32,3.32,3.32,3.31,3.32,3.33,3.33,3.33,3.33,3.3,3.33,3.31,3.32,3.33,3.33,3.33,3.32,3.33,3.33,3.33,3.33,3.33,3.3,79.7,1.0,1.0,0.0,1.0,1.0,2696001,0.0,0.0
1765221201093,345.0,0.0,2.0,25.0,832.0,832.0,0.0,0.0,0.0,0.0,-0.025863999999999998,0.005856,0.9946659999999999,-0.77,0.56,-0.07,3.33,3.33,3.33,3.32,3.32,3.32,3.31,3.32,3.33,3.33,3.33,3.33,3.3,3.33,3.31,3.32,3.33,3.33,3.33,3.32,3.33,3.33,3.33,3.33,3.33,3.3,79.7,1.0,1.0,0.0,1.0,1.0,2696067,0.0,0.0
1765221201110,345.0,0.0,2.0,25.0,832.0,832.0,0.0,0.0,0.0,0.0,-0.02135,0.00488,0.9897859999999999,-0.77,0.56,-0.07,3.33,3.33,3.33,3.32,3.32,3.32,3.31,3.32,3.33,3.33,3.33,3.33,3.3,3.33,3.31,3.32,3.33,3.33,3.33,3.32,3.33,3.33,3.33,3.33,3.33,3.3,79.7,1.0,1.0,0.0,1.0,1.0,2696084,0.0,0.0
1765221201126,345.0,0.0,2.0,25.0,860.0,860.0,0.0,0.0,0.0,0.0,-0.02135,0.00488,0.9897859999999999,-0.77,0.56,-0.07,3.33,3.33,3.33,3.32,3.32,3.32,3.31,3.32,3.33,3.33,3.33,3.33,3.3,3.33,3.31,3.32,3.33,3.33,3.33,3.32,3.33,3.33,3.33,3.33,3.33,3.3,79.7,1.0,1.0,0.0,1.0,1.0,2696100,0.0,0.0
1765221201143,345.0,0.0,2.0,25.0,860.0,860.0,0.0,0.0,0.0,0.0,-0.02135,0.00488,0.9897859999999999,-0.77,0.56,-0.07,3.33,3.33,3.33,3.32,3.32,3.32,3.31,3.32,3.33,3.33,3.33,3.33,3.3,3.33,3.31,3.32,3.33,3.33,3.33,3.32,3.33,3.33,3.33,3.33,3.33,3.3,79.7,1.0,1.0,0.0,1.0,1.0,2696117,0.0,0.0
1765221201160,345.0,0.0,2.0,25.0,860.0,860.0,0.0,0.0,0.0,0.0,-0.02135,0.00488,0.9897859999999999,-0.77,0.56,-0.07,3.33,3.33,3.33,3.32,3.32,3.32,3.31,3.32,3.33,3.33,3.33,3.33,3.3,3.33,3.31,3.32,3.33,3.33,3.33,3.32,3.33,3.33,3.33,3.33,3.33,3.3,79.7,1.0,1.0,0.0,1.0,1.0,2696134,0.0,0.0
1765221201176,345.0,0.0,2.0,25.0,860.0,860.0,0.0,0.0,0.0,0.0,-0.02135,0.00488,0.9897859999999999,-0.7000000000000001,0.42000000000000004,0.0,3.33,3.33,3.33,3.32,3.32,3.32,3.31,3.32,3.33,3.33,3.33,3.33,3.3,3.33,3.31,3.32,3.33,3.33,3.33,3.32,3.33,3.33,3.33,3.33,3.33,3.3,79.7,1.0,1.0,0.0,1.0,1.0,2696150,0.0,0.0
1765221201243,345.0,0.0,2.0,25.0,860.0,860.0,0.0,0.0,0.0,0.0,-0.02135,0.00488,0.9897859999999999,-0.7000000000000001,0.42000000000000004,0.0,3.33,3.33,3.33,3.32,3.32,3.32,3.31,3.32,3.33,3.33,3.33,3.33,3.3,3.33,3.31,3.32,3.33,3.33,3.33,3.32,3.33,3.33,3.33,3.33,3.33,3.3,79.7,1.0,1.0,0.0,1.0,1.0,2696217,0.0,0.0
1765221201310,345.0,0.0,2.0,25.0,860.0,860.0,0.0,0.0,0.0,0.0,-0.02135,0.00488,0.9897859999999999,-0.7000000000000001,0.42000000000000004,0.0,3.33,3.33,3.33,3.32,3.32,3.32,3.31,3.32,3.33,3.33,3.33,3.33,3.3,3.33,3.31,3.32,3.33,3.33,3.33,3.32,3.33,3.33,3.33,3.33,3.33,3.3,79.7,1.0,1.0,0.0,1.0,1.0,2696284,0.0,0.0
1765221201326,345.0,0.0,2.0,25.0,860.0,860.0,0.0,0.0,0.0,0.0,-0.02135,0.00488,0.9897859999999999,-0.7000000000000001,0.42000000000000004,0.0,3.33,3.33,3.33,3.32,3.32,3.32,3.31,3.32,3.33,3.33,3.33,3.33,3.3,3.33,3.31,3.32,3.33,3.33,3.33,3.32,3.33,3.33,3.33,3.33,3.33,3.3,79.7,1.0,1.0,0.0,1.0,1.0,2696300,0.0,0.0
1765221201343,345.0,0.0,2.0,25.0,860.0,860.0,0.0,0.0,0.0,0.0,-0.02135,0.00488,0.9897859999999999,-0.7000000000000001,0.42000000000000004,0.0,3.33,3.33,3.33,3.32,3.32,3.32,3.31,3.32,3.33,3.33,3.33,3.33,3.3,3.33,3.31,3.32,3.33,3.33,3.33,3.32,3.33,3.33,3.33,3.33,3.33,3.3,79.7,1.0,1.0,0.0,1.0,1.0,2696317,0.0,0.0
1765221201360,345.0,0.0,2.0,25.0,860.0,860.0,0.0,0.0,0.0,0.0,-0.02135,0.00488,0.9897859999999999,-0.7000000000000001,0.42000000000000004,0.0,3.33,3.33,3.33,3.32,3.32,3.32,3.31,3.32,3.33,3.33,3.33,3.33,3.3,3.33,3.31,3.32,3.33,3.33,3.33,3.32,3.33,3.33,3.33,3.33,3.33,3.3,79.7,1.0,1.0,0.0,1.0,1.0,2696334,0.0,0.0
1765221201376,345.0,0.0,2.0,25.0,860.0,860.0,0.0,0.0,0.0,0.0,-0.02135,0.00488,0.9897859999999999,-0.7000000000000001,0.42000000000000004,0.0,3.33,3.33,3.33,3.32,3.32,3.32,3.31,3.32,3.33,3.33,3.33,3.33,3.3,3.33,3.31,3.32,3.33,3.33,3.33,3.32,3.33,3.33,3.33,3.33,3.33,3.3,79.7,1.0,1.0,0.0,1.0,1.0,2696350,0.0,0.0
1765221201393,345.0,0.0,2.0,25.0,860.0,860.0,0.0,0.0,0.0,0.0,-0.02013,0.0068319999999999995,0.995764,-0.7000000000000001,0.42000000000000004,0.0,3.33,3.33,3.33,3.32,3.32,3.32,3.31,3.32,3.33,3.33,3.33,3.33,3.3,3.33,3.31,3.32,3.33,3.33,3.33,3.32,3.33,3.33,3.33,3.33,3.33,3.3,79.7,1.0,1.0,0.0,1.0,1.0,2696367,0.0,0.0
1765221201409,345.0,0.0,2.0,25.0,860.0,860.0,0.0,0.0,0.0,0.0,-0.02013,0.0068319999999999995,0.995764,-0.7000000000000001,0.56,0.0,3.33,3.33,3.33,3.32,3.32,3.32,3.31,3.32,3.33,3.33,3.33,3.33,3.3,3.33,3.31,3.32,3.33,3.33,3.33,3.32,3.33,3.33,3.33,3.33,3.33,3.3,79.7,1.0,1.0,0.0,1.0,1.0,2696383,0.0,0.0
1765221201444,357.0,0.0,2.0,25.0,860.0,860.0,0.0,0.0,0.0,0.0,-0.02013,0.0068319999999999995,0.995764,-0.7000000000000001,0.56,0.0,3.32,3.32,3.3,3.3,3.32,3.32,3.31,3.32,3.33,3.33,3.33,3.33,3.3,3.33,3.31,3.32,3.33,3.33,3.33,3.32,3.33,3.33,3.33,3.33,3.33,3.3,79.7,1.0,1.0,0.0,1.0,1.0,2696418,0.0,0.0
