timestamp,THROTTLE,BRAKE,ECU_MODE_ID,TORQUE_GAIN,TORQUE_REF_LEFT_MOTOR,TORQUE_REF_RIGHT_MOTOR,LEFT_MOTOR_SPEED,RIGHT_MOTOR_SPEED,REAR_LEFT_WHEEL_SPEED,REAR_RIGHT_WHEEL_SPEED,ACCEL_LONGITUDINAL,ACCEL_LATERAL,ACCEL_NORMAL,VEL_ANGULAR_YAW,VEL_ANGULAR_PITCH,VEL_ANGULAR_ROLL,STACK_1_CELL_1,STACK_1_CELL_2,STACK_1_CELL_3,STACK_1_CELL_4,STACK_2_CELL_1,STACK_2_CELL_2,STACK_2_CELL_3,STACK_2_CELL_4,STACK_3_CELL_1,STACK_3_CELL_2,STACK_3_CELL_3,STACK_3_CELL_4,STACK_4_CELL_1,STACK_4_CELL_2,STACK_4_CELL_3,STACK_4_CELL_4,STACK_5_CELL_1,STACK_5_CELL_2,STACK_5_CELL_3,STACK_5_CELL_4,STACK_6_CELL_1,STACK_6_CELL_2,STACK_6_CELL_3,STACK_6_CELL_4,MAX_VOLTAGE,MIN_VOLTAGE,TOTAL_VOLTAGE,SHUNT_CURRENT,BMS_MODE_ID,BMS_ERROR_ID,AIR_P,AIR_N,t,LEFT_MOTOR_RPM,RIGHT_MOTOR_RPM
1765221360043,0.0,0.0,2.0,25.0,0.0,0.0,0.0,0.0,0.0,0.0,-0.023302,0.052216,0.994422,-0.7000000000000001,0.49000000000000005,-0.07,3.3,3.3,3.3,3.28,3.28,3.29,3.28,3.31,3.3,3.31,3.3,3.28,3.28,3.29,3.28,3.31,3.3,3.3,3.3,3.3,3.31,3.32,3.3,3.3,3.32,3.27,79.0,1.0,1.0,0.0,1.0,1.0,2855017,0.0,0.0
1765221360076,0.0,0.0,2.0,25.0,0.0,0.0,0.0,0.0,0.0,0.0,-0.010735999999999999,0.026595999999999998,0.991372,-0.7000000000000001,0.49000000000000005,-0.07,3.3,3.3,3.3,3.28,3.28,3.29,3.28,3.31,3.3,3.31,3.3,3.28,3.28,3.29,3.28,3.31,3.3,3.3,3.3,3.3,3.31,3.32,3.3,3.3,3.32,3.27,79.0,1.0,1.0,0.0,1.0,1.0,2855050,0.0,0.0
1765221360126,0.0,0.0,2.0,25.0,0.0,0.0,0.0,0.0,0.0,0.0,-0.010735999999999999,0.026595999999999998,0.991372,-0.7000000000000001,0.49000000000000005,-0.07,3.3,3.3,3.3,3.28,3.28,3.29,3.28,3.31,3.3,3.31,3.3,3.28,3.28,3.29,3.28,3.31,3.3,3.3,3.3,3.3,3.31,3.32,3.3,3.3,3.32,3.27,79.0,1.0,1.0,0.0,1.0,1.0,2855100,0.0,0.0
1765221360142,0.0,0.0,2.0,25.0,0.0,0.0,0.0,0.0,0.0,0.0,-0.010735999999999999,0.026595999999999998,0.991372,-0.7000000000000001,0.42000000000000004,0.07,3.3,3.3,3.3,3.28,3.28,3.29,3.28,3.31,3.3,3.31,3.3,3.28,3.28,3.29,3.28,3.31,3.3,3.3,3.3,3.3,3.31,3.32,3.3,3.3,3.32,3.27,79.0,1.0,1.0,0.0,1.0,1.0,2855116,0.0,0.0
1765221360208,0.0,0.0,2.0,25.0,0.0,0.0,0.0,0.0,0.0,0.0,-0.010735999999999999,0.026595999999999998,0.991372,-0.7000000000000001,0.42000000000000004,0.07,3.3,3.3,3.3,3.28,3.28,3.29,3.28,3.31,3.3,3.31,3.3,3.28,3.28,3.29,3.28,3.31,3.3,3.3,3.3,3.3,3.31,3.32,3.3,3.3,3.33,3.3,79.6,1.0,1.0,0.0,1.0,1.0,2855182,0.0,0.0
1765221360241,0.0,0.0,2.0,25.0,0.0,0.0,0.0,0.0,0.0,0.0,-0.010735999999999999,0.026595999999999998,0.991372,-0.7000000000000001,0.42000000000000004,0.07,3.3,3.3,3.3,3.28,3.28,3.29,3.28,3.31,3.3,3.31,3.3,3.28,3.28,3.29,3.28,3.31,3.3,3.3,3.3,3.3,3.31,3.32,3.3,3.3,3.33,3.3,79.6,1.0,1.0,0.0,0.0,1.0,2855215,0.0,0.0
1765221360274,0.0,0.0,2.0,25.0,0.0,0.0,0.0,0.0,0.0,0.0,-0.008662,0.028059999999999998,0.992714,-0.7000000000000001,0.42000000000000004,0.07,3.3,3.3,3.3,3.28,3.28,3.29,3.28,3.31,3.3,3.31,3.3,3.28,3.28,3.29,3.28,3.31,3.3,3.3,3.3,3.3,3.31,3.32,3.3,3.3,3.33,3.3,79.6,1.0,1.0,0.0,0.0,1.0,2855248,0.0,0.0
1765221360290,0.0,0.0,2.0,25.0,0.0,0.0,0.0,0.0,0.0,0.0,-0.008662,0.028059999999999998,0.992714,-0.56,0.21000000000000002,0.0,3.3,3.3,3.3,3.28,3.28,3.29,3.28,3.31,3.3,3.31,3.3,3.28,3.28,3.29,3.28,3.31,3.3,3.3,3.3,3.3,3.31,3.32,3.3,3.3,3.33,3.3,79.6,1.0,1.0,0.0,0.0,1.0,2855264,0.0,0.0
1765221360326,0.0,0.0,2.0,25.0,0.0,0.0,0.0,0.0,0.0,0.0,-0.008662,0.028059999999999998,0.992714,-0.56,0.21000000000000002,0.0,3.3,3.3,3.3,3.28,3.28,3.29,3.28,3.31,3.3,3.31,3.3,3.28,3.28,3.29,3.28,3.31,3.3,3.3,3.3,3.3,3.31,3.32,3.3,3.3,3.33,3.3,79.6,1.0,1.0,0.0,0.0,1.0,2855300,0.0,0.0
1765221360341,0.0,0.0,1.0,10.0,0.0,0.0,0.0,0.0,0.0,0.0,-0.008662,0.028059999999999998,0.992714,-0.56,0.21000000000000002,0.0,3.3,3.3,3.3,3.28,3.28,3.29,3.28,3.31,3.3,3.31,3.3,3.28,3.28,3.29,3.28,3.31,3.3,3.3,3.3,3.3,3.31,3.32,3.3,3.3,3.33,3.3,79.6,1.0,1.0,0.0,0.0,1.0,2855315,0.0,0.0
1765221360357,0.0,0.0,1.0,10.0,0.0,0.0,0.0,0.0,0.0,0.0,-0.008662,0.028059999999999998,0.992714,-0.56,0.21000000000000002,0.0,3.3,3.3,3.3,3.28,3.28,3.29,3.28,3.31,3.3,3.31,3.3,3.28,3.28,3.29,3.28,3.31,3.3,3.3,3.3,3.3,3.31,3.32,3.3,3.3,3.33,3.3,79.6,1.0,1.0,0.0,0.0,1.0,2855331,0.0,0.0
1765221360390,0.0,0.0,1.0,10.0,0.0,0.0,0.0,0.0,0.0,0.0,-0.008662,0.028059999999999998,0.992714,-0.56,0.21000000000000002,0.0,3.3,3.3,3.3,3.28,3.28,3.29,3.28,3.31,3.3,3.31,3.3,3.28,3.28,3.29,3.28,3.31,3.3,3.3,3.3,3.3,3.31,3.32,3.3,3.3,3.33,3.3,79.6,1.0,1.0,0.0,0.0,1.0,2855364,0.0,0.0
1765221360440,0.0,0.0,1.0,10.0,0.0,0.0,0.0,0.0,0.0,0.0,-0.008662,0.028059999999999998,0.992714,-0.56,0.21000000000000002,0.0,3.3,3.3,3.3,3.28,3.28,3.29,3.28,3.31,3.3,3.31,3.3,3.28,3.28,3.29,3.28,3.31,3.3,3.3,3.3,3.3,3.31,3.32,3.3,3.3,3.33,3.3,79.6,1.0,1.0,0.0,0.0,1.0,2855414,0.0,0.0
1765221360457,0.0,0.0,1.0,10.0,0.0,0.0,0.0,0.0,0.0,0.0,-0.011833999999999999,0.025986,0.98942,-0.56,0.21000000000000002,0.0,3.3,3.3,3.3,3.28,3.28,3.29,3.28,3.31,3.3,3.31,3.3,3.28,3.28,3.29,3.28,3.31,3.3,3.3,3.3,3.3,3.31,3.32,3.3,3.3,3.33,3.3,79.6,1.0,1.0,0.0,0.0,1.0,2855431,0.0,0.0
1765221360524,0.0,0.0,1.0,10.0,0.0,0.0,0.0,0.0,0.0,0.0,-0.011833999999999999,0.025986,0.98942,-0.7000000000000001,0.35000000000000003,0.0,3.3,3.3,3.3,3.28,3.28,3.29,3.28,3.31,3.3,3.31,3.3,3.28,3.28,3.29,3.28,3.31,3.3,3.3,3.3,3.3,3.31,3.32,3.3,3.3,3.33,3.3,79.6,1.0,1.0,0.0,0.0,1.0,2855498,0.0,0.0
1765221360557,0.0,0.0,1.0,10.0,0.0,0.0,0.0,0.0,0.0,0.0,-0.008173999999999999,0.027084,0.99186,-0.7000000000000001,0.35000000000000003,0.0,3.3,3.3,3.3,3.28,3.28,3.29,3.28,3.31,3.3,3.31,3.3,3.28,3.28,3.29,3.28,3.31,3.3,3.3,3.3,3.3,3.31,3.32,3.3,3.3,3.33,3.3,79.6,1.0,1.0,0.0,0.0,1.0,2855531,0.0,0.0
1765221360591,0.0,0.0,1.0,10.0,0.0,0.0,0.0,0.0,0.0,0.0,-0.008173999999999999,0.027084,0.99186,-0.6300000000000001,0.42000000000000004,0.0,3.3,3.3,3.3,3.28,3.28,3.29,3.28,3.31,3.3,3.31,3.3,3.28,3.28,3.29,3.28,3.31,3.3,3.3,3.3,3.3,3.31,3.32,3.3,3.3,3.33,3.3,79.6,1.0,1.0,0.0,0.0,1.0,2855565,0.0,0.0
1765221360609,0.0,0.0,1.0,10.0,0.0,0.0,0.0,0.0,0.0,0.0,-0.008173999999999999,0.027084,0.99186,-0.6300000000000001,0.42000000000000004,0.0,3.3,3.3,3.3,3.28,3.28,3.29,3.28,3.31,3.3,3.31,3.3,3.28,3.28,3.29,3.28,3.31,3.3,3.3,3.3,3.3,3.31,3.32,3.3,3.3,3.33,3.3,79.6,1.0,1.0,0.0,0.0,1.0,2855583,0.0,0.0
1765221360625,0.0,0.0,1.0,10.0,0.0,0.0,0.0,0.0,0.0,0.0,-0.008173999999999999,0.027084,0.99186,-0.6300000000000001,0.42000000000000004,0.0,3.3,3.3,3.3,3.28,3.28,3.29,3.28,3.31,3.3,3.31,3.3,3.28,3.28,3.29,3.28,3.31,3.3,3.3,3.3,3.3,3.31,3.32,3.3,3.3,3.33,3.3,79.6,1.0,1.0,0.0,0.0,1.0,2855599,0.0,0.0
1765221360658,0.0,0.0,1.0,10.0,0.0,0.0,0.0,0.0,0.0,0.0,-0.008173999999999999,0.027084,0.99186,-0.6300000000000001,0.42000000000000004,0.0,3.3,3.3,3.3,3.28,3.28,3.29,3.28,3.31,3.3,3.31,3.3,3.28,3.28,3.29,3.28,3.31,3.3,3.3,3.3,3.3,3.31,3.32,3.3,3.3,3.33,3.3,79.6,1.0,1.0,0.0,0.0,1.0,2855632,0.0,0.0
1765221360676,0.0,0.0,1.0,10.0,0.0,0.0,0.0,0.0,0.0,0.0,-0.008173999999999999,0.027084,0.99186,-0.56,0.21000000000000002,0.07,3.3,3.3,3.3,3.28,3.28,3.29,3.28,3.31,3.3,3.31,3.3,3.28,3.28,3.29,3.28,3.31,3.3,3.3,3.3,3.3,3.31,3.32,3.3,3.3,3.33,3.3,79.6,1.0,1.0,0.0,0.0,1.0,2855650,0.0,0.0
1765221360724,0.0,0.0,1.0,10.0,0.0,0.0,0.0,0.0,0.0,0.0,-0.008173999999999999,0.027084,0.99186,-0.56,0.21000000000000002,0.07,3.3,3.3,3.3,3.28,3.28,3.29,3.28,3.31,3.3,3.31,3.3,3.28,3.28,3.29,3.28,3.31,3.3,3.3,3.3,3.3,3.31,3.32,3.3,3.3,3.33,3.3,79.6,1.0,1.0,0.0,0.0,1.0,2855698,0.0,0.0
1765221360742,0.0,0.0,1.0,10.0,0.0,0.0,0.0,0.0,0.0,0.0,-0.008173999999999999,0.027084,0.99186,-0.56,0.21000000000000002,0.07,3.3,3.3,3.3,3.28,3.28,3.29,3.28,3.31,3.3,3.31,3.3,3.28,3.28,3.29,3.28,3.31,3.3,3.3,3.3,3.3,3.31,3.32,3.3,3.3,3.33,3.3,79.6,1.0,1.0,0.0,0.0,1.0,2855716,0.0,0.0
1765221360757,0.0,0.0,1.0,10.0,0.0,0.0,0.0,0.0,0.0,0.0,-0.008173999999999999,0.027084,0.99186,-0.56,0.21000000000000002,0.07,3.3,3.3,3.3,3.28,3.28,3.29,3.28,3.31,3.3,3.31,3.3,3.28,3.28,3.29,3.28,3.31,3.3,3.3,3.3,3.3,3.31,3.32,3.3,3.3,3.33,3.3,79.6,1.0,1.0,0.0,0.0,1.0,2855731,0.0,0.0
1765221360774,0.0,0.0,1.0,10.0,0.0,0.0,0.0,0.0,0.0,0.0,-0.00976,0.028059999999999998,0.992958,-0.56,0.21000000000000002,0.07,3.3,3.3,3.3,3.28,3.28,3.29,3.28,3.31,3.3,3.31,3.3,3.28,3.28,3.29,3.28,3.31,3.3,3.3,3.3,3.3,3.31,3.32,3.3,3.3,3.33,3.3,79.6,1.0,1.0,0.0,0.0,1.0,2855748,0.0,0.0
1765221360807,0.0,0.0,1.0,10.0,0.0,0.0,0.0,0.0,0.0,0.0,-0.00976,0.028059999999999998,0.992958,-0.56,0.21000000000000002,0.07,3.3,3.3,3.3,3.28,3.28,3.29,3.28,3.31,3.3,3.31,3.3,3.28,3.28,3.29,3.28,3.31,3.3,3.3,3.3,3.3,3.31,3.32,3.3,3.3,3.33,3.3,79.6,1.0,1.0,0.0,0.0,1.0,2855781,0.0,0.0
1765221360824,0.0,0.0,1.0,10.0,0.0,0.0,0.0,0.0,0.0,0.0,-0.00976,0.028059999999999998,0.992958,-0.7000000000000001,0.42000000000000004,-0.07,3.3,3.3,3.3,3.28,3.28,3.29,3.28,3.31,3.3,3.31,3.3,3.28,3.28,3.29,3.28,3.31,3.3,3.3,3.3,3.3,3.31,3.32,3.3,3.3,3.33,3.3,79.6,1.0,1.0,0.0,0.0,1.0,2855798,0.0,0.0
1765221360858,0.0,0.0,1.0,10.0,0.0,0.0,0.0,0.0,0.0,0.0,-0.00976,0.028059999999999998,0.992958,-0.7000000000000001,0.42000000000000004,-0.07,3.3,3.3,3.3,3.28,3.28,3.29,3.28,3.31,3.3,3.31,3.3,3.28,3.28,3.29,3.28,3.31,3.3,3.3,3.3,3.3,3.31,3.32,3.3,3.3,3.33,3.3,79.6,1.0,1.0,0.0,0.0,1.0,2855832,0.0,0.0
1765221360927,0.0,0.0,1.0,10.0,0.0,0.0,0.0,0.0,0.0,0.0,-0.00976,0.028059999999999998,0.992958,-0.7000000000000001,0.42000000000000004,-0.07,3.32,3.32,3.32,3.31,3.28,3.29,3.28,3.31,3.3,3.31,3.3,3.28,3.28,3.29,3.28,3.31,3.3,3.3,3.3,3.3,3.31,3.32,3.3,3.3,3.33,3.3,79.6,1.0,1.0,0.0,0.0,1.0,2855901,0.0,0.0
1765221360941,0.0,0.0,1.0,10.0,0.0,0.0,0.0,0.0,0.0,0.0,-0.00976,0.028059999999999998,0.992958,-0.7000000000000001,0.42000000000000004,-0.07,3.32,3.32,3.32,3.31,3.31,3.31,3.3,3.32,3.3,3.31,3.3,3.28,3.28,3.29,3.28,3.31,3.3,3.3,3.3,3.3,3.31,3.32,3.3,3.3,3.33,3.3,79.6,1.0,1.0,0.0,0.0,1.0,2855915,0.0,0.0
1765221360974,0.0,0.0,1.0,10.0,0.0,0.0,0.0,0.0,0.0,0.0,-0.00976,0.028059999999999998,0.992958,-0.7000000000000001,0.42000000000000004,-0.07,3.32,3.32,3.32,3.31,3.31,3.31,3.3,3.32,3.32,3.32,3.32,3.32,3.3,3.32,3.3,3.31,3.3,3.3,3.3,3.3,3.31,3.32,3.3,3.3,3.33,3.3,79.6,1.0,1.0,0.0,0.0,1.0,2855948,0.0,0.0
1765221360992,0.0,0.0,1.0,10.0,0.0,0.0,0.0,0.0,0.0,0.0,-0.00976,0.028059999999999998,0.992958,-0.7000000000000001,0.42000000000000004,-0.07,3.32,3.32,3.32,3.31,3.31,3.31,3.3,3.32,3.32,3.32,3.32,3.32,3.3,3.32,3.3,3.31,3.32,3.32,3.32,3.32,3.32,3.33,3.33,3.32,3.33,3.3,79.6,1.0,1.0,0.0,0.0,1.0,2855966,0.0,0.0
1765221361025,0.0,0.0,1.0,10.0,0.0,0.0,0.0,0.0,0.0,0.0,-0.009882,0.025376,0.990762,-0.7000000000000001,0.42000000000000004,-0.07,3.32,3.32,3.32,3.31,3.31,3.31,3.3,3.32,3.32,3.32,3.32,3.32,3.3,3.32,3.3,3.31,3.32,3.32,3.32,3.32,3.32,3.33,3.33,3.32,3.33,3.3,79.6,1.0,1.0,0.0,0.0,1.0,2855999,0.0,0.0
1765221361059,0.0,0.0,1.0,10.0,0.0,0.0,0.0,0.0,0.0,0.0,-0.009882,0.025376,0.990762,-0.6300000000000001,0.35000000000000003,0.0,3.32,3.32,3.32,3.31,3.31,3.31,3.3,3.32,3.32,3.32,3.32,3.32,3.3,3.32,3.3,3.31,3.32,3.32,3.32,3.32,3.32,3.33,3.33,3.32,3.33,3.3,79.6,1.0,1.0,0.0,0.0,1.0,2856033,0.0,0.0
1765221361074,0.0,0.0,1.0,10.0,0.0,0.0,0.0,0.0,0.0,0.0,-0.009882,0.025376,0.990762,-0.6300000000000001,0.35000000000000003,0.0,3.32,3.32,3.32,3.31,3.31,3.31,3.3,3.32,3.32,3.32,3.32,3.32,3.3,3.32,3.3,3.31,3.32,3.32,3.32,3.32,3.32,3.33,3.33,3.32,3.33,3.3,79.6,1.0,1.0,0.0,0.0,1.0,2856048,0.0,0.0
1765221361092,0.0,0.0,1.0,10.0,0.0,0.0,0.0,0.0,0.0,0.0,-0.009882,0.025376,0.990762,-0.6300000000000001,0.35000000000000003,0.0,3.32,3.32,3.32,3.31,3.31,3.31,3.3,3.32,3.32,3.32,3.32,3.32,3.3,3.32,3.3,3.31,3.32,3.32,3.32,3.32,3.32,3.33,3.33,3.32,3.33,3.3,79.6,1.0,1.0,0.0,0.0,1.0,2856066,0.0,0.0
1765221361108,0.0,0.0,1.0,10.0,0.0,0.0,0.0,0.0,0.0,0.0,-0.009882,0.025376,0.990762,-0.6300000000000001,0.35000000000000003,0.0,3.32,3.32,3.32,3.31,3.31,3.31,3.3,3.32,3.32,3.32,3.32,3.32,3.3,3.32,3.3,3.31,3.32,3.32,3.32,3.32,3.32,3.33,3.33,3.32,3.33,3.3,79.6,1.0,1.0,0.0,0.0,1.0,2856082,0.0,0.0
1765221361141,0.0,0.0,1.0,10.0,0.0,0.0,0.0,0.0,0.0,0.0,-0.009882,0.025376,0.990762,-0.6300000000000001,0.35000000000000003,0.0,3.32,3.32,3.32,3.31,3.31,3.31,3.3,3.32,3.32,3.32,3.32,3.32,3.3,3.32,3.3,3.31,3.32,3.32,3.32,3.32,3.32,3.33,3.33,3.32,3.33,3.3,79.6,1.0,1.0,0.0,0.0,1.0,2856115,0.0,0.0
1765221361191,0.0,0.0,1.0,10.0,0.0,0.0,0.0,0.0,0.0,0.0,-0.009882,0.025376,0.990762,-0.6300000000000001,0.35000000000000003,0.0,3.32,3.32,3.32,3.31,3.31,3.31,3.3,3.32,3.32,3.32,3.32,3.32,3.3,3.32,3.3,3.31,3.32,3.32,3.32,3.32,3.32,3.33,3.33,3.32,3.33,3.3,79.6,1.0,1.0,0.0,0.0,1.0,2856165,0.0,0.0
1765221361257,0.0,0.0,1.0,10.0,0.0,0.0,0.0,0.0,0.0,0.0,-0.009394,0.028426,0.994178,-0.6300000000000001,0.35000000000000003,0.0,3.32,3.32,3.32,3.31,3.31,3.31,3.3,3.32,3.32,3.32,3.32,3.32,3.3,3.32,3.3,3.31,3.32,3.32,3.32,3.32,3.32,3.33,3.33,3.32,3.33,3.3,79.6,1.0,1.0,0.0,0.0,1.0,2856231,0.0,0.0
1765221361290,0.0,0.0,1.0,10.0,0.0,0.0,0.0,0.0,0.0,0.0,-0.009394,0.028426,0.994178,-0.7000000000000001,0.42000000000000004,0.07,3.32,3.32,3.32,3.31,3.31,3.31,3.3,3.32,3.32,3.32,3.32,3.32,3.3,3.32,3.3,3.31,3.32,3.32,3.32,3.32,3.32,3.33,3.33,3.32,3.33,3.3,79.6,1.0,1.0,0.0,0.0,1.0,2856264,0.0,0.0
1765221361391,0.0,0.0,1.0,10.0,0.0,0.0,0.0,0.0,0.0,0.0,-0.00976,0.02623,0.991128,-0.7000000000000001,0.42000000000000004,0.07,3.32,3.32,3.32,3.31,3.31,3.31,3.3,3.32,3.32,3.32,3.32,3.32,3.3,3.32,3.3,3.31,3.32,3.32,3.32,3.32,3.32,3.33,3.33,3.32,3.33,3.3,79.6,1.0,1.0,0.0,0.0,1.0,2856365,0.0,0.0
1765221361408,0.0,0.0,1.0,10.0,0.0,0.0,0.0,0.0,0.0,0.0,-0.00976,0.02623,0.991128,-0.56,0.35000000000000003,-0.07,3.32,3.32,3.32,3.31,3.31,3.31,3.3,3.32,3.32,3.32,3.32,3.32,3.3,3.32,3.3,3.31,3.32,3.32,3.32,3.32,3.32,3.33,3.33,3.32,3.33,3.3,79.6,1.0,1.0,0.0,0.0,1.0,2856382,0.0,0.0
1765221361442,0.0,0.0,1.0,10.0,0.0,0.0,0.0,0.0,0.0,0.0,-0.00976,0.02623,0.991128,-0.56,0.35000000000000003,-0.07,3.32,3.32,3.32,3.31,3.31,3.31,3.3,3.32,3.32,3.32,3.32,3.32,3.3,3.32,3.3,3.31,3.32,3.32,3.32,3.32,3.32,3.33,3.33,3.32,3.33,3.3,79.6,1.0,1.0,0.0,0.0,1.0,2856416,0.0,0.0
1765221361458,0.0,0.0,1.0,10.0,0.0,0.0,0.0,0.0,0.0,0.0,-0.00976,0.02623,0.991128,-0.56,0.35000000000000003,-0.07,3.32,3.32,3.32,3.31,3.31,3.31,3.3,3.32,3.32,3.32,3.32,3.32,3.3,3.32,3.3,3.31,3.32,3.32,3.32,3.32,3.32,3.33,3.33,3.32,3.33,3.3,79.6,1.0,1.0,0.0,0.0,1.0,2856432,0.0,0.0
1765221361473,0.0,0.0,1.0,10.0,0.0,0.0,0.0,0.0,0.0,0.0,-0.00976,0.02623,0.991128,-0.56,0.35000000000000003,-0.07,3.32,3.32,3.32,3.31,3.31,3.31,3.3,3.32,3.32,3.32,3.32,3.32,3.3,3.32,3.3,3.31,3.32,3.32,3.32,3.32,3.32,3.33,3.33,3.32,3.33,3.3,79.6,1.0,1.0,0.0,0.0,1.0,2856447,0.0,0.0
1765221361490,0.0,0.0,1.0,10.0,0.0,0.0,0.0,0.0,0.0,0.0,-0.00976,0.02623,0.991128,-0.56,0.35000000000000003,-0.07,3.32,3.32,3.32,3.31,3.31,3.31,3.3,3.32,3.32,3.32,3.32,3.32,3.3,3.32,3.3,3.31,3.32,3.32,3.32,3.32,3.32,3.33,3.33,3.32,3.33,3.3,79.6,1.0,1.0,0.0,0.0,1.0,2856464,0.0,0.0
1765221361507,0.0,0.0,1.0,10.0,0.0,0.0,0.0,0.0,0.0,0.0,-0.00976,0.02623,0.991128,-0.56,0.35000000000000003,-0.07,3.32,3.32,3.32,3.31,3.31,3.31,3.3,3.32,3.32,3.32,3.32,3.32,3.3,3.32,3.3,3.31,3.32,3.32,3.32,3.32,3.32,3.33,3.33,3.32,3.33,3.3,79.6,1.0,1.0,0.0,0.0,1.0,2856481,0.0,0.0
1765221361574,0.0,0.0,1.0,10.0,0.0,0.0,0.0,0.0,0.0,0.0,-0.010614,0.024399999999999998,0.991372,-0.56,0.35000000000000003,-0.07,3.32,3.32,3.32,3.31,3.31,3.31,3.3,3.32,3.32,3.32,3.32,3.32,3.3,3.32,3.3,3.31,3.32,3.32,3.32,3.32,3.32,3.33,3.33,3.32,3.33,3.3,79.6,1.0,1.0,0.0,0.0,1.0,2856548,0.0,0.0
1765221361640,0.0,0.0,1.0,10.0,0.0,0.0,0.0,0.0,0.0,0.0,-0.010614,0.024399999999999998,0.991372,-0.56,0.42000000000000004,-0.07,3.32,3.32,3.32,3.31,3.31,3.31,3.3,3.32,3.32,3.32,3.32,3.32,3.3,3.32,3.3,3.31,3.32,3.32,3.32,3.32,3.32,3.33,3.33,3.32,3.33,3.3,79.6,1.0,1.0,0.0,0.0,1.0,2856614,0.0,0.0
1765221361691,0.0,0.0,1.0,10.0,0.0,0.0,0.0,0.0,0.0,0.0,-0.009394,0.027572,0.992592,-0.56,0.42000000000000004,-0.07,3.32,3.32,3.32,3.31,3.31,3.31,3.3,3.32,3.32,3.32,3.32,3.32,3.3,3.32,3.3,3.31,3.32,3.32,3.32,3.32,3.32,3.33,3.33,3.32,3.33,3.3,79.6,1.0,1.0,0.0,0.0,1.0,2856665,0.0,0.0
1765221361724,0.0,0.0,1.0,10.0,0.0,0.0,0.0,0.0,0.0,0.0,-0.009394,0.027572,0.992592,-0.56,0.42000000000000004,-0.07,3.32,3.32,3.32,3.31,3.31,3.31,3.3,3.32,3.32,3.32,3.32,3.32,3.3,3.32,3.3,3.31,3.32,3.32,3.32,3.32,3.32,3.33,3.33,3.32,3.33,3.3,79.6,0.0,1.0,0.0,0.0,1.0,2856698,0.0,0.0
1765221361756,0.0,0.0,1.0,10.0,0.0,0.0,0.0,0.0,0.0,0.0,-0.009394,0.027572,0.992592,-0.56,0.42000000000000004,-0.07,3.32,3.32,3.32,3.31,3.31,3.31,3.3,3.32,3.32,3.32,3.32,3.32,3.3,3.32,3.3,3.31,3.32,3.32,3.32,3.32,3.32,3.33,3.33,3.32,3.33,3.3,79.6,0.0,1.0,0.0,0.0,1.0,2856730,0.0,0.0
1765221361775,0.0,0.0,1.0,10.0,0.0,0.0,0.0,0.0,0.0,0.0,-0.009394,0.027572,0.992592,-0.6300000000000001,0.28,0.0,3.32,3.32,3.32,3.31,3.31,3.31,3.3,3.32,3.32,3.32,3.32,3.32,3.3,3.32,3.3,3.31,3.32,3.32,3.32,3.32,3.32,3.33,3.33,3.32,3.33,3.3,79.6,0.0,1.0,0.0,0.0,1.0,2856749,0.0,0.0
1765221361791,0.0,0.0,1.0,10.0,0.0,0.0,0.0,0.0,0.0,0.0,-0.009394,0.027572,0.992592,-0.6300000000000001,0.28,0.0,3.32,3.32,3.32,3.31,3.31,3.31,3.3,3.32,3.32,3.32,3.32,3.32,3.3,3.32,3.3,3.31,3.32,3.32,3.32,3.32,3.32,3.33,3.33,3.32,3.33,3.3,79.6,0.0,1.0,0.0,0.0,1.0,2856765,0.0,0.0
1765221361792,0.0,0.0,1.0,10.0,0.0,0.0,0.0,0.0,0.0,0.0,-0.009394,0.027572,0.992592,-0.6300000000000001,0.28,0.0,3.32,3.32,3.32,3.31,3.31,3.31,3.3,3.32,3.32,3.32,3.32,3.32,3.3,3.32,3.3,3.31,3.32,3.32,3.32,3.32,3.32,3.33,3.33,3.32,3.33,3.3,79.6,0.0,1.0,0.0,0.0,1.0,2856766,0.0,0.0
1765221361841,0.0,0.0,1.0,10.0,0.0,0.0,0.0,0.0,0.0,0.0,-0.009394,0.027572,0.992592,-0.6300000000000001,0.28,0.0,3.32,3.32,3.32,3.31,3.31,3.31,3.3,3.32,3.32,3.32,3.32,3.32,3.3,3.32,3.3,3.31,3.32,3.32,3.32,3.32,3.32,3.33,3.33,3.32,3.33,3.3,79.6,0.0,1.0,0.0,0.0,1.0,2856815,0.0,0.0
1765221361892,0.0,0.0,1.0,10.0,0.0,0.0,0.0,0.0,0.0,0.0,-0.009394,0.027572,0.992592,-0.6300000000000001,0.28,0.0,3.32,3.32,3.32,3.31,3.31,3.31,3.3,3.32,3.32,3.32,3.32,3.32,3.3,3.32,3.3,3.31,3.32,3.32,3.32,3.32,3.32,3.33,3.33,3.32,3.33,3.3,79.6,0.0,1.0,0.0,0.0,1.0,2856866,0.0,0.0
1765221361975,0.0,0.0,1.0,10.0,0.0,0.0,0.0,0.0,0.0,0.0,-0.009394,0.027572,0.992592,-0.6300000000000001,0.35000000000000003,0.0,3.32,3.32,3.32,3.31,3.31,3.31,3.3,3.32,3.32,3.32,3.32,3.32,3.3,3.32,3.3,3.31,3.32,3.32,3.32,3.32,3.32,3.33,3.33,3.32,3.33,3.3,79.6,0.0,1.0,0.0,0.0,1.0,2856949,0.0,0.0
1765221361991,0.0,0.0,1.0,10.0,0.0,0.0,0.0,0.0,0.0,0.0,-0.009394,0.027572,0.992592,-0.6300000000000001,0.35000000000000003,0.0,3.32,3.32,3.32,3.31,3.31,3.31,3.3,3.32,3.32,3.32,3.32,3.32,3.3,3.32,3.3,3.31,3.32,3.32,3.32,3.32,3.32,3.33,3.33,3.32,3.33,3.3,79.6,0.0,1.0,0.0,0.0,1.0,2856965,0.0,0.0
1765221362075,0.0,0.0,1.0,10.0,0.0,0.0,0.0,0.0,0.0,0.0,-0.0075639999999999995,0.025376,0.99003,-0.6300000000000001,0.35000000000000003,0.0,3.32,3.32,3.32,3.31,3.31,3.31,3.3,3.32,3.32,3.32,3.32,3.32,3.3,3.32,3.3,3.31,3.32,3.32,3.32,3.32,3.32,3.33,3.33,3.32,3.33,3.3,79.6,0.0,1.0,0.0,0.0,1.0,2857049,0.0,0.0
1765221362108,0.0,0.0,1.0,10.0,0.0,0.0,0.0,0.0,0.0,0.0,-0.0075639999999999995,0.025376,0.99003,-0.56,0.14,0.0,3.32,3.32,3.32,3.31,3.31,3.31,3.3,3.32,3.32,3.32,3.32,3.32,3.3,3.32,3.3,3.31,3.32,3.32,3.32,3.32,3.32,3.33,3.33,3.32,3.33,3.3,79.6,0.0,1.0,0.0,0.0,1.0,2857082,0.0,0.0
1765221362141,0.0,0.0,1.0,10.0,0.0,0.0,0.0,0.0,0.0,0.0,-0.0075639999999999995,0.025376,0.99003,-0.56,0.14,0.0,3.32,3.32,3.32,3.31,3.31,3.31,3.3,3.32,3.32,3.32,3.32,3.32,3.3,3.32,3.3,3.31,3.32,3.32,3.32,3.32,3.32,3.33,3.33,3.32,3.33,3.3,79.6,0.0,1.0,0.0,0.0,1.0,2857115,0.0,0.0
1765221362158,0.0,0.0,1.0,10.0,0.0,0.0,0.0,0.0,0.0,0.0,-0.0075639999999999995,0.025376,0.99003,-0.56,0.14,0.0,3.32,3.32,3.32,3.31,3.31,3.31,3.3,3.32,3.32,3.32,3.32,3.32,3.3,3.32,3.3,3.31,3.32,3.32,3.32,3.32,3.32,3.33,3.33,3.32,3.33,3.3,79.6,0.0,1.0,0.0,0.0,1.0,2857132,0.0,0.0
1765221362175,0.0,0.0,1.0,10.0,0.0,0.0,0.0,0.0,0.0,0.0,-0.0075639999999999995,0.025376,0.99003,-0.56,0.14,0.0,3.32,3.32,3.32,3.31,3.31,3.31,3.3,3.32,3.32,3.32,3.32,3.32,3.3,3.32,3.3,3.31,3.32,3.32,3.32,3.32,3.32,3.33,3.33,3.32,3.33,3.3,79.6,0.0,1.0,0.0,0.0,1.0,2857149,0.0,0.0
1765221362209,0.0,0.0,1.0,10.0,0.0,0.0,0.0,0.0,0.0,0.0,-0.0075639999999999995,0.025376,0.99003,-0.56,0.14,0.0,3.32,3.32,3.32,3.31,3.31,3.31,3.3,3.32,3.32,3.32,3.32,3.32,3.3,3.32,3.3,3.31,3.32,3.32,3.32,3.32,3.32,3.33,3.33,3.32,3.33,3.3,79.6,0.0,1.0,0.0,0.0,1.0,2857183,0.0,0.0
1765221362259,0.0,0.0,1.0,10.0,0.0,0.0,0.0,0.0,0.0,0.0,-0.014029999999999999,0.028059999999999998,0.993324,-0.56,0.14,0.0,3.32,3.32,3.32,3.31,3.31,3.31,3.3,3.32,3.32,3.32,3.32,3.32,3.3,3.32,3.3,3.31,3.32,3.32,3.32,3.32,3.32,3.33,3.33,3.32,3.33,3.3,79.6,0.0,1.0,0.0,0.0,1.0,2857233,0.0,0.0
1765221362275,0.0,0.0,1.0,10.0,0.0,0.0,0.0,0.0,0.0,0.0,-0.014029999999999999,0.028059999999999998,0.993324,-0.56,0.14,0.0,3.32,3.32,3.32,3.31,3.31,3.31,3.3,3.32,3.32,3.32,3.32,3.32,3.3,3.32,3.3,3.31,3.32,3.32,3.32,3.32,3.32,3.33,3.33,3.32,3.33,3.3,79.6,0.0,1.0,0.0,0.0,1.0,2857249,0.0,0.0
1765221362325,0.0,0.0,1.0,10.0,0.0,0.0,0.0,0.0,0.0,0.0,-0.014029999999999999,0.028059999999999998,0.993324,-0.6300000000000001,0.35000000000000003,0.0,3.32,3.32,3.32,3.31,3.31,3.31,3.3,3.32,3.32,3.32,3.32,3.32,3.3,3.32,3.3,3.31,3.32,3.32,3.32,3.32,3.32,3.33,3.33,3.32,3.33,3.3,79.6,0.0,1.0,0.0,0.0,1.0,2857299,0.0,0.0
1765221362374,0.0,0.0,1.0,10.0,0.0,0.0,0.0,0.0,0.0,0.0,-0.010735999999999999,0.027327999999999998,0.992348,-0.6300000000000001,0.35000000000000003,0.0,3.32,3.32,3.32,3.31,3.31,3.31,3.3,3.32,3.32,3.32,3.32,3.32,3.3,3.32,3.3,3.31,3.32,3.32,3.32,3.32,3.32,3.33,3.33,3.32,3.33,3.3,79.6,0.0,1.0,0.0,0.0,1.0,2857348,0.0,0.0
1765221362392,0.0,0.0,1.0,10.0,0.0,0.0,0.0,0.0,0.0,0.0,-0.010735999999999999,0.027327999999999998,0.992348,-0.6300000000000001,0.35000000000000003,0.0,3.32,3.32,3.32,3.31,3.31,3.31,3.3,3.32,3.32,3.32,3.32,3.32,3.3,3.32,3.3,3.31,3.32,3.32,3.32,3.32,3.32,3.33,3.33,3.32,3.33,3.3,79.6,0.0,1.0,0.0,0.0,1.0,2857366,0.0,0.0
1765221362407,0.0,0.0,1.0,10.0,0.0,0.0,0.0,0.0,0.0,0.0,-0.010735999999999999,0.027327999999999998,0.992348,-0.7000000000000001,0.35000000000000003,0.0,3.32,3.32,3.32,3.31,3.31,3.31,3.3,3.32,3.32,3.32,3.32,3.32,3.3,3.32,3.3,3.31,3.32,3.32,3.32,3.32,3.32,3.33,3.33,3.32,3.33,3.3,79.6,0.0,1.0,0.0,0.0,1.0,2857381,0.0,0.0
1765221362424,0.0,0.0,1.0,10.0,0.0,0.0,0.0,0.0,0.0,0.0,-0.010735999999999999,0.027327999999999998,0.992348,-0.7000000000000001,0.35000000000000003,0.0,3.32,3.32,3.32,3.31,3.31,3.31,3.3,3.32,3.32,3.32,3.32,3.32,3.3,3.32,3.3,3.31,3.32,3.32,3.32,3.32,3.32,3.33,3.33,3.32,3.33,3.3,79.6,0.0,1.0,0.0,0.0,1.0,2857398,0.0,0.0
1765221362440,0.0,0.0,1.0,10.0,0.0,0.0,0.0,0.0,0.0,0.0,-0.010735999999999999,0.027327999999999998,0.992348,-0.7000000000000001,0.35000000000000003,0.0,3.32,3.32,3.32,3.31,3.31,3.31,3.3,3.32,3.32,3.32,3.32,3.32,3.3,3.32,3.3,3.31,3.32,3.32,3.32,3.32,3.32,3.33,3.33,3.32,3.33,3.3,79.6,0.0,1.0,0.0,0.0,1.0,2857414,0.0,0.0
1765221362457,0.0,0.0,1.0,10.0,0.0,0.0,0.0,0.0,0.0,0.0,-0.010735999999999999,0.027327999999999998,0.992348,-0.7000000000000001,0.35000000000000003,0.0,3.32,3.32,3.32,3.31,3.31,3.31,3.3,3.32,3.32,3.32,3.32,3.32,3.3,3.32,3.3,3.31,3.32,3.32,3.32,3.32,3.32,3.33,3.33,3.32,3.33,3.3,79.6,0.0,1.0,0.0,0.0,1.0,2857431,0.0,0.0
1765221362474,0.0,0.0,1.0,10.0,0.0,0.0,0.0,0.0,0.0,0.0,-0.010735999999999999,0.027327999999999998,0.992348,-0.7000000000000001,0.35000000000000003,0.0,3.32,3.32,3.32,3.31,3.31,3.31,3.3,3.32,3.32,3.32,3.32,3.32,3.3,3.32,3.3,3.31,3.32,3.32,3.32,3.32,3.32,3.33,3.33,3.32,3.33,3.3,79.6,0.0,1.0,0.0,0.0,1.0,2857448,0.0,0.0
1765221362490,0.0,0.0,1.0,10.0,0.0,0.0,0.0,0.0,0.0,0.0,-0.010735999999999999,0.027327999999999998,0.992348,-0.7000000000000001,0.35000000000000003,0.0,3.32,3.32,3.32,3.31,3.31,3.31,3.3,3.32,3.32,3.32,3.32,3.32,3.3,3.32,3.3,3.31,3.32,3.32,3.32,3.32,3.32,3.33,3.33,3.32,3.33,3.3,79.6,0.0,1.0,0.0,0.0,1.0,2857464,0.0,0.0
1765221362507,0.0,0.0,1.0,10.0,0.0,0.0,0.0,0.0,0.0,0.0,-0.010735999999999999,0.027327999999999998,0.992348,-0.7000000000000001,0.35000000000000003,0.0,3.32,3.32,3.32,3.31,3.31,3.31,3.3,3.32,3.32,3.32,3.32,3.32,3.3,3.32,3.3,3.31,3.32,3.32,3.32,3.32,3.32,3.33,3.33,3.32,3.33,3.3,79.6,0.0,1.0,0.0,0.0,1.0,2857481,0.0,0.0
1765221362524,0.0,0.0,1.0,10.0,0.0,0.0,0.0,0.0,0.0,0.0,-0.010735999999999999,0.027327999999999998,0.992348,-0.7000000000000001,0.35000000000000003,0.0,3.32,3.32,3.32,3.31,3.31,3.31,3.3,3.32,3.32,3.32,3.32,3.32,3.3,3.32,3.3,3.31,3.32,3.32,3.32,3.32,3.33,3.33,3.33,3.32,3.33,3.3,79.6,0.0,1.0,0.0,0.0,1.0,2857498,0.0,0.0
1765221362557,0.0,0.0,1.0,10.0,0.0,0.0,0.0,0.0,0.0,0.0,-0.010735999999999999,0.027327999999999998,0.992348,-0.7000000000000001,0.35000000000000003,0.0,3.32,3.32,3.32,3.31,3.31,3.31,3.3,3.32,3.32,3.32,3.32,3.32,3.3,3.32,3.3,3.31,3.32,3.32,3.32,3.32,3.33,3.33,3.33,3.32,3.33,3.3,79.6,0.0,1.0,0.0,0.0,1.0,2857531,0.0,0.0
1765221362574,0.0,0.0,1.0,10.0,0.0,0.0,0.0,0.0,0.0,0.0,-0.010735999999999999,0.027327999999999998,0.992348,-0.7000000000000001,0.35000000000000003,0.0,3.32,3.32,3.32,3.31,3.31,3.31,3.3,3.32,3.32,3.32,3.32,3.32,3.3,3.32,3.3,3.31,3.32,3.32,3.32,3.32,3.33,3.33,3.33,3.32,3.33,3.3,79.6,0.0,1.0,0.0,0.0,1.0,2857548,0.0,0.0
1765221362591,0.0,0.0,1.0,10.0,0.0,0.0,0.0,0.0,0.0,0.0,-0.010735999999999999,0.027327999999999998,0.992348,-0.7000000000000001,0.35000000000000003,0.0,3.32,3.32,3.32,3.31,3.31,3.31,3.3,3.32,3.32,3.32,3.32,3.32,3.3,3.32,3.3,3.31,3.32,3.32,3.32,3.32,3.33,3.33,3.33,3.32,3.33,3.3,79.6,0.0,1.0,0.0,0.0,1.0,2857565,0.0,0.0
1765221362608,0.0,0.0,1.0,10.0,0.0,0.0,0.0,0.0,0.0,0.0,-0.010735999999999999,0.027327999999999998,0.992348,-0.7000000000000001,0.35000000000000003,0.0,3.32,3.32,3.32,3.31,3.31,3.31,3.3,3.32,3.32,3.32,3.32,3.32,3.3,3.32,3.3,3.31,3.32,3.32,3.32,3.32,3.33,3.33,3.33,3.32,3.33,3.3,79.6,0.0,1.0,0.0,0.0,1.0,2857582,0.0,0.0
1765221362625,0.0,0.0,1.0,10.0,0.0,0.0,0.0,0.0,0.0,0.0,-0.010735999999999999,0.027327999999999998,0.992348,-0.7000000000000001,0.35000000000000003,0.0,3.32,3.32,3.32,3.31,3.31,3.31,3.3,3.32,3.32,3.32,3.32,3.32,3.3,3.32,3.3,3.31,3.32,3.32,3.32,3.32,3.33,3.33,3.33,3.32,3.33,3.3,79.6,0.0,1.0,0.0,0.0,1.0,2857599,0.0,0.0
1765221362642,0.0,0.0,1.0,10.0,0.0,0.0,0.0,0.0,0.0,0.0,-0.010735999999999999,0.027327999999999998,0.992348,-0.56,0.35000000000000003,0.0,3.32,3.32,3.32,3.31,3.31,3.31,3.3,3.32,3.32,3.32,3.32,3.32,3.3,3.32,3.3,3.31,3.32,3.32,3.32,3.32,3.33,3.33,3.33,3.32,3.33,3.3,79.6,0.0,1.0,0.0,0.0,1.0,2857616,0.0,0.0
1765221362658,0.0,0.0,1.0,10.0,0.0,0.0,0.0,0.0,0.0,0.0,-0.010735999999999999,0.027327999999999998,0.992348,-0.56,0.35000000000000003,0.0,3.32,3.32,3.32,3.31,3.31,3.31,3.3,3.32,3.32,3.32,3.32,3.32,3.3,3.32,3.3,3.31,3.32,3.32,3.32,3.32,3.33,3.33,3.33,3.32,3.33,3.3,79.6,0.0,1.0,0.0,0.0,1.0,2857632,0.0,0.0
1765221362690,0.0,0.0,1.0,10.0,0.0,0.0,0.0,0.0,0.0,0.0,-0.010735999999999999,0.027327999999999998,0.992348,-0.56,0.35000000000000003,0.0,3.32,3.32,3.32,3.31,3.31,3.31,3.3,3.32,3.32,3.32,3.32,3.32,3.3,3.32,3.3,3.31,3.32,3.32,3.32,3.32,3.33,3.33,3.33,3.32,3.33,3.3,79.6,0.0,1.0,0.0,0.0,1.0,2857664,0.0,0.0
1765221362708,0.0,0.0,1.0,10.0,0.0,0.0,0.0,0.0,0.0,0.0,-0.010735999999999999,0.027327999999999998,0.992348,-0.56,0.35000000000000003,0.0,3.32,3.32,3.32,3.31,3.31,3.31,3.3,3.32,3.32,3.32,3.32,3.32,3.3,3.32,3.3,3.31,3.32,3.32,3.32,3.32,3.33,3.33,3.33,3.32,3.33,3.3,79.6,0.0,1.0,0.0,0.0,1.0,2857682,0.0,0.0
1765221362741,0.0,0.0,1.0,10.0,0.0,0.0,0.0,0.0,0.0,0.0,-0.010735999999999999,0.027327999999999998,0.992348,-0.56,0.35000000000000003,0.0,3.32,3.32,3.32,3.31,3.31,3.31,3.3,3.32,3.32,3.32,3.32,3.32,3.3,3.32,3.3,3.31,3.32,3.32,3.32,3.32,3.33,3.33,3.33,3.32,3.33,3.3,79.6,0.0,1.0,0.0,0.0,1.0,2857715,0.0,0.0
1765221362824,0.0,0.0,1.0,10.0,0.0,0.0,0.0,0.0,0.0,0.0,-0.010735999999999999,0.024888,0.9910059999999999,-0.56,0.35000000000000003,0.0,3.32,3.32,3.32,3.31,3.31,3.31,3.3,3.32,3.32,3.32,3.32,3.32,3.3,3.32,3.3,3.31,3.32,3.32,3.32,3.32,3.33,3.33,3.33,3.32,3.33,3.3,79.6,0.0,1.0,0.0,0.0,1.0,2857798,0.0,0.0
1765221362841,0.0,0.0,1.0,10.0,0.0,0.0,0.0,0.0,0.0,0.0,-0.010735999999999999,0.024888,0.9910059999999999,-0.56,0.35000000000000003,0.0,3.32,3.32,3.32,3.31,3.31,3.31,3.3,3.32,3.32,3.32,3.32,3.32,3.3,3.32,3.3,3.31,3.32,3.32,3.32,3.32,3.33,3.33,3.33,3.32,3.33,3.3,79.6,0.0,1.0,0.0,0.0,1.0,2857815,0.0,0.0
1765221362875,0.0,0.0,1.0,10.0,0.0,0.0,0.0,0.0,0.0,0.0,-0.010735999999999999,0.024888,0.9910059999999999,-0.56,0.35000000000000003,0.0,3.32,3.32,3.32,3.31,3.31,3.31,3.3,3.32,3.32,3.32,3.32,3.32,3.3,3.32,3.3,3.31,3.32,3.32,3.32,3.32,3.33,3.33,3.33,3.32,3.33,3.3,79.6,0.0,1.0,0.0,0.0,1.0,2857849,0.0,0.0
1765221362891,0.0,0.0,1.0,10.0,0.0,0.0,0.0,0.0,0.0,0.0,-0.010735999999999999,0.024888,0.9910059999999999,-0.56,0.35000000000000003,0.0,3.32,3.32,3.32,3.31,3.31,3.31,3.3,3.32,3.32,3.32,3.32,3.32,3.3,3.32,3.3,3.31,3.32,3.32,3.32,3.32,3.33,3.33,3.33,3.32,3.33,3.3,79.6,0.0,1.0,0.0,0.0,1.0,2857865,0.0,0.0
1765221362908,0.0,0.0,1.0,10.0,0.0,0.0,0.0,0.0,0.0,0.0,-0.010735999999999999,0.024888,0.9910059999999999,-0.56,0.35000000000000003,0.0,3.32,3.32,3.32,3.31,3.31,3.31,3.3,3.32,3.32,3.32,3.32,3.32,3.3,3.32,3.3,3.31,3.32,3.32,3.32,3.32,3.33,3.33,3.33,3.32,3.33,3.3,79.6,0.0,1.0,0.0,0.0,1.0,2857882,0.0,0.0
1765221362924,0.0,0.0,1.0,10.0,0.0,0.0,0.0,0.0,0.0,0.0,-0.010735999999999999,0.024888,0.9910059999999999,-0.56,0.35000000000000003,0.0,3.32,3.32,3.32,3.31,3.31,3.31,3.3,3.32,3.32,3.32,3.32,3.32,3.3,3.32,3.3,3.31,3.32,3.32,3.32,3.32,3.33,3.33,3.33,3.32,3.33,3.3,79.6,0.0,1.0,0.0,0.0,1.0,2857898,0.0,0.0
1765221362942,0.0,0.0,1.0,10.0,0.0,0.0,0.0,0.0,0.0,0.0,-0.010735999999999999,0.024888,0.9910059999999999,-0.56,0.35000000000000003,0.0,3.32,3.32,3.32,3.31,3.31,3.31,3.3,3.32,3.32,3.32,3.32,3.32,3.3,3.32,3.3,3.31,3.32,3.32,3.32,3.32,3.33,3.33,3.33,3.32,3.33,3.3,79.6,0.0,1.0,0.0,0.0,1.0,2857916,0.0,0.0
1765221363007,0.0,0.0,1.0,10.0,0.0,0.0,0.0,0.0,0.0,0.0,-0.008418,0.027206,0.99308,-0.56,0.35000000000000003,0.0,3.32,3.32,3.32,3.31,3.31,3.31,3.3,3.32,3.32,3.32,3.32,3.32,3.3,3.32,3.3,3.31,3.32,3.32,3.32,3.32,3.33,3.33,3.33,3.32,3.33,3.3,79.6,0.0,1.0,0.0,0.0,1.0,2857981,0.0,0.0
1765221363008,0.0,0.0,1.0,10.0,0.0,0.0,0.0,0.0,0.0,0.0,-0.008418,0.027206,0.99308,-0.56,0.35000000000000003,0.0,3.32,3.32,3.32,3.31,3.31,3.31,3.3,3.32,3.32,3.32,3.32,3.32,3.3,3.32,3.3,3.31,3.32,3.32,3.32,3.32,3.33,3.33,3.33,3.32,3.33,3.3,79.6,0.0,1.0,0.0,0.0,1.0,2857982,0.0,0.0
1765221363058,0.0,0.0,1.0,10.0,0.0,0.0,0.0,0.0,0.0,0.0,-0.008418,0.027206,0.99308,-0.49000000000000005,0.21000000000000002,0.0,3.32,3.32,3.32,3.31,3.31,3.31,3.3,3.32,3.32,3.32,3.32,3.32,3.3,3.32,3.3,3.31,3.32,3.32,3.32,3.32,3.33,3.33,3.33,3.32,3.33,3.3,79.6,0.0,1.0,0.0,0.0,1.0,2858032,0.0,0.0
1765221363125,0.0,0.0,1.0,10.0,0.0,0.0,0.0,0.0,0.0,0.0,-0.008539999999999999,0.025863999999999998,0.9952759999999999,-0.49000000000000005,0.21000000000000002,0.0,3.32,3.32,3.32,3.31,3.31,3.31,3.3,3.32,3.32,3.32,3.32,3.32,3.3,3.32,3.3,3.31,3.32,3.32,3.32,3.32,3.33,3.33,3.33,3.32,3.33,3.3,79.6,0.0,1.0,0.0,0.0,1.0,2858099,0.0,0.0
1765221363140,0.0,0.0,1.0,10.0,0.0,0.0,0.0,0.0,0.0,0.0,-0.008539999999999999,0.025863999999999998,0.9952759999999999,-0.56,0.35000000000000003,0.0,3.32,3.32,3.32,3.31,3.31,3.31,3.3,3.32,3.32,3.32,3.32,3.32,3.3,3.32,3.3,3.31,3.32,3.32,3.32,3.32,3.33,3.33,3.33,3.32,3.33,3.3,79.6,0.0,1.0,0.0,0.0,1.0,2858114,0.0,0.0
1765221363158,0.0,0.0,1.0,10.0,0.0,0.0,0.0,0.0,0.0,0.0,-0.008539999999999999,0.025863999999999998,0.9952759999999999,-0.56,0.35000000000000003,0.0,3.32,3.32,3.32,3.31,3.31,3.31,3.3,3.32,3.32,3.32,3.32,3.32,3.3,3.32,3.3,3.31,3.32,3.32,3.32,3.32,3.33,3.33,3.33,3.32,3.33,3.3,79.6,0.0,1.0,0.0,0.0,1.0,2858132,0.0,0.0
1765221363191,0.0,0.0,1.0,10.0,0.0,0.0,0.0,0.0,0.0,0.0,-0.008662,0.026962,0.9916159999999999,-0.56,0.35000000000000003,0.0,3.32,3.32,3.32,3.31,3.31,3.31,3.3,3.32,3.32,3.32,3.32,3.32,3.3,3.32,3.3,3.31,3.32,3.32,3.32,3.32,3.33,3.33,3.33,3.32,3.33,3.3,79.6,0.0,1.0,0.0,0.0,1.0,2858165,0.0,0.0
1765221363224,0.0,0.0,1.0,10.0,0.0,0.0,0.0,0.0,0.0,0.0,-0.008662,0.026962,0.9916159999999999,-0.49000000000000005,0.35000000000000003,0.0,3.32,3.32,3.32,3.31,3.31,3.31,3.3,3.32,3.32,3.32,3.32,3.32,3.3,3.32,3.3,3.31,3.32,3.32,3.32,3.32,3.33,3.33,3.33,3.32,3.33,3.3,79.6,0.0,1.0,0.0,0.0,1.0,2858198,0.0,0.0
1765221363257,0.0,0.0,1.0,10.0,0.0,0.0,0.0,0.0,0.0,0.0,-0.01098,0.025986,0.991372,-0.49000000000000005,0.35000000000000003,0.0,3.32,3.32,3.32,3.31,3.31,3.31,3.3,3.32,3.32,3.32,3.32,3.32,3.3,3.32,3.3,3.31,3.32,3.32,3.32,3.32,3.33,3.33,3.33,3.32,3.33,3.3,79.6,0.0,1.0,0.0,0.0,1.0,2858231,0.0,0.0
1765221363290,0.0,0.0,1.0,10.0,0.0,0.0,0.0,0.0,0.0,0.0,-0.01098,0.025986,0.991372,-0.49000000000000005,0.35000000000000003,0.0,3.32,3.32,3.32,3.31,3.31,3.31,3.3,3.32,3.32,3.32,3.32,3.32,3.3,3.32,3.3,3.31,3.32,3.32,3.32,3.32,3.33,3.33,3.33,3.32,3.33,3.3,79.6,0.0,1.0,0.0,0.0,1.0,2858264,0.0,0.0
1765221363308,0.0,0.0,1.0,10.0,0.0,0.0,0.0,0.0,0.0,0.0,-0.01098,0.025986,0.991372,-0.49000000000000005,0.35000000000000003,0.0,3.32,3.32,3.32,3.31,3.31,3.31,3.3,3.32,3.32,3.32,3.32,3.32,3.3,3.32,3.3,3.31,3.32,3.32,3.32,3.32,3.33,3.33,3.33,3.32,3.33,3.3,79.6,0.0,1.0,0.0,0.0,1.0,2858282,0.0,0.0
1765221363325,0.0,0.0,1.0,10.0,0.0,0.0,0.0,0.0,0.0,0.0,-0.01098,0.025986,0.991372,-0.56,0.28,0.0,3.32,3.32,3.32,3.31,3.31,3.31,3.3,3.32,3.32,3.32,3.32,3.32,3.3,3.32,3.3,3.31,3.32,3.32,3.32,3.32,3.33,3.33,3.33,3.32,3.33,3.3,79.6,0.0,1.0,0.0,0.0,1.0,2858299,0.0,0.0
1765221363342,0.0,0.0,1.0,10.0,0.0,0.0,0.0,0.0,0.0,0.0,-0.01098,0.025986,0.991372,-0.56,0.28,0.0,3.32,3.32,3.32,3.31,3.31,3.31,3.3,3.32,3.32,3.32,3.32,3.32,3.3,3.32,3.3,3.31,3.32,3.32,3.32,3.32,3.33,3.33,3.33,3.32,3.33,3.3,79.6,0.0,1.0,0.0,0.0,1.0,2858316,0.0,0.0
1765221363374,0.0,0.0,1.0,10.0,0.0,0.0,0.0,0.0,0.0,0.0,-0.01098,0.025986,0.991372,-0.56,0.28,0.0,3.32,3.32,3.32,3.31,3.31,3.31,3.3,3.32,3.32,3.32,3.32,3.32,3.3,3.32,3.3,3.31,3.32,3.32,3.32,3.32,3.33,3.33,3.33,3.32,3.33,3.3,79.6,0.0,1.0,0.0,0.0,1.0,2858348,0.0,0.0
1765221363441,0.0,0.0,1.0,10.0,0.0,0.0,0.0,0.0,0.0,0.0,-0.01098,0.025986,0.991372,-0.56,0.28,0.0,3.32,3.32,3.32,3.31,3.31,3.31,3.3,3.32,3.32,3.32,3.32,3.32,3.3,3.32,3.3,3.31,3.32,3.32,3.32,3.32,3.33,3.33,3.33,3.32,3.33,3.3,79.6,0.0,1.0,0.0,0.0,1.0,2858415,0.0,0.0
1765221363475,0.0,0.0,1.0,10.0,0.0,0.0,0.0,0.0,0.0,0.0,-0.01098,0.025986,0.991372,-0.56,0.28,0.0,3.32,3.32,3.32,3.31,3.31,3.31,3.3,3.32,3.32,3.32,3.32,3.32,3.3,3.32,3.3,3.31,3.32,3.32,3.32,3.32,3.33,3.33,3.33,3.32,3.33,3.3,79.6,0.0,1.0,0.0,0.0,1.0,2858449,0.0,0.0
1765221363541,0.0,0.0,1.0,10.0,0.0,0.0,0.0,0.0,0.0,0.0,-0.009271999999999999,0.026595999999999998,0.994544,-0.56,0.28,0.0,3.32,3.32,3.32,3.31,3.31,3.31,3.3,3.32,3.32,3.32,3.32,3.32,3.3,3.32,3.3,3.31,3.32,3.32,3.32,3.32,3.33,3.33,3.33,3.32,3.33,3.3,79.6,0.0,1.0,0.0,1.0,1.0,2858515,0.0,0.0
1765221363575,0.0,0.0,1.0,10.0,0.0,0.0,0.0,0.0,0.0,0.0,-0.009271999999999999,0.026595999999999998,0.994544,-0.49000000000000005,0.42000000000000004,0.0,3.32,3.32,3.32,3.31,3.31,3.31,3.3,3.32,3.32,3.32,3.32,3.32,3.3,3.32,3.3,3.31,3.32,3.32,3.32,3.32,3.33,3.33,3.33,3.32,3.33,3.3,79.6,0.0,1.0,0.0,1.0,1.0,2858549,0.0,0.0
1765221363606,0.0,0.0,1.0,10.0,0.0,0.0,0.0,0.0,0.0,0.0,-0.009271999999999999,0.026595999999999998,0.994544,-0.49000000000000005,0.42000000000000004,0.0,3.32,3.32,3.32,3.31,3.31,3.31,3.3,3.32,3.32,3.32,3.32,3.32,3.3,3.32,3.3,3.31,3.32,3.32,3.32,3.32,3.33,3.33,3.33,3.32,3.33,3.3,79.6,0.0,1.0,0.0,1.0,1.0,2858580,0.0,0.0
1765221363624,0.0,0.0,1.0,10.0,0.0,0.0,0.0,0.0,0.0,0.0,-0.009271999999999999,0.026595999999999998,0.994544,-0.49000000000000005,0.42000000000000004,0.0,3.32,3.32,3.32,3.31,3.31,3.31,3.3,3.32,3.32,3.32,3.32,3.32,3.3,3.32,3.3,3.31,3.32,3.32,3.32,3.32,3.33,3.33,3.33,3.32,3.33,3.3,79.6,0.0,1.0,0.0,1.0,1.0,2858598,0.0,0.0
1765221363641,0.0,0.0,1.0,10.0,0.0,0.0,0.0,0.0,0.0,0.0,-0.009271999999999999,0.026595999999999998,0.994544,-0.49000000000000005,0.42000000000000004,0.0,3.32,3.32,3.32,3.31,3.31,3.31,3.3,3.32,3.32,3.32,3.32,3.32,3.3,3.32,3.3,3.31,3.32,3.32,3.32,3.32,3.33,3.33,3.33,3.32,3.33,3.3,79.6,0.0,1.0,0.0,1.0,1.0,2858615,0.0,0.0
1765221363657,0.0,0.0,1.0,10.0,0.0,0.0,0.0,0.0,0.0,0.0,-0.009271999999999999,0.026595999999999998,0.994544,-0.49000000000000005,0.42000000000000004,0.0,3.32,3.32,3.32,3.31,3.31,3.31,3.3,3.32,3.32,3.32,3.32,3.32,3.3,3.32,3.3,3.31,3.32,3.32,3.32,3.32,3.33,3.33,3.33,3.32,3.33,3.3,79.6,0.0,1.0,0.0,1.0,1.0,2858631,0.0,0.0
1765221363674,0.0,0.0,1.0,10.0,0.0,0.0,0.0,0.0,0.0,0.0,-0.011467999999999999,0.026108,0.99247,-0.49000000000000005,0.42000000000000004,0.0,3.32,3.32,3.32,3.31,3.31,3.31,3.3,3.32,3.32,3.32,3.32,3.32,3.3,3.32,3.3,3.31,3.32,3.32,3.32,3.32,3.33,3.33,3.33,3.32,3.33,3.3,79.6,0.0,1.0,0.0,1.0,1.0,2858648,0.0,0.0
1765221363690,0.0,0.0,1.0,10.0,0.0,0.0,0.0,0.0,0.0,0.0,-0.011467999999999999,0.026108,0.99247,-0.49000000000000005,0.42000000000000004,0.0,3.32,3.32,3.32,3.31,3.31,3.31,3.3,3.32,3.32,3.32,3.32,3.32,3.3,3.32,3.3,3.31,3.32,3.32,3.32,3.32,3.33,3.33,3.33,3.32,3.33,3.3,79.6,0.0,1.0,0.0,1.0,1.0,2858664,0.0,0.0
1765221363724,0.0,0.0,1.0,10.0,0.0,0.0,0.0,0.0,0.0,0.0,-0.011467999999999999,0.026108,0.99247,-0.56,0.35000000000000003,0.0,3.32,3.32,3.32,3.31,3.31,3.31,3.3,3.32,3.32,3.32,3.32,3.32,3.3,3.32,3.3,3.31,3.32,3.32,3.32,3.32,3.33,3.33,3.33,3.32,3.33,3.3,79.6,0.0,1.0,0.0,1.0,1.0,2858698,0.0,0.0
1765221363758,0.0,0.0,1.0,10.0,0.0,0.0,0.0,0.0,0.0,0.0,-0.011467999999999999,0.026108,0.99247,-0.56,0.35000000000000003,0.0,3.32,3.32,3.32,3.31,3.31,3.31,3.3,3.32,3.32,3.32,3.32,3.32,3.3,3.32,3.3,3.31,3.32,3.32,3.32,3.32,3.33,3.33,3.33,3.32,3.33,3.3,79.6,0.0,1.0,0.0,1.0,1.0,2858732,0.0,0.0
1765221363807,0.0,0.0,1.0,10.0,0.0,0.0,0.0,0.0,0.0,0.0,-0.011467999999999999,0.026108,0.99247,-0.56,0.35000000000000003,0.0,3.32,3.32,3.32,3.31,3.31,3.31,3.3,3.32,3.32,3.32,3.32,3.32,3.3,3.32,3.3,3.31,3.32,3.32,3.32,3.32,3.33,3.33,3.33,3.32,3.33,3.3,79.6,0.0,1.0,0.0,1.0,1.0,2858781,0.0,0.0
1765221363858,0.0,0.0,1.0,10.0,0.0,0.0,0.0,0.0,0.0,0.0,-0.00976,0.026108,0.993202,-0.56,0.35000000000000003,0.0,3.32,3.32,3.32,3.31,3.31,3.31,3.3,3.32,3.32,3.32,3.32,3.32,3.3,3.32,3.3,3.31,3.32,3.32,3.32,3.32,3.33,3.33,3.33,3.32,3.33,3.3,79.6,0.0,1.0,0.0,1.0,1.0,2858832,0.0,0.0
1765221363875,0.0,0.0,1.0,10.0,0.0,0.0,0.0,0.0,0.0,0.0,-0.00976,0.026108,0.993202,-0.56,0.35000000000000003,0.0,3.32,3.32,3.32,3.31,3.31,3.31,3.3,3.32,3.32,3.32,3.32,3.32,3.3,3.32,3.3,3.31,3.32,3.32,3.32,3.32,3.33,3.33,3.33,3.32,3.33,3.3,79.6,0.0,1.0,0.0,1.0,1.0,2858849,0.0,0.0
1765221363909,0.0,0.0,1.0,10.0,0.0,0.0,0.0,0.0,0.0,0.0,-0.00976,0.026108,0.993202,-0.56,0.28,-0.07,3.32,3.32,3.32,3.31,3.31,3.31,3.3,3.32,3.32,3.32,3.32,3.32,3.3,3.32,3.3,3.31,3.32,3.32,3.32,3.32,3.33,3.33,3.33,3.32,3.33,3.3,79.6,0.0,1.0,0.0,1.0,1.0,2858883,0.0,0.0
1765221364289,0.0,0.0,1.0,10.0,0.0,0.0,0.0,0.0,0.0,0.0,-0.010735999999999999,0.025986,0.992714,-0.56,0.21000000000000002,0.0,3.32,3.32,3.32,3.31,3.31,3.31,3.3,3.32,3.32,3.32,3.32,3.32,3.3,3.32,3.3,3.31,3.32,3.32,3.32,3.32,3.33,3.33,3.33,3.32,3.33,3.3,79.6,0.0,1.0,0.0,1.0,1.0,2859263,0.0,0.0
1765221364307,0.0,0.0,1.0,10.0,0.0,0.0,0.0,0.0,0.0,0.0,-0.00976,0.026108,0.991982,-0.6300000000000001,0.28,0.0,3.32,3.32,3.32,3.31,3.31,3.31,3.3,3.32,3.32,3.32,3.32,3.32,3.3,3.32,3.3,3.31,3.32,3.32,3.32,3.32,3.33,3.33,3.33,3.32,3.33,3.3,79.6,0.0,1.0,0.0,1.0,1.0,2859281,0.0,0.0
1765221364359,0.0,0.0,1.0,10.0,0.0,0.0,0.0,0.0,0.0,0.0,-0.00976,0.026108,0.991982,-0.6300000000000001,0.28,0.0,3.32,3.32,3.32,3.31,3.31,3.31,3.3,3.32,3.32,3.32,3.32,3.32,3.3,3.32,3.3,3.31,3.32,3.32,3.32,3.32,3.33,3.33,3.33,3.32,3.33,3.3,79.6,0.0,1.0,0.0,1.0,1.0,2859333,0.0,0.0
1765221364374,0.0,0.0,1.0,10.0,0.0,0.0,0.0,0.0,0.0,0.0,-0.00976,0.026108,0.991982,-0.6300000000000001,0.28,0.0,3.32,3.32,3.32,3.31,3.31,3.31,3.3,3.32,3.32,3.32,3.32,3.32,3.3,3.32,3.3,3.31,3.32,3.32,3.32,3.32,3.33,3.33,3.33,3.32,3.33,3.3,79.6,0.0,1.0,0.0,1.0,1.0,2859348,0.0,0.0
1765221364392,0.0,0.0,1.0,10.0,0.0,0.0,0.0,0.0,0.0,0.0,-0.00976,0.026108,0.991982,-0.6300000000000001,0.28,0.0,3.32,3.32,3.32,3.31,3.31,3.31,3.3,3.32,3.32,3.32,3.32,3.32,3.3,3.32,3.3,3.31,3.32,3.32,3.32,3.32,3.33,3.33,3.33,3.32,3.33,3.3,79.6,0.0,1.0,0.0,1.0,1.0,2859366,0.0,0.0
1765221364425,0.0,0.0,1.0,10.0,0.0,0.0,0.0,0.0,0.0,0.0,-0.00976,0.026108,0.991982,-0.6300000000000001,0.28,0.0,3.32,3.32,3.32,3.31,3.31,3.31,3.3,3.32,3.32,3.32,3.32,3.32,3.3,3.32,3.3,3.31,3.32,3.32,3.32,3.32,3.33,3.33,3.33,3.32,3.33,3.3,79.6,0.0,1.0,0.0,1.0,1.0,2859399,0.0,0.0
1765221364441,0.0,0.0,1.0,10.0,0.0,0.0,0.0,0.0,0.0,0.0,-0.00976,0.026108,0.991982,-0.6300000000000001,0.35000000000000003,-0.07,3.32,3.32,3.32,3.31,3.31,3.31,3.3,3.32,3.32,3.32,3.32,3.32,3.3,3.32,3.3,3.31,3.32,3.32,3.32,3.32,3.33,3.33,3.33,3.32,3.33,3.3,79.6,0.0,1.0,0.0,1.0,1.0,2859415,0.0,0.0
1765221364475,0.0,0.0,1.0,10.0,0.0,0.0,0.0,0.0,0.0,0.0,-0.00976,0.026108,0.991982,-0.6300000000000001,0.35000000000000003,-0.07,3.32,3.32,3.32,3.31,3.31,3.31,3.3,3.32,3.32,3.32,3.32,3.32,3.3,3.32,3.3,3.31,3.32,3.32,3.32,3.32,3.33,3.33,3.33,3.32,3.33,3.3,79.6,0.0,1.0,0.0,1.0,1.0,2859449,0.0,0.0
1765221364492,0.0,0.0,1.0,10.0,0.0,0.0,0.0,0.0,0.0,0.0,-0.00976,0.026108,0.991982,-0.6300000000000001,0.35000000000000003,-0.07,3.32,3.32,3.32,3.31,3.31,3.31,3.3,3.32,3.32,3.32,3.32,3.32,3.3,3.32,3.3,3.31,3.32,3.32,3.32,3.32,3.33,3.33,3.33,3.32,3.33,3.3,79.6,0.0,1.0,0.0,1.0,1.0,2859466,0.0,0.0
1765221364508,0.0,0.0,1.0,10.0,0.0,0.0,0.0,0.0,0.0,0.0,-0.00976,0.026108,0.991982,-0.6300000000000001,0.35000000000000003,-0.07,3.32,3.32,3.32,3.31,3.31,3.31,3.3,3.32,3.32,3.32,3.32,3.32,3.3,3.32,3.3,3.31,3.32,3.32,3.32,3.32,3.33,3.33,3.33,3.32,3.33,3.3,79.6,0.0,1.0,0.0,1.0,1.0,2859482,0.0,0.0
1765221364557,0.0,0.0,1.0,10.0,0.0,0.0,0.0,0.0,0.0,0.0,-0.00976,0.026108,0.991982,-0.6300000000000001,0.35000000000000003,-0.07,3.32,3.32,3.32,3.31,3.31,3.31,3.3,3.32,3.32,3.32,3.32,3.32,3.3,3.32,3.3,3.31,3.32,3.32,3.32,3.32,3.33,3.33,3.33,3.32,3.33,3.3,79.6,0.0,1.0,0.0,1.0,1.0,2859531,0.0,0.0
1765221364608,0.0,0.0,1.0,10.0,0.0,0.0,0.0,0.0,0.0,0.0,-0.00976,0.026108,0.991982,-0.6300000000000001,0.35000000000000003,-0.07,3.32,3.32,3.32,3.31,3.31,3.31,3.3,3.32,3.32,3.32,3.32,3.32,3.3,3.32,3.3,3.31,3.32,3.32,3.32,3.32,3.33,3.33,3.33,3.32,3.33,3.3,79.6,0.0,1.0,0.0,1.0,1.0,2859582,0.0,0.0
1765221364673,0.0,0.0,1.0,10.0,0.0,0.0,0.0,0.0,0.0,0.0,-0.010735999999999999,0.025863999999999998,0.992714,-0.6300000000000001,0.35000000000000003,-0.07,3.32,3.32,3.32,3.31,3.31,3.31,3.3,3.32,3.32,3.32,3.32,3.32,3.3,3.32,3.3,3.31,3.32,3.32,3.32,3.32,3.33,3.33,3.33,3.32,3.33,3.3,79.6,0.0,1.0,0.0,1.0,1.0,2859647,0.0,0.0
1765221364690,0.0,0.0,1.0,10.0,0.0,0.0,0.0,0.0,0.0,0.0,-0.010735999999999999,0.025863999999999998,0.992714,-0.6300000000000001,0.35000000000000003,0.0,3.32,3.32,3.32,3.31,3.31,3.31,3.3,3.32,3.32,3.32,3.32,3.32,3.3,3.32,3.3,3.31,3.32,3.32,3.32,3.32,3.33,3.33,3.33,3.32,3.33,3.3,79.6,0.0,1.0,0.0,1.0,1.0,2859664,0.0,0.0
1765221364740,0.0,0.0,1.0,10.0,0.0,0.0,0.0,0.0,0.0,0.0,-0.009271999999999999,0.027084,0.991738,-0.6300000000000001,0.35000000000000003,0.0,3.32,3.32,3.32,3.31,3.31,3.31,3.3,3.32,3.32,3.32,3.32,3.32,3.3,3.32,3.3,3.31,3.32,3.32,3.32,3.32,3.33,3.33,3.33,3.32,3.33,3.3,79.6,0.0,1.0,0.0,1.0,1.0,2859714,0.0,0.0
1765221364757,0.0,0.0,1.0,10.0,0.0,0.0,0.0,0.0,0.0,0.0,-0.009271999999999999,0.027084,0.991738,-0.6300000000000001,0.35000000000000003,0.0,3.32,3.32,3.32,3.31,3.31,3.31,3.3,3.32,3.32,3.32,3.32,3.32,3.3,3.32,3.3,3.31,3.32,3.32,3.32,3.32,3.33,3.33,3.33,3.32,3.33,3.3,79.6,0.0,1.0,0.0,1.0,1.0,2859731,0.0,0.0
1765221364774,0.0,0.0,1.0,10.0,0.0,0.0,0.0,0.0,0.0,0.0,-0.009271999999999999,0.027084,0.991738,-0.6300000000000001,0.35000000000000003,0.0,3.32,3.32,3.32,3.31,3.31,3.31,3.3,3.32,3.32,3.32,3.32,3.32,3.3,3.32,3.3,3.31,3.32,3.32,3.32,3.32,3.33,3.33,3.33,3.32,3.33,3.3,79.6,0.0,1.0,0.0,1.0,1.0,2859748,0.0,0.0
1765221364792,0.0,0.0,1.0,10.0,0.0,0.0,0.0,0.0,0.0,0.0,-0.009271999999999999,0.027084,0.991738,-0.6300000000000001,0.35000000000000003,0.0,3.32,3.32,3.32,3.31,3.31,3.31,3.3,3.32,3.32,3.32,3.32,3.32,3.3,3.32,3.3,3.31,3.32,3.32,3.32,3.32,3.33,3.33,3.33,3.32,3.33,3.3,79.6,0.0,1.0,0.0,1.0,1.0,2859766,0.0,0.0
1765221364808,0.0,0.0,1.0,10.0,0.0,0.0,0.0,0.0,0.0,0.0,-0.009271999999999999,0.027084,0.991738,-0.56,0.35000000000000003,0.0,3.32,3.32,3.32,3.31,3.31,3.31,3.3,3.32,3.32,3.32,3.32,3.32,3.3,3.32,3.3,3.31,3.32,3.32,3.32,3.32,3.33,3.33,3.33,3.32,3.33,3.3,79.6,0.0,1.0,0.0,1.0,1.0,2859782,0.0,0.0
1765221364825,0.0,0.0,1.0,10.0,0.0,0.0,0.0,0.0,0.0,0.0,-0.009271999999999999,0.027084,0.991738,-0.56,0.35000000000000003,0.0,3.32,3.32,3.32,3.31,3.31,3.31,3.3,3.32,3.32,3.32,3.32,3.32,3.3,3.32,3.3,3.31,3.32,3.32,3.32,3.32,3.33,3.33,3.33,3.32,3.33,3.3,79.6,0.0,1.0,0.0,1.0,1.0,2859799,0.0,0.0
1765221364890,0.0,0.0,1.0,10.0,0.0,0.0,0.0,0.0,0.0,0.0,-0.009271999999999999,0.027084,0.991738,-0.56,0.35000000000000003,0.0,3.32,3.32,3.32,3.31,3.31,3.31,3.3,3.32,3.32,3.32,3.32,3.32,3.3,3.32,3.3,3.31,3.32,3.32,3.32,3.32,3.33,3.33,3.33,3.32,3.33,3.3,79.6,0.0,1.0,0.0,1.0,1.0,2859864,0.0,0.0
1765221364974,0.0,0.0,1.0,10.0,0.0,0.0,0.0,0.0,0.0,0.0,-0.00915,0.026595999999999998,0.993324,-0.6300000000000001,0.35000000000000003,0.0,3.32,3.32,3.32,3.31,3.31,3.31,3.3,3.32,3.32,3.32,3.32,3.32,3.3,3.32,3.3,3.31,3.32,3.32,3.32,3.32,3.33,3.33,3.33,3.32,3.33,3.3,79.6,0.0,1.0,0.0,1.0,1.0,2859948,0.0,0.0
1765221365009,0.0,0.0,1.0,10.0,0.0,0.0,0.0,0.0,0.0,0.0,-0.00915,0.026595999999999998,0.993324,-0.6300000000000001,0.35000000000000003,0.0,3.32,3.32,3.32,3.31,3.31,3.31,3.3,3.32,3.32,3.32,3.32,3.32,3.3,3.32,3.3,3.31,3.32,3.32,3.32,3.32,3.33,3.33,3.33,3.32,3.33,3.3,79.6,0.0,1.0,0.0,1.0,1.0,2859983,0.0,0.0
1765221365025,0.0,0.0,1.0,10.0,0.0,0.0,0.0,0.0,0.0,0.0,-0.00915,0.026595999999999998,0.993324,-0.6300000000000001,0.35000000000000003,0.0,3.32,3.32,3.32,3.31,3.31,3.31,3.3,3.32,3.32,3.32,3.32,3.32,3.3,3.32,3.3,3.31,3.32,3.32,3.32,3.32,3.33,3.33,3.33,3.32,3.33,3.3,79.6,0.0,1.0,0.0,1.0,1.0,2859999,0.0,0.0
1765221365092,0.0,0.0,1.0,10.0,0.0,0.0,0.0,0.0,0.0,0.0,-0.00976,0.02623,0.992104,-0.6300000000000001,0.35000000000000003,0.0,3.32,3.32,3.32,3.31,3.31,3.31,3.3,3.32,3.32,3.32,3.32,3.32,3.3,3.32,3.3,3.31,3.32,3.32,3.32,3.32,3.33,3.33,3.33,3.32,3.33,3.3,79.6,0.0,1.0,0.0,1.0,1.0,2860066,0.0,0.0
1765221365125,0.0,0.0,1.0,10.0,0.0,0.0,0.0,0.0,0.0,0.0,-0.00976,0.02623,0.992104,-0.6300000000000001,0.28,0.0,3.32,3.32,3.32,3.31,3.31,3.31,3.3,3.32,3.32,3.32,3.32,3.32,3.3,3.32,3.3,3.31,3.32,3.32,3.32,3.32,3.33,3.33,3.33,3.32,3.33,3.3,79.6,0.0,1.0,0.0,1.0,1.0,2860099,0.0,0.0
1765221365159,0.0,0.0,1.0,10.0,0.0,0.0,0.0,0.0,0.0,0.0,-0.00976,0.02623,0.992104,-0.6300000000000001,0.28,0.0,3.32,3.32,3.32,3.31,3.31,3.31,3.3,3.32,3.32,3.32,3.32,3.32,3.3,3.32,3.3,3.31,3.32,3.32,3.32,3.32,3.33,3.33,3.33,3.32,3.33,3.3,79.6,0.0,1.0,0.0,1.0,1.0,2860133,0.0,0.0
1765221365174,0.0,0.0,1.0,10.0,0.0,0.0,0.0,0.0,0.0,0.0,-0.00976,0.02623,0.992104,-0.6300000000000001,0.28,0.0,3.32,3.32,3.32,3.31,3.31,3.31,3.3,3.32,3.32,3.32,3.32,3.32,3.3,3.32,3.3,3.31,3.32,3.32,3.32,3.32,3.33,3.33,3.33,3.32,3.33,3.3,79.6,0.0,1.0,0.0,1.0,1.0,2860148,0.0,0.0
1765221365191,0.0,0.0,1.0,10.0,0.0,0.0,0.0,0.0,0.0,0.0,-0.00976,0.02623,0.992104,-0.6300000000000001,0.28,0.0,3.32,3.32,3.32,3.31,3.31,3.31,3.3,3.32,3.32,3.32,3.32,3.32,3.3,3.32,3.3,3.31,3.32,3.32,3.32,3.32,3.33,3.33,3.33,3.32,3.33,3.3,79.6,0.0,1.0,0.0,1.0,1.0,2860165,0.0,0.0
1765221365208,0.0,0.0,1.0,10.0,0.0,0.0,0.0,0.0,0.0,0.0,-0.00976,0.02623,0.992104,-0.6300000000000001,0.28,0.0,3.32,3.32,3.32,3.31,3.31,3.31,3.3,3.32,3.32,3.32,3.32,3.32,3.3,3.32,3.3,3.31,3.32,3.32,3.32,3.32,3.33,3.33,3.33,3.32,3.33,3.3,79.6,0.0,1.0,0.0,1.0,1.0,2860182,0.0,0.0
1765221365225,0.0,0.0,1.0,10.0,0.0,0.0,0.0,0.0,0.0,0.0,-0.00976,0.02623,0.992104,-0.6300000000000001,0.28,0.0,3.32,3.32,3.32,3.31,3.31,3.31,3.3,3.32,3.32,3.32,3.32,3.32,3.3,3.32,3.3,3.31,3.32,3.32,3.32,3.32,3.33,3.33,3.33,3.32,3.33,3.3,79.6,0.0,1.0,0.0,1.0,1.0,2860199,0.0,0.0
1765221365258,0.0,0.0,1.0,10.0,0.0,0.0,0.0,0.0,0.0,0.0,-0.00976,0.02623,0.992104,-0.6300000000000001,0.28,0.0,3.32,3.32,3.32,3.31,3.31,3.31,3.3,3.32,3.32,3.32,3.32,3.32,3.3,3.32,3.3,3.31,3.32,3.32,3.32,3.32,3.33,3.33,3.33,3.32,3.33,3.3,79.6,0.0,1.0,0.0,1.0,1.0,2860232,0.0,0.0
1765221365309,0.0,0.0,1.0,10.0,0.0,0.0,0.0,0.0,0.0,0.0,-0.009271999999999999,0.02684,0.9922259999999999,-0.6300000000000001,0.28,0.0,3.32,3.32,3.32,3.31,3.31,3.31,3.3,3.32,3.32,3.32,3.32,3.32,3.3,3.32,3.3,3.31,3.32,3.32,3.32,3.32,3.33,3.33,3.33,3.32,3.33,3.3,79.6,0.0,1.0,0.0,1.0,1.0,2860283,0.0,0.0
1765221365373,0.0,0.0,1.0,10.0,0.0,0.0,0.0,0.0,0.0,0.0,-0.009271999999999999,0.02684,0.9922259999999999,-0.56,0.42000000000000004,0.0,3.32,3.32,3.32,3.31,3.31,3.31,3.3,3.32,3.32,3.32,3.32,3.32,3.3,3.32,3.3,3.31,3.32,3.32,3.32,3.32,3.33,3.33,3.33,3.32,3.33,3.3,79.6,0.0,1.0,0.0,1.0,1.0,2860347,0.0,0.0
1765221365424,0.0,0.0,1.0,10.0,0.0,0.0,0.0,0.0,0.0,0.0,-0.010248,0.026108,0.993812,-0.56,0.42000000000000004,0.0,3.32,3.32,3.32,3.31,3.31,3.31,3.3,3.32,3.32,3.32,3.32,3.32,3.3,3.32,3.3,3.31,3.32,3.32,3.32,3.32,3.33,3.33,3.33,3.32,3.33,3.3,79.6,0.0,1.0,0.0,1.0,1.0,2860398,0.0,0.0
1765221365441,0.0,0.0,1.0,10.0,0.0,0.0,0.0,0.0,0.0,0.0,-0.010248,0.026108,0.993812,-0.56,0.35000000000000003,0.0,3.32,3.32,3.32,3.31,3.31,3.31,3.3,3.32,3.32,3.32,3.32,3.32,3.3,3.32,3.3,3.31,3.32,3.32,3.32,3.32,3.33,3.33,3.33,3.32,3.33,3.3,79.6,0.0,1.0,0.0,1.0,1.0,2860415,0.0,0.0
1765221365473,0.0,0.0,1.0,10.0,0.0,0.0,0.0,0.0,0.0,0.0,-0.010248,0.026108,0.993812,-0.56,0.35000000000000003,0.0,3.32,3.32,3.32,3.31,3.31,3.31,3.3,3.32,3.32,3.32,3.32,3.32,3.3,3.32,3.3,3.31,3.32,3.32,3.32,3.32,3.33,3.33,3.33,3.32,3.33,3.3,79.6,0.0,1.0,0.0,1.0,1.0,2860447,0.0,0.0
1765221365509,0.0,0.0,1.0,10.0,0.0,0.0,0.0,0.0,0.0,0.0,-0.010248,0.026108,0.993812,-0.56,0.35000000000000003,0.0,3.32,3.32,3.32,3.31,3.31,3.31,3.3,3.32,3.32,3.32,3.32,3.32,3.3,3.32,3.3,3.31,3.32,3.32,3.32,3.32,3.33,3.33,3.33,3.32,3.33,3.3,79.6,0.0,1.0,0.0,1.0,1.0,2860483,0.0,0.0
1765221365523,0.0,0.0,1.0,10.0,0.0,0.0,0.0,0.0,0.0,0.0,-0.010248,0.026108,0.993812,-0.56,0.35000000000000003,0.0,3.32,3.32,3.32,3.31,3.31,3.31,3.3,3.32,3.32,3.32,3.32,3.32,3.3,3.32,3.3,3.31,3.32,3.32,3.32,3.32,3.33,3.33,3.33,3.32,3.33,3.3,79.6,0.0,1.0,0.0,1.0,1.0,2860497,0.0,0.0
1765221365540,0.0,0.0,1.0,10.0,0.0,0.0,0.0,0.0,0.0,0.0,-0.010248,0.026108,0.993812,-0.56,0.35000000000000003,0.0,3.32,3.32,3.32,3.31,3.31,3.31,3.3,3.32,3.32,3.32,3.32,3.32,3.3,3.32,3.3,3.31,3.32,3.32,3.32,3.32,3.33,3.33,3.33,3.32,3.33,3.3,79.6,0.0,1.0,0.0,1.0,1.0,2860514,0.0,0.0
1765221365607,0.0,0.0,1.0,10.0,0.0,0.0,0.0,0.0,0.0,0.0,-0.010248,0.026108,0.993812,-0.56,0.35000000000000003,0.0,3.32,3.32,3.32,3.31,3.31,3.31,3.3,3.32,3.32,3.32,3.32,3.32,3.3,3.32,3.3,3.31,3.32,3.32,3.32,3.32,3.33,3.33,3.33,3.32,3.33,3.3,79.6,0.0,1.0,0.0,1.0,1.0,2860581,0.0,0.0
1765221365640,0.0,0.0,1.0,10.0,0.0,0.0,0.0,0.0,0.0,0.0,-0.011712,0.02623,0.991128,-0.56,0.35000000000000003,0.0,3.32,3.32,3.32,3.31,3.31,3.31,3.3,3.32,3.32,3.32,3.32,3.32,3.3,3.32,3.3,3.31,3.32,3.32,3.32,3.32,3.33,3.33,3.33,3.32,3.33,3.3,79.6,0.0,1.0,0.0,1.0,1.0,2860614,0.0,0.0
1765221365675,0.0,0.0,1.0,10.0,0.0,0.0,0.0,0.0,0.0,0.0,-0.011712,0.02623,0.991128,-0.56,0.28,0.07,3.32,3.32,3.32,3.31,3.31,3.31,3.3,3.32,3.32,3.32,3.32,3.32,3.3,3.32,3.3,3.31,3.32,3.32,3.32,3.32,3.33,3.33,3.33,3.32,3.33,3.3,79.6,0.0,1.0,0.0,1.0,1.0,2860649,0.0,0.0
1765221365724,0.0,0.0,1.0,10.0,0.0,0.0,0.0,0.0,0.0,0.0,-0.011712,0.02623,0.991128,-0.56,0.28,0.07,3.32,3.32,3.32,3.31,3.31,3.31,3.3,3.32,3.32,3.32,3.32,3.32,3.3,3.32,3.3,3.31,3.32,3.32,3.32,3.32,3.33,3.33,3.33,3.32,3.33,3.3,79.6,0.0,1.0,0.0,1.0,1.0,2860698,0.0,0.0
1765221365791,0.0,0.0,1.0,10.0,0.0,0.0,0.0,0.0,0.0,0.0,-0.009394,0.026352,0.992592,-0.56,0.28,0.07,3.32,3.32,3.32,3.31,3.31,3.31,3.3,3.32,3.32,3.32,3.32,3.32,3.3,3.32,3.3,3.31,3.32,3.32,3.32,3.32,3.33,3.33,3.33,3.32,3.33,3.3,79.6,0.0,1.0,0.0,1.0,1.0,2860765,0.0,0.0
1765221365824,0.0,0.0,1.0,10.0,0.0,0.0,0.0,0.0,0.0,0.0,-0.009394,0.026352,0.992592,-0.7000000000000001,0.35000000000000003,-0.07,3.32,3.32,3.32,3.31,3.31,3.31,3.3,3.32,3.32,3.32,3.32,3.32,3.3,3.32,3.3,3.31,3.32,3.32,3.32,3.32,3.33,3.33,3.33,3.32,3.33,3.3,79.6,0.0,1.0,0.0,1.0,1.0,2860798,0.0,0.0
1765221365857,0.0,0.0,1.0,10.0,0.0,0.0,0.0,0.0,0.0,0.0,-0.009394,0.026352,0.992592,-0.7000000000000001,0.35000000000000003,-0.07,3.32,3.32,3.32,3.31,3.31,3.31,3.3,3.32,3.32,3.32,3.32,3.32,3.3,3.32,3.3,3.31,3.32,3.32,3.32,3.32,3.33,3.33,3.33,3.32,3.33,3.3,79.6,0.0,1.0,0.0,1.0,1.0,2860831,0.0,0.0
1765221365874,0.0,0.0,1.0,10.0,0.0,0.0,0.0,0.0,0.0,0.0,-0.009394,0.026352,0.992592,-0.7000000000000001,0.35000000000000003,-0.07,3.32,3.32,3.32,3.31,3.31,3.31,3.3,3.32,3.32,3.32,3.32,3.32,3.3,3.32,3.3,3.31,3.32,3.32,3.32,3.32,3.33,3.33,3.33,3.32,3.33,3.3,79.6,0.0,1.0,0.0,1.0,1.0,2860848,0.0,0.0
1765221365890,0.0,0.0,1.0,10.0,0.0,0.0,0.0,0.0,0.0,0.0,-0.009394,0.026352,0.992592,-0.7000000000000001,0.35000000000000003,-0.07,3.32,3.32,3.32,3.31,3.31,3.31,3.3,3.32,3.32,3.32,3.32,3.32,3.3,3.32,3.3,3.31,3.32,3.32,3.32,3.32,3.33,3.33,3.33,3.32,3.33,3.3,79.6,0.0,1.0,0.0,1.0,1.0,2860864,0.0,0.0
1765221365907,0.0,0.0,1.0,10.0,0.0,0.0,0.0,0.0,0.0,0.0,-0.010735999999999999,0.02562,0.99247,-0.7000000000000001,0.35000000000000003,-0.07,3.32,3.32,3.32,3.31,3.31,3.31,3.3,3.32,3.32,3.32,3.32,3.32,3.3,3.32,3.3,3.31,3.32,3.32,3.32,3.32,3.33,3.33,3.33,3.32,3.33,3.3,79.6,0.0,1.0,0.0,1.0,1.0,2860881,0.0,0.0
1765221365924,0.0,0.0,1.0,10.0,0.0,0.0,0.0,0.0,0.0,0.0,-0.010735999999999999,0.02562,0.99247,-0.7000000000000001,0.35000000000000003,-0.07,3.32,3.32,3.32,3.31,3.31,3.31,3.3,3.32,3.32,3.32,3.32,3.32,3.3,3.32,3.3,3.31,3.32,3.32,3.32,3.32,3.33,3.33,3.33,3.32,3.33,3.3,79.6,0.0,1.0,0.0,1.0,1.0,2860898,0.0,0.0
1765221365942,0.0,0.0,1.0,10.0,0.0,0.0,0.0,0.0,0.0,0.0,-0.010735999999999999,0.02562,0.99247,-0.7000000000000001,0.35000000000000003,-0.07,3.32,3.32,3.32,3.31,3.31,3.31,3.3,3.32,3.32,3.32,3.32,3.32,3.3,3.32,3.3,3.31,3.32,3.32,3.32,3.32,3.33,3.33,3.33,3.32,3.33,3.3,79.6,0.0,1.0,0.0,1.0,1.0,2860916,0.0,0.0
1765221365958,0.0,0.0,1.0,10.0,0.0,0.0,0.0,0.0,0.0,0.0,-0.010735999999999999,0.02562,0.99247,-0.7000000000000001,0.35000000000000003,-0.07,3.32,3.32,3.32,3.31,3.31,3.31,3.3,3.32,3.32,3.32,3.32,3.32,3.3,3.32,3.3,3.31,3.32,3.32,3.32,3.32,3.33,3.33,3.33,3.32,3.33,3.3,79.6,0.0,1.0,0.0,1.0,1.0,2860932,0.0,0.0
1765221365974,0.0,0.0,1.0,10.0,0.0,0.0,0.0,0.0,0.0,0.0,-0.010735999999999999,0.02562,0.99247,-0.7000000000000001,0.35000000000000003,-0.07,3.32,3.32,3.32,3.31,3.31,3.31,3.3,3.32,3.32,3.32,3.32,3.32,3.3,3.32,3.3,3.31,3.32,3.32,3.32,3.32,3.33,3.33,3.33,3.32,3.33,3.3,79.6,0.0,1.0,0.0,1.0,1.0,2860948,0.0,0.0
1765221365991,0.0,0.0,1.0,10.0,0.0,0.0,0.0,0.0,0.0,0.0,-0.010735999999999999,0.02562,0.99247,-0.7000000000000001,0.35000000000000003,-0.07,3.32,3.32,3.32,3.31,3.31,3.31,3.3,3.32,3.32,3.32,3.32,3.32,3.3,3.32,3.3,3.31,3.32,3.32,3.32,3.32,3.33,3.33,3.33,3.32,3.33,3.3,79.6,0.0,1.0,0.0,1.0,1.0,2860965,0.0,0.0
1765221366024,0.0,0.0,1.0,10.0,0.0,0.0,0.0,0.0,0.0,0.0,-0.010735999999999999,0.02562,0.99247,-0.7000000000000001,0.35000000000000003,-0.07,3.32,3.32,3.32,3.31,3.31,3.31,3.3,3.32,3.32,3.32,3.32,3.32,3.3,3.32,3.3,3.31,3.32,3.32,3.32,3.32,3.33,3.33,3.33,3.32,3.33,3.3,79.6,0.0,1.0,0.0,1.0,1.0,2860998,0.0,0.0
1765221366041,0.0,0.0,1.0,10.0,0.0,0.0,0.0,0.0,0.0,0.0,-0.010735999999999999,0.02562,0.99247,-0.7000000000000001,0.35000000000000003,-0.07,3.32,3.32,3.32,3.31,3.31,3.31,3.3,3.32,3.32,3.32,3.32,3.32,3.3,3.32,3.3,3.31,3.32,3.32,3.32,3.32,3.33,3.33,3.33,3.32,3.33,3.3,79.6,0.0,1.0,0.0,1.0,1.0,2861015,0.0,0.0
1765221366058,0.0,0.0,1.0,10.0,0.0,0.0,0.0,0.0,0.0,0.0,-0.010735999999999999,0.02562,0.99247,-0.7000000000000001,0.35000000000000003,-0.07,3.32,3.32,3.32,3.31,3.31,3.31,3.3,3.32,3.32,3.32,3.32,3.32,3.3,3.32,3.3,3.31,3.32,3.32,3.32,3.32,3.33,3.33,3.33,3.32,3.33,3.3,79.6,0.0,1.0,0.0,1.0,1.0,2861032,0.0,0.0
1765221366108,0.0,0.0,1.0,10.0,0.0,0.0,0.0,0.0,0.0,0.0,-0.010735999999999999,0.02562,0.99247,-0.6300000000000001,0.21000000000000002,0.0,3.32,3.32,3.32,3.31,3.31,3.31,3.3,3.32,3.32,3.32,3.32,3.32,3.3,3.32,3.3,3.31,3.32,3.32,3.32,3.32,3.33,3.33,3.33,3.32,3.33,3.3,79.6,0.0,1.0,0.0,1.0,1.0,2861082,0.0,0.0
1765221366174,0.0,0.0,1.0,10.0,0.0,0.0,0.0,0.0,0.0,0.0,-0.010492,0.02684,0.9928359999999999,-0.49000000000000005,0.35000000000000003,-0.07,3.32,3.32,3.32,3.31,3.31,3.31,3.3,3.32,3.32,3.32,3.32,3.32,3.3,3.32,3.3,3.31,3.32,3.32,3.32,3.32,3.33,3.33,3.33,3.32,3.33,3.3,79.6,0.0,1.0,0.0,1.0,1.0,2861148,0.0,0.0
1765221366208,0.0,0.0,1.0,10.0,0.0,0.0,0.0,0.0,0.0,0.0,-0.010492,0.02684,0.9928359999999999,-0.49000000000000005,0.35000000000000003,-0.07,3.32,3.32,3.32,3.31,3.31,3.31,3.3,3.32,3.32,3.32,3.32,3.32,3.3,3.32,3.3,3.31,3.32,3.32,3.32,3.32,3.33,3.33,3.33,3.32,3.33,3.3,79.6,0.0,1.0,0.0,1.0,1.0,2861182,0.0,0.0
1765221366224,0.0,0.0,1.0,10.0,0.0,0.0,0.0,0.0,0.0,0.0,-0.010492,0.02684,0.9928359999999999,-0.49000000000000005,0.35000000000000003,-0.07,3.32,3.32,3.32,3.31,3.31,3.31,3.3,3.32,3.32,3.32,3.32,3.32,3.3,3.32,3.3,3.31,3.32,3.32,3.32,3.32,3.33,3.33,3.33,3.32,3.33,3.3,79.6,0.0,1.0,0.0,1.0,1.0,2861198,0.0,0.0
1765221366240,0.0,0.0,1.0,10.0,0.0,0.0,0.0,0.0,0.0,0.0,-0.010492,0.02684,0.9928359999999999,-0.49000000000000005,0.35000000000000003,-0.07,3.32,3.32,3.32,3.31,3.31,3.31,3.3,3.32,3.32,3.32,3.32,3.32,3.3,3.32,3.3,3.31,3.32,3.32,3.32,3.32,3.33,3.33,3.33,3.32,3.33,3.3,79.6,0.0,1.0,0.0,1.0,1.0,2861214,0.0,0.0
1765221366274,0.0,0.0,1.0,10.0,0.0,0.0,0.0,0.0,0.0,0.0,-0.010492,0.02684,0.9928359999999999,-0.7000000000000001,0.35000000000000003,-0.07,3.32,3.32,3.32,3.31,3.31,3.31,3.3,3.32,3.32,3.32,3.32,3.32,3.3,3.32,3.3,3.31,3.32,3.32,3.32,3.32,3.33,3.33,3.33,3.32,3.33,3.3,79.6,0.0,1.0,0.0,1.0,1.0,2861248,0.0,0.0
1765221366307,0.0,0.0,1.0,10.0,0.0,0.0,0.0,0.0,0.0,0.0,-0.008662,0.026595999999999998,0.991372,-0.7000000000000001,0.35000000000000003,-0.07,3.32,3.32,3.32,3.31,3.31,3.31,3.3,3.32,3.32,3.32,3.32,3.32,3.3,3.32,3.3,3.31,3.32,3.32,3.32,3.32,3.33,3.33,3.33,3.32,3.33,3.3,79.6,0.0,1.0,0.0,1.0,1.0,2861281,0.0,0.0
1765221366341,0.0,0.0,1.0,10.0,0.0,0.0,0.0,0.0,0.0,0.0,-0.008662,0.026595999999999998,0.991372,-0.7000000000000001,0.35000000000000003,-0.07,3.32,3.32,3.32,3.31,3.31,3.31,3.3,3.32,3.32,3.32,3.32,3.32,3.3,3.32,3.3,3.31,3.32,3.32,3.32,3.32,3.33,3.33,3.33,3.32,3.33,3.3,79.6,0.0,1.0,0.0,1.0,1.0,2861315,0.0,0.0
1765221366357,0.0,0.0,1.0,10.0,0.0,0.0,0.0,0.0,0.0,0.0,-0.008662,0.026595999999999998,0.991372,-0.56,0.28,0.0,3.32,3.32,3.32,3.31,3.31,3.31,3.3,3.32,3.32,3.32,3.32,3.32,3.3,3.32,3.3,3.31,3.32,3.32,3.32,3.32,3.33,3.33,3.33,3.32,3.33,3.3,79.6,0.0,1.0,0.0,1.0,1.0,2861331,0.0,0.0
1765221366374,0.0,0.0,1.0,10.0,0.0,0.0,0.0,0.0,0.0,0.0,-0.008662,0.026595999999999998,0.991372,-0.56,0.28,0.0,3.32,3.32,3.32,3.31,3.31,3.31,3.3,3.32,3.32,3.32,3.32,3.32,3.3,3.32,3.3,3.31,3.32,3.32,3.32,3.32,3.33,3.33,3.33,3.32,3.33,3.3,79.6,0.0,1.0,0.0,1.0,1.0,2861348,0.0,0.0
1765221366391,0.0,0.0,1.0,10.0,0.0,0.0,0.0,0.0,0.0,0.0,-0.008662,0.026595999999999998,0.991372,-0.56,0.28,0.0,3.32,3.32,3.32,3.31,3.31,3.31,3.3,3.32,3.32,3.32,3.32,3.32,3.3,3.32,3.3,3.31,3.32,3.32,3.32,3.32,3.33,3.33,3.33,3.32,3.33,3.3,79.6,0.0,1.0,0.0,1.0,1.0,2861365,0.0,0.0
1765221366424,0.0,0.0,1.0,10.0,0.0,0.0,0.0,0.0,0.0,0.0,-0.008662,0.026595999999999998,0.991372,-0.56,0.28,0.0,3.32,3.32,3.32,3.31,3.31,3.31,3.3,3.32,3.32,3.32,3.32,3.32,3.3,3.32,3.3,3.31,3.32,3.32,3.32,3.32,3.33,3.33,3.33,3.32,3.33,3.3,79.6,0.0,1.0,0.0,1.0,1.0,2861398,0.0,0.0
1765221366475,0.0,0.0,1.0,10.0,0.0,0.0,0.0,0.0,0.0,0.0,-0.008662,0.026595999999999998,0.991372,-0.56,0.28,0.0,3.32,3.32,3.32,3.31,3.31,3.31,3.3,3.32,3.32,3.32,3.32,3.32,3.3,3.32,3.3,3.31,3.32,3.32,3.32,3.32,3.33,3.33,3.33,3.32,3.33,3.3,79.6,0.0,1.0,0.0,1.0,1.0,2861449,0.0,0.0
1765221366542,0.0,0.0,1.0,10.0,0.0,0.0,0.0,0.0,0.0,0.0,-0.009516,0.025376,0.99308,-0.56,0.28,0.0,3.32,3.32,3.32,3.31,3.31,3.31,3.3,3.32,3.32,3.32,3.32,3.32,3.3,3.32,3.3,3.31,3.32,3.32,3.32,3.32,3.33,3.33,3.33,3.32,3.33,3.3,79.6,0.0,1.0,0.0,1.0,1.0,2861516,0.0,0.0
1765221366558,0.0,0.0,1.0,10.0,0.0,0.0,0.0,0.0,0.0,0.0,-0.009516,0.025376,0.99308,-0.6300000000000001,0.21000000000000002,0.0,3.32,3.32,3.32,3.31,3.31,3.31,3.3,3.32,3.32,3.32,3.32,3.32,3.3,3.32,3.3,3.31,3.32,3.32,3.32,3.32,3.33,3.33,3.33,3.32,3.33,3.3,79.6,0.0,1.0,0.0,1.0,1.0,2861532,0.0,0.0
1765221366609,0.0,0.0,1.0,10.0,0.0,0.0,0.0,0.0,0.0,0.0,-0.009516,0.025376,0.99308,-0.6300000000000001,0.21000000000000002,0.0,3.32,3.32,3.32,3.31,3.31,3.31,3.3,3.32,3.32,3.32,3.32,3.32,3.3,3.32,3.3,3.31,3.32,3.32,3.32,3.32,3.33,3.33,3.33,3.32,3.33,3.3,79.6,0.0,1.0,0.0,1.0,1.0,2861583,0.0,0.0
1765221366625,0.0,0.0,1.0,10.0,0.0,0.0,0.0,0.0,0.0,0.0,-0.008173999999999999,0.02684,0.9922259999999999,-0.6300000000000001,0.21000000000000002,0.0,3.32,3.32,3.32,3.31,3.31,3.31,3.3,3.32,3.32,3.32,3.32,3.32,3.3,3.32,3.3,3.31,3.32,3.32,3.32,3.32,3.33,3.33,3.33,3.32,3.33,3.3,79.6,0.0,1.0,0.0,1.0,1.0,2861599,0.0,0.0
