timestamp,THROTTLE,BRAKE,ECU_MODE_ID,TORQUE_GAIN,TORQUE_REF_LEFT_MOTOR,TORQUE_REF_RIGHT_MOTOR,LEFT_MOTOR_SPEED,RIGHT_MOTOR_SPEED,REAR_LEFT_WHEEL_SPEED,REAR_RIGHT_WHEEL_SPEED,ACCEL_LONGITUDINAL,ACCEL_LATERAL,ACCEL_NORMAL,VEL_ANGULAR_YAW,VEL_ANGULAR_PITCH,VEL_ANGULAR_ROLL,STACK_1_CELL_1,STACK_1_CELL_2,STACK_1_CELL_3,STACK_1_CELL_4,STACK_2_CELL_1,STACK_2_CELL_2,STACK_2_CELL_3,STACK_2_CELL_4,STACK_3_CELL_1,STACK_3_CELL_2,STACK_3_CELL_3,STACK_3_CELL_4,STACK_4_CELL_1,STACK_4_CELL_2,STACK_4_CELL_3,STACK_4_CELL_4,STACK_5_CELL_1,STACK_5_CELL_2,STACK_5_CELL_3,STACK_5_CELL_4,STACK_6_CELL_1,STACK_6_CELL_2,STACK_6_CELL_3,STACK_6_CELL_4,MAX_VOLTAGE,MIN_VOLTAGE,TOTAL_VOLTAGE,SHUNT_CURRENT,BMS_MODE_ID,BMS_ERROR_ID,AIR_P,AIR_N,t
1765219740012,0.0,0.0,0.0,0.0,0.0,0.0,36.63114660000001,23.824597457142858,36.63114660000001,23.824597457142858,-0.137738,0.06770999999999999,1.001132,-0.6300000000000001,0.35000000000000003,0.0,3.31,3.31,3.31,3.29,3.3,3.31,3.3,3.32,3.31,3.32,3.32,3.31,3.3,3.31,3.3,3.31,3.31,3.31,3.31,3.31,3.32,3.32,3.31,3.31,3.32,3.29,79.4,-45.0,1.0,2.0,0.0,0.0,1234986
1765219740044,0.0,0.0,0.0,0.0,0.0,0.0,36.63114660000001,0.0,36.63114660000001,23.824597457142858,-0.137738,0.06770999999999999,1.001132,-0.7000000000000001,0.42000000000000004,-0.07,3.31,3.31,3.31,3.29,3.3,3.31,3.3,3.32,3.31,3.32,3.32,3.31,3.3,3.31,3.3,3.31,3.31,3.31,3.31,3.31,3.32,3.32,3.31,3.31,3.32,3.29,79.4,-45.0,1.0,2.0,0.0,0.0,1235018
1765219740130,0.0,0.0,0.0,0.0,0.0,0.0,36.63114660000001,0.0,36.63114660000001,23.824597457142858,-0.137738,0.06770999999999999,1.001132,-0.7000000000000001,0.42000000000000004,-0.07,3.31,3.31,3.31,3.29,3.3,3.31,3.3,3.32,3.31,3.32,3.32,3.31,3.3,3.31,3.3,3.31,3.31,3.31,3.31,3.31,3.32,3.32,3.31,3.31,3.33,3.31,79.6,1.0,1.0,2.0,0.0,0.0,1235104
1765219740147,0.0,0.0,0.0,0.0,0.0,0.0,36.63114660000001,0.0,36.63114660000001,23.824597457142858,-0.137738,0.06770999999999999,1.001132,-0.7000000000000001,0.42000000000000004,-0.07,3.31,3.31,3.31,3.29,3.3,3.31,3.3,3.32,3.31,3.32,3.32,3.31,3.3,3.31,3.3,3.31,3.31,3.31,3.31,3.31,3.32,3.32,3.31,3.31,3.33,3.31,79.6,1.0,1.0,0.0,1.0,1.0,1235121
1765219740179,0.0,0.0,0.0,0.0,0.0,0.0,36.63114660000001,0.0,36.63114660000001,23.824597457142858,-0.071004,0.011712,0.9903959999999999,-0.7000000000000001,0.42000000000000004,-0.07,3.31,3.31,3.31,3.29,3.3,3.31,3.3,3.32,3.31,3.32,3.32,3.31,3.3,3.31,3.3,3.31,3.31,3.31,3.31,3.31,3.32,3.32,3.31,3.31,3.33,3.31,79.6,1.0,1.0,0.0,1.0,1.0,1235153
1765219740196,0.0,0.0,0.0,0.0,0.0,0.0,36.63114660000001,0.0,36.63114660000001,23.824597457142858,-0.071004,0.011712,0.9903959999999999,-0.7000000000000001,0.28,0.0,3.31,3.31,3.31,3.29,3.3,3.31,3.3,3.32,3.31,3.32,3.32,3.31,3.3,3.31,3.3,3.31,3.31,3.31,3.31,3.31,3.32,3.32,3.31,3.31,3.33,3.31,79.6,1.0,1.0,0.0,1.0,1.0,1235170
1765219740245,0.0,0.0,0.0,0.0,0.0,0.0,36.63114660000001,0.0,36.63114660000001,23.824597457142858,-0.071004,0.011712,0.9903959999999999,-0.7000000000000001,0.28,0.0,3.31,3.31,3.31,3.29,3.3,3.31,3.3,3.32,3.31,3.32,3.32,3.31,3.3,3.31,3.3,3.31,3.31,3.31,3.31,3.31,3.32,3.32,3.31,3.31,3.33,3.31,79.6,1.0,1.0,0.0,1.0,1.0,1235219
1765219740262,0.0,0.0,1.0,10.0,0.0,0.0,36.63114660000001,0.0,36.63114660000001,23.824597457142858,-0.071004,0.011712,0.9903959999999999,-0.7000000000000001,0.28,0.0,3.31,3.31,3.31,3.29,3.3,3.31,3.3,3.32,3.31,3.32,3.32,3.31,3.3,3.31,3.3,3.31,3.31,3.31,3.31,3.31,3.32,3.32,3.31,3.31,3.33,3.31,79.6,1.0,1.0,0.0,1.0,1.0,1235236
1765219740278,0.0,0.0,1.0,10.0,0.0,0.0,36.63114660000001,0.0,0.0,0.0,-0.071004,0.011712,0.9903959999999999,-0.7000000000000001,0.28,0.0,3.31,3.31,3.31,3.29,3.3,3.31,3.3,3.32,3.31,3.32,3.32,3.31,3.3,3.31,3.3,3.31,3.31,3.31,3.31,3.31,3.32,3.32,3.31,3.31,3.33,3.31,79.6,1.0,1.0,0.0,1.0,1.0,1235252
1765219740313,0.0,0.0,1.0,10.0,0.0,0.0,0.0,0.0,0.0,0.0,-0.071004,0.011712,0.9903959999999999,-0.7000000000000001,0.28,0.0,3.31,3.31,3.31,3.29,3.3,3.31,3.3,3.32,3.31,3.32,3.32,3.31,3.3,3.31,3.3,3.31,3.31,3.31,3.31,3.31,3.32,3.32,3.31,3.31,3.33,3.31,79.6,1.0,1.0,0.0,1.0,1.0,1235287
1765219740361,0.0,0.0,1.0,10.0,0.0,0.0,0.0,0.0,0.0,0.0,-0.076372,0.00671,0.989054,-0.7000000000000001,0.28,0.0,3.31,3.31,3.31,3.29,3.3,3.31,3.3,3.32,3.31,3.32,3.32,3.31,3.3,3.31,3.3,3.31,3.31,3.31,3.31,3.31,3.32,3.32,3.31,3.31,3.33,3.31,79.6,1.0,1.0,0.0,1.0,1.0,1235335
1765219740412,0.0,0.0,1.0,10.0,0.0,0.0,0.0,0.0,0.0,0.0,-0.076372,0.00671,0.989054,-0.7000000000000001,0.42000000000000004,-0.07,3.31,3.31,3.31,3.29,3.3,3.31,3.3,3.32,3.31,3.32,3.32,3.31,3.3,3.31,3.3,3.31,3.31,3.31,3.31,3.31,3.32,3.32,3.31,3.31,3.33,3.31,79.6,1.0,1.0,0.0,1.0,1.0,1235386
1765219740479,0.0,0.0,1.0,10.0,0.0,0.0,0.0,0.0,0.0,0.0,-0.07076,0.011101999999999999,0.98942,-0.7000000000000001,0.42000000000000004,-0.07,3.31,3.31,3.31,3.29,3.3,3.31,3.3,3.32,3.31,3.32,3.32,3.31,3.3,3.31,3.3,3.31,3.31,3.31,3.31,3.31,3.32,3.32,3.31,3.31,3.33,3.31,79.6,1.0,1.0,0.0,1.0,1.0,1235453
1765219740495,0.0,0.0,1.0,10.0,0.0,0.0,0.0,0.0,0.0,0.0,-0.07076,0.011101999999999999,0.98942,-0.77,0.35000000000000003,0.0,3.31,3.31,3.31,3.29,3.3,3.31,3.3,3.32,3.31,3.32,3.32,3.31,3.3,3.31,3.3,3.31,3.31,3.31,3.31,3.31,3.32,3.32,3.31,3.31,3.33,3.31,79.6,1.0,1.0,0.0,1.0,1.0,1235469
1765219740511,0.0,0.0,1.0,10.0,0.0,0.0,0.0,0.0,0.0,0.0,-0.07076,0.011101999999999999,0.98942,-0.77,0.35000000000000003,0.0,3.31,3.31,3.31,3.29,3.3,3.31,3.3,3.32,3.31,3.32,3.32,3.31,3.3,3.31,3.3,3.31,3.31,3.31,3.31,3.31,3.32,3.32,3.31,3.31,3.33,3.31,79.6,1.0,1.0,0.0,1.0,1.0,1235485
1765219740544,0.0,0.0,1.0,10.0,0.0,0.0,0.0,0.0,0.0,0.0,-0.07076,0.011101999999999999,0.98942,-0.77,0.35000000000000003,0.0,3.31,3.31,3.31,3.29,3.3,3.31,3.3,3.32,3.31,3.32,3.32,3.31,3.3,3.31,3.3,3.31,3.31,3.31,3.31,3.31,3.32,3.32,3.31,3.31,3.33,3.31,79.6,1.0,1.0,0.0,1.0,1.0,1235518
1765219740579,0.0,0.0,1.0,10.0,0.0,0.0,0.0,0.0,0.0,0.0,-0.07076,0.011101999999999999,0.98942,-0.77,0.35000000000000003,0.0,3.31,3.31,3.31,3.29,3.3,3.31,3.3,3.32,3.31,3.32,3.32,3.31,3.3,3.31,3.3,3.31,3.31,3.31,3.31,3.31,3.32,3.32,3.31,3.31,3.33,3.31,79.6,1.0,1.0,0.0,1.0,1.0,1235553
1765219740595,0.0,0.0,1.0,10.0,0.0,0.0,0.0,0.0,0.0,0.0,-0.07076,0.011101999999999999,0.98942,-0.77,0.35000000000000003,0.0,3.31,3.31,3.31,3.29,3.3,3.31,3.3,3.32,3.31,3.32,3.32,3.31,3.3,3.31,3.3,3.31,3.31,3.31,3.31,3.31,3.32,3.32,3.31,3.31,3.33,3.31,79.6,1.0,1.0,0.0,1.0,1.0,1235569
1765219740644,0.0,0.0,1.0,10.0,0.0,0.0,0.0,0.0,0.0,0.0,-0.06709999999999999,0.011224,0.992592,-0.77,0.35000000000000003,0.0,3.31,3.31,3.31,3.29,3.3,3.31,3.3,3.32,3.31,3.32,3.32,3.31,3.3,3.31,3.3,3.31,3.31,3.31,3.31,3.31,3.32,3.32,3.31,3.31,3.33,3.31,79.6,1.0,1.0,0.0,1.0,1.0,1235618
1765219740664,0.0,0.0,1.0,10.0,0.0,0.0,0.0,0.0,0.0,0.0,-0.06709999999999999,0.011224,0.992592,-0.77,0.35000000000000003,0.0,3.31,3.31,3.31,3.29,3.3,3.31,3.3,3.32,3.31,3.32,3.32,3.31,3.3,3.31,3.3,3.31,3.31,3.31,3.31,3.31,3.32,3.32,3.31,3.31,3.33,3.31,79.6,1.0,1.0,0.0,1.0,1.0,1235638
1765219740696,0.0,0.0,1.0,10.0,0.0,0.0,0.0,0.0,0.0,0.0,-0.06709999999999999,0.011224,0.992592,-0.6300000000000001,0.28,-0.07,3.31,3.31,3.31,3.29,3.3,3.31,3.3,3.32,3.31,3.32,3.32,3.31,3.3,3.31,3.3,3.31,3.31,3.31,3.31,3.31,3.32,3.32,3.31,3.31,3.33,3.31,79.6,1.0,1.0,0.0,1.0,1.0,1235670
1765219740711,0.0,0.0,1.0,10.0,0.0,0.0,0.0,0.0,0.0,0.0,-0.06709999999999999,0.011224,0.992592,-0.6300000000000001,0.28,-0.07,3.31,3.31,3.31,3.29,3.3,3.31,3.3,3.32,3.31,3.32,3.32,3.31,3.3,3.31,3.3,3.31,3.31,3.31,3.31,3.31,3.32,3.32,3.31,3.31,3.33,3.31,79.6,1.0,1.0,0.0,1.0,1.0,1235685
1765219740779,0.0,0.0,1.0,10.0,0.0,0.0,0.0,0.0,0.0,0.0,-0.06709999999999999,0.011224,0.992592,-0.6300000000000001,0.28,-0.07,3.31,3.31,3.31,3.29,3.3,3.31,3.3,3.32,3.31,3.32,3.32,3.31,3.3,3.31,3.3,3.31,3.31,3.31,3.31,3.31,3.32,3.32,3.31,3.31,3.33,3.31,79.6,1.0,1.0,0.0,1.0,1.0,1235753
1765219740846,0.0,0.0,1.0,10.0,0.0,0.0,0.0,0.0,0.0,0.0,-0.066002,0.007076,0.989908,-0.6300000000000001,0.28,-0.07,3.31,3.31,3.31,3.29,3.3,3.31,3.3,3.32,3.31,3.32,3.32,3.31,3.3,3.31,3.3,3.31,3.31,3.31,3.31,3.31,3.32,3.32,3.31,3.31,3.33,3.31,79.6,1.0,1.0,0.0,1.0,1.0,1235820
1765219740861,0.0,0.0,1.0,10.0,0.0,0.0,0.0,0.0,0.0,0.0,-0.066002,0.007076,0.989908,-0.49000000000000005,0.35000000000000003,0.0,3.31,3.31,3.31,3.29,3.3,3.31,3.3,3.32,3.31,3.32,3.32,3.31,3.3,3.31,3.3,3.31,3.31,3.31,3.31,3.31,3.32,3.32,3.31,3.31,3.33,3.31,79.6,1.0,1.0,0.0,1.0,1.0,1235835
1765219740913,0.0,0.0,1.0,10.0,0.0,0.0,0.0,0.0,0.0,0.0,-0.066002,0.007076,0.989908,-0.49000000000000005,0.35000000000000003,0.0,3.31,3.31,3.31,3.29,3.3,3.31,3.3,3.32,3.31,3.32,3.32,3.31,3.3,3.31,3.3,3.31,3.31,3.31,3.31,3.31,3.32,3.32,3.31,3.31,3.33,3.31,79.6,1.0,1.0,0.0,1.0,1.0,1235887
1765219740929,0.0,0.0,1.0,10.0,0.0,0.0,0.0,0.0,0.0,0.0,-0.066002,0.007076,0.989908,-0.49000000000000005,0.35000000000000003,0.0,3.31,3.31,3.31,3.29,3.3,3.31,3.3,3.32,3.31,3.32,3.32,3.31,3.3,3.31,3.3,3.31,3.31,3.31,3.31,3.31,3.32,3.32,3.31,3.31,3.33,3.31,79.6,1.0,1.0,0.0,1.0,1.0,1235903
1765219740946,0.0,0.0,1.0,10.0,0.0,0.0,0.0,0.0,0.0,0.0,-0.057096,0.004392,0.987956,-0.49000000000000005,0.35000000000000003,0.0,3.31,3.31,3.31,3.29,3.3,3.31,3.3,3.32,3.31,3.32,3.32,3.31,3.3,3.31,3.3,3.31,3.31,3.31,3.31,3.31,3.32,3.32,3.31,3.31,3.33,3.31,79.6,1.0,1.0,0.0,1.0,1.0,1235920
1765219740963,0.0,0.0,1.0,10.0,0.0,0.0,0.0,0.0,0.0,0.0,-0.057096,0.004392,0.987956,-0.49000000000000005,0.35000000000000003,0.0,3.31,3.31,3.31,3.29,3.3,3.31,3.3,3.32,3.31,3.32,3.32,3.31,3.3,3.31,3.3,3.31,3.31,3.31,3.31,3.31,3.32,3.32,3.31,3.31,3.33,3.31,79.6,1.0,1.0,0.0,1.0,1.0,1235937
1765219740995,0.0,0.0,1.0,10.0,0.0,0.0,0.0,0.0,0.0,0.0,-0.057096,0.004392,0.987956,-0.56,0.21000000000000002,0.0,3.31,3.31,3.31,3.29,3.3,3.31,3.3,3.32,3.31,3.32,3.32,3.31,3.3,3.31,3.3,3.31,3.31,3.31,3.31,3.31,3.32,3.32,3.31,3.31,3.33,3.31,79.6,1.0,1.0,0.0,1.0,1.0,1235969
1765219741062,0.0,0.0,1.0,10.0,0.0,0.0,0.0,0.0,0.0,0.0,-0.057096,0.004392,0.987956,-0.56,0.21000000000000002,0.0,3.31,3.31,3.31,3.29,3.3,3.31,3.3,3.32,3.31,3.32,3.32,3.31,3.3,3.31,3.3,3.31,3.31,3.31,3.31,3.31,3.32,3.32,3.31,3.31,3.33,3.31,79.6,1.0,1.0,0.0,1.0,1.0,1236036
1765219741129,0.0,0.0,1.0,10.0,0.0,0.0,0.0,0.0,0.0,0.0,-0.05185,0.011467999999999999,0.99674,-0.56,0.21000000000000002,0.0,3.31,3.31,3.31,3.29,3.3,3.31,3.3,3.32,3.31,3.32,3.32,3.31,3.3,3.31,3.3,3.31,3.31,3.31,3.31,3.31,3.32,3.32,3.31,3.31,3.33,3.31,79.6,1.0,1.0,0.0,1.0,1.0,1236103
1765219741146,0.0,0.0,1.0,10.0,0.0,0.0,0.0,0.0,0.0,0.0,-0.05185,0.011467999999999999,0.99674,-0.7000000000000001,0.42000000000000004,0.0,3.31,3.31,3.31,3.29,3.3,3.31,3.3,3.32,3.31,3.32,3.32,3.31,3.3,3.31,3.3,3.31,3.31,3.31,3.31,3.31,3.32,3.32,3.31,3.31,3.33,3.31,79.6,1.0,1.0,0.0,1.0,1.0,1236120
1765219741180,0.0,0.0,1.0,10.0,0.0,0.0,0.0,0.0,0.0,0.0,-0.05185,0.011467999999999999,0.99674,-0.7000000000000001,0.42000000000000004,0.0,3.31,3.31,3.31,3.29,3.3,3.31,3.3,3.32,3.31,3.32,3.32,3.31,3.3,3.31,3.3,3.31,3.31,3.31,3.31,3.31,3.32,3.32,3.31,3.31,3.33,3.31,79.6,-1.0,1.0,0.0,1.0,1.0,1236154
1765219741229,0.0,0.0,1.0,10.0,0.0,0.0,0.0,0.0,0.0,0.0,-0.05185,0.011467999999999999,0.99674,-0.7000000000000001,0.42000000000000004,0.0,3.31,3.31,3.31,3.29,3.3,3.31,3.3,3.32,3.31,3.32,3.32,3.31,3.3,3.31,3.3,3.31,3.31,3.31,3.31,3.31,3.32,3.32,3.31,3.31,3.33,3.31,79.6,-1.0,1.0,0.0,1.0,1.0,1236203
1765219741246,0.0,0.0,1.0,10.0,0.0,0.0,0.0,0.0,0.0,0.0,-0.05185,0.011467999999999999,0.99674,-0.56,0.35000000000000003,0.07,3.31,3.31,3.31,3.29,3.3,3.31,3.3,3.32,3.31,3.32,3.32,3.31,3.3,3.31,3.3,3.31,3.31,3.31,3.31,3.31,3.32,3.32,3.31,3.31,3.33,3.31,79.6,-1.0,1.0,0.0,1.0,1.0,1236220
1765219741313,0.0,0.0,1.0,10.0,0.0,0.0,0.0,0.0,0.0,0.0,-0.06893,0.010003999999999999,0.991738,-0.56,0.35000000000000003,0.07,3.31,3.31,3.31,3.29,3.3,3.31,3.3,3.32,3.31,3.32,3.32,3.31,3.3,3.31,3.3,3.31,3.31,3.31,3.31,3.31,3.32,3.32,3.31,3.31,3.33,3.31,79.6,-1.0,1.0,0.0,1.0,1.0,1236287
1765219741346,0.0,0.0,1.0,10.0,0.0,0.0,0.0,0.0,0.0,0.0,-0.06893,0.010003999999999999,0.991738,-0.7000000000000001,0.35000000000000003,-0.07,3.31,3.31,3.31,3.29,3.3,3.31,3.3,3.32,3.31,3.32,3.32,3.31,3.3,3.31,3.3,3.31,3.31,3.31,3.31,3.31,3.32,3.32,3.31,3.31,3.33,3.31,79.6,-1.0,1.0,0.0,1.0,1.0,1236320
1765219741380,0.0,0.0,1.0,10.0,0.0,0.0,0.0,0.0,0.0,0.0,-0.06893,0.010003999999999999,0.991738,-0.7000000000000001,0.35000000000000003,-0.07,3.31,3.31,3.31,3.29,3.3,3.31,3.3,3.32,3.31,3.32,3.32,3.31,3.3,3.31,3.3,3.31,3.31,3.31,3.31,3.31,3.32,3.32,3.31,3.31,3.33,3.31,79.6,-1.0,1.0,0.0,1.0,1.0,1236354
1765219741396,0.0,0.0,1.0,10.0,0.0,0.0,0.0,0.0,0.0,0.0,-0.06893,0.010003999999999999,0.991738,-0.7000000000000001,0.35000000000000003,-0.07,3.31,3.31,3.31,3.29,3.3,3.31,3.3,3.32,3.31,3.32,3.32,3.31,3.3,3.31,3.3,3.31,3.31,3.31,3.31,3.31,3.32,3.32,3.31,3.31,3.33,3.31,79.6,-1.0,1.0,0.0,1.0,1.0,1236370
1765219741412,0.0,0.0,1.0,10.0,0.0,0.0,0.0,0.0,0.0,0.0,-0.06893,0.010003999999999999,0.991738,-0.7000000000000001,0.35000000000000003,-0.07,3.31,3.31,3.31,3.29,3.3,3.31,3.3,3.32,3.31,3.32,3.32,3.31,3.3,3.31,3.3,3.31,3.31,3.31,3.31,3.31,3.32,3.32,3.31,3.31,3.33,3.31,79.6,0.0,1.0,0.0,1.0,1.0,1236386
1765219741430,0.0,0.0,1.0,10.0,0.0,0.0,0.0,0.0,0.0,0.0,-0.06893,0.010003999999999999,0.991738,-0.7000000000000001,0.35000000000000003,-0.07,3.31,3.31,3.31,3.29,3.3,3.31,3.3,3.32,3.31,3.32,3.32,3.31,3.3,3.31,3.3,3.31,3.31,3.31,3.31,3.31,3.32,3.32,3.31,3.31,3.33,3.31,79.6,0.0,1.0,0.0,1.0,1.0,1236404
1765219741446,0.0,0.0,1.0,10.0,0.0,0.0,0.0,0.0,0.0,0.0,-0.06893,0.010003999999999999,0.991738,-0.7000000000000001,0.35000000000000003,-0.07,3.31,3.31,3.31,3.29,3.3,3.31,3.3,3.32,3.31,3.32,3.32,3.31,3.3,3.31,3.3,3.31,3.31,3.31,3.31,3.31,3.32,3.32,3.31,3.31,3.33,3.31,79.6,0.0,1.0,0.0,1.0,1.0,1236420
1765219741479,0.0,0.0,1.0,10.0,0.0,0.0,0.0,0.0,0.0,0.0,-0.06893,0.010003999999999999,0.991738,-0.7000000000000001,0.35000000000000003,-0.07,3.31,3.31,3.31,3.29,3.3,3.31,3.3,3.32,3.31,3.32,3.32,3.31,3.3,3.31,3.3,3.31,3.31,3.31,3.31,3.31,3.32,3.32,3.31,3.31,3.33,3.31,79.6,0.0,1.0,0.0,1.0,1.0,1236453
1765219741529,0.0,0.0,1.0,10.0,0.0,0.0,0.0,0.0,0.0,0.0,-0.06893,0.010003999999999999,0.991738,-0.7000000000000001,0.35000000000000003,-0.07,3.31,3.31,3.31,3.29,3.3,3.31,3.3,3.32,3.31,3.32,3.32,3.31,3.3,3.31,3.3,3.31,3.31,3.31,3.31,3.31,3.32,3.32,3.31,3.31,3.33,3.31,79.6,0.0,1.0,0.0,1.0,1.0,1236503
1765219741563,0.0,0.0,1.0,10.0,0.0,0.0,0.0,0.0,0.0,0.0,-0.07076,0.01098,0.987712,-0.7000000000000001,0.35000000000000003,-0.07,3.31,3.31,3.31,3.29,3.3,3.31,3.3,3.32,3.31,3.32,3.32,3.31,3.3,3.31,3.3,3.31,3.31,3.31,3.31,3.31,3.32,3.32,3.31,3.31,3.33,3.31,79.6,0.0,1.0,0.0,1.0,1.0,1236537
1765219741596,0.0,0.0,1.0,10.0,0.0,0.0,0.0,0.0,0.0,0.0,-0.07076,0.01098,0.987712,-0.6300000000000001,0.35000000000000003,0.0,3.31,3.31,3.31,3.29,3.3,3.31,3.3,3.32,3.31,3.32,3.32,3.31,3.3,3.31,3.3,3.31,3.31,3.31,3.31,3.31,3.32,3.32,3.31,3.31,3.33,3.31,79.6,0.0,1.0,0.0,1.0,1.0,1236570
1765219741646,0.0,0.0,1.0,10.0,0.0,0.0,0.0,0.0,0.0,0.0,-0.07063799999999999,0.00915,0.9952759999999999,-0.6300000000000001,0.35000000000000003,0.0,3.31,3.31,3.31,3.29,3.3,3.31,3.3,3.32,3.31,3.32,3.32,3.31,3.3,3.31,3.3,3.31,3.31,3.31,3.31,3.31,3.32,3.32,3.31,3.31,3.33,3.31,79.6,0.0,1.0,0.0,1.0,1.0,1236620
1765219741663,0.0,0.0,1.0,10.0,0.0,0.0,0.0,0.0,0.0,0.0,-0.07063799999999999,0.00915,0.9952759999999999,-0.6300000000000001,0.35000000000000003,0.07,3.31,3.31,3.31,3.29,3.3,3.31,3.3,3.32,3.31,3.32,3.32,3.31,3.3,3.31,3.3,3.31,3.31,3.31,3.31,3.31,3.32,3.32,3.31,3.31,3.33,3.31,79.6,0.0,1.0,0.0,1.0,1.0,1236637
1765219741696,0.0,0.0,1.0,10.0,0.0,0.0,0.0,0.0,0.0,0.0,-0.07063799999999999,0.00915,0.9952759999999999,-0.6300000000000001,0.35000000000000003,0.07,3.31,3.31,3.31,3.29,3.3,3.31,3.3,3.32,3.31,3.32,3.32,3.31,3.3,3.31,3.3,3.31,3.31,3.31,3.31,3.31,3.32,3.32,3.31,3.31,3.33,3.31,79.6,0.0,1.0,0.0,1.0,1.0,1236670
1765219741713,0.0,0.0,1.0,10.0,0.0,0.0,0.0,0.0,0.0,0.0,-0.07063799999999999,0.00915,0.9952759999999999,-0.6300000000000001,0.35000000000000003,0.07,3.31,3.31,3.31,3.29,3.3,3.31,3.3,3.32,3.31,3.32,3.32,3.31,3.3,3.31,3.3,3.31,3.31,3.31,3.31,3.31,3.32,3.32,3.31,3.31,3.33,3.31,79.6,0.0,1.0,0.0,1.0,1.0,1236687
1765219741745,0.0,0.0,1.0,10.0,0.0,0.0,0.0,0.0,0.0,0.0,-0.07063799999999999,0.00915,0.9952759999999999,-0.6300000000000001,0.35000000000000003,0.07,3.31,3.31,3.31,3.29,3.3,3.31,3.3,3.32,3.31,3.32,3.32,3.31,3.3,3.31,3.3,3.31,3.31,3.31,3.31,3.31,3.32,3.32,3.31,3.31,3.33,3.31,79.6,0.0,1.0,0.0,1.0,1.0,1236719
1765219741763,0.0,0.0,1.0,10.0,0.0,0.0,0.0,0.0,0.0,0.0,-0.07063799999999999,0.00915,0.9952759999999999,-0.6300000000000001,0.35000000000000003,0.07,3.31,3.31,3.31,3.29,3.3,3.31,3.3,3.32,3.31,3.32,3.32,3.31,3.3,3.31,3.3,3.31,3.31,3.31,3.31,3.31,3.32,3.32,3.31,3.31,3.33,3.31,79.6,0.0,1.0,0.0,1.0,1.0,1236737
1765219741812,0.0,0.0,1.0,10.0,0.0,0.0,0.0,0.0,0.0,0.0,-0.07063799999999999,0.00915,0.9952759999999999,-0.6300000000000001,0.35000000000000003,0.07,3.31,3.31,3.31,3.29,3.3,3.31,3.3,3.32,3.31,3.32,3.32,3.31,3.3,3.31,3.3,3.31,3.31,3.31,3.31,3.31,3.32,3.32,3.31,3.31,3.33,3.31,79.6,0.0,1.0,0.0,1.0,1.0,1236786
1765219741829,0.0,0.0,1.0,10.0,0.0,0.0,0.0,0.0,0.0,0.0,-0.070394,0.008418,0.987834,-0.6300000000000001,0.35000000000000003,0.07,3.31,3.31,3.31,3.29,3.3,3.31,3.3,3.32,3.31,3.32,3.32,3.31,3.3,3.31,3.3,3.31,3.31,3.31,3.31,3.31,3.32,3.32,3.31,3.31,3.33,3.31,79.6,0.0,1.0,0.0,1.0,1.0,1236803
1765219741896,0.0,0.0,1.0,10.0,0.0,0.0,0.0,0.0,0.0,0.0,-0.070394,0.008418,0.987834,-0.6300000000000001,0.35000000000000003,0.07,3.31,3.31,3.31,3.29,3.3,3.31,3.3,3.32,3.31,3.32,3.32,3.31,3.3,3.31,3.3,3.31,3.32,3.32,3.32,3.32,3.32,3.32,3.31,3.31,3.33,3.31,79.6,0.0,1.0,0.0,1.0,1.0,1236870
1765219741946,0.0,0.0,1.0,10.0,0.0,0.0,0.0,0.0,0.0,0.0,-0.070394,0.008418,0.987834,-0.6300000000000001,0.35000000000000003,0.07,3.31,3.31,3.31,3.29,3.3,3.31,3.3,3.32,3.31,3.32,3.32,3.31,3.3,3.31,3.3,3.31,3.32,3.32,3.32,3.32,3.33,3.33,3.33,3.32,3.33,3.31,79.6,0.0,1.0,0.0,1.0,1.0,1236920
1765219742012,0.0,0.0,1.0,10.0,0.0,0.0,0.0,0.0,0.0,0.0,-0.074908,0.009271999999999999,0.990518,-0.6300000000000001,0.35000000000000003,0.07,3.31,3.31,3.31,3.29,3.3,3.31,3.3,3.32,3.31,3.32,3.32,3.31,3.3,3.31,3.3,3.31,3.32,3.32,3.32,3.32,3.33,3.33,3.33,3.32,3.33,3.31,79.6,0.0,1.0,0.0,1.0,1.0,1236986
1765219742047,0.0,0.0,1.0,10.0,0.0,0.0,0.0,0.0,0.0,0.0,-0.074908,0.009271999999999999,0.990518,-0.7000000000000001,0.35000000000000003,-0.14,3.31,3.31,3.31,3.29,3.3,3.31,3.3,3.32,3.31,3.32,3.32,3.31,3.3,3.31,3.3,3.31,3.32,3.32,3.32,3.32,3.33,3.33,3.33,3.32,3.33,3.31,79.6,0.0,1.0,0.0,1.0,1.0,1237021
1765219742080,0.0,0.0,1.0,10.0,0.0,0.0,0.0,0.0,0.0,0.0,-0.074908,0.009271999999999999,0.990518,-0.7000000000000001,0.35000000000000003,-0.14,3.31,3.31,3.31,3.29,3.3,3.31,3.3,3.32,3.31,3.32,3.32,3.31,3.3,3.31,3.3,3.31,3.32,3.32,3.32,3.32,3.33,3.33,3.33,3.32,3.33,3.31,79.6,0.0,1.0,0.0,1.0,1.0,1237054
1765219742096,0.0,0.0,1.0,10.0,0.0,0.0,0.0,0.0,0.0,0.0,-0.074908,0.009271999999999999,0.990518,-0.7000000000000001,0.35000000000000003,-0.14,3.31,3.31,3.31,3.29,3.3,3.31,3.3,3.32,3.31,3.32,3.32,3.31,3.3,3.31,3.3,3.31,3.32,3.32,3.32,3.32,3.33,3.33,3.33,3.32,3.33,3.31,79.6,0.0,1.0,0.0,1.0,1.0,1237070
1765219742112,0.0,0.0,1.0,10.0,0.0,0.0,0.0,0.0,0.0,0.0,-0.074908,0.009271999999999999,0.990518,-0.7000000000000001,0.35000000000000003,-0.14,3.31,3.31,3.31,3.29,3.3,3.31,3.3,3.32,3.31,3.32,3.32,3.31,3.3,3.31,3.3,3.31,3.32,3.32,3.32,3.32,3.33,3.33,3.33,3.32,3.33,3.31,79.6,0.0,1.0,0.0,1.0,1.0,1237086
1765219742129,0.0,0.0,1.0,10.0,0.0,0.0,0.0,0.0,0.0,0.0,-0.076372,0.009271999999999999,0.993568,-0.7000000000000001,0.35000000000000003,-0.14,3.31,3.31,3.31,3.29,3.3,3.31,3.3,3.32,3.31,3.32,3.32,3.31,3.3,3.31,3.3,3.31,3.32,3.32,3.32,3.32,3.33,3.33,3.33,3.32,3.33,3.31,79.6,0.0,1.0,0.0,1.0,1.0,1237103
1765219742163,0.0,0.0,1.0,10.0,0.0,0.0,0.0,0.0,0.0,0.0,-0.076372,0.009271999999999999,0.993568,-0.6300000000000001,0.28,-0.07,3.31,3.31,3.31,3.29,3.3,3.31,3.3,3.32,3.31,3.32,3.32,3.31,3.3,3.31,3.3,3.31,3.32,3.32,3.32,3.32,3.33,3.33,3.33,3.32,3.33,3.31,79.6,0.0,1.0,0.0,1.0,1.0,1237137
1765219742229,0.0,0.0,1.0,10.0,0.0,0.0,0.0,0.0,0.0,0.0,-0.076372,0.009271999999999999,0.993568,-0.6300000000000001,0.28,-0.07,3.31,3.31,3.31,3.29,3.3,3.31,3.3,3.32,3.31,3.32,3.32,3.31,3.3,3.31,3.3,3.31,3.32,3.32,3.32,3.32,3.33,3.33,3.33,3.32,3.33,3.31,79.6,0.0,1.0,0.0,1.0,1.0,1237203
1765219742313,0.0,0.0,1.0,10.0,0.0,0.0,0.0,0.0,0.0,0.0,-0.072224,0.009028,0.984418,-0.6300000000000001,0.28,-0.07,3.31,3.31,3.31,3.29,3.3,3.31,3.3,3.32,3.31,3.32,3.32,3.31,3.3,3.31,3.3,3.31,3.32,3.32,3.32,3.32,3.33,3.33,3.33,3.32,3.33,3.31,79.6,0.0,1.0,0.0,1.0,1.0,1237287
1765219742329,0.0,0.0,1.0,10.0,0.0,0.0,0.0,0.0,0.0,0.0,-0.072224,0.009028,0.984418,-0.56,0.42000000000000004,-0.14,3.31,3.31,3.31,3.29,3.3,3.31,3.3,3.32,3.31,3.32,3.32,3.31,3.3,3.31,3.3,3.31,3.32,3.32,3.32,3.32,3.33,3.33,3.33,3.32,3.33,3.31,79.6,0.0,1.0,0.0,1.0,1.0,1237303
1765219742379,0.0,0.0,1.0,10.0,0.0,0.0,0.0,0.0,0.0,0.0,-0.072224,0.009028,0.984418,-0.56,0.42000000000000004,-0.14,3.31,3.31,3.31,3.29,3.3,3.31,3.3,3.32,3.31,3.32,3.32,3.31,3.3,3.31,3.3,3.31,3.32,3.32,3.32,3.32,3.33,3.33,3.33,3.32,3.33,3.31,79.6,0.0,1.0,0.0,1.0,1.0,1237353
1765219742395,0.0,0.0,1.0,10.0,0.0,0.0,0.0,0.0,0.0,0.0,-0.072224,0.009028,0.984418,-0.56,0.42000000000000004,-0.14,3.31,3.31,3.31,3.29,3.3,3.31,3.3,3.32,3.31,3.32,3.32,3.31,3.3,3.31,3.3,3.31,3.32,3.32,3.32,3.32,3.33,3.33,3.33,3.32,3.33,3.31,79.6,0.0,1.0,0.0,1.0,1.0,1237369
1765219742412,0.0,0.0,1.0,10.0,0.0,0.0,0.0,0.0,0.0,0.0,-0.067832,0.010492,0.988444,-0.56,0.42000000000000004,-0.14,3.31,3.31,3.31,3.29,3.3,3.31,3.3,3.32,3.31,3.32,3.32,3.31,3.3,3.31,3.3,3.31,3.32,3.32,3.32,3.32,3.33,3.33,3.33,3.32,3.33,3.31,79.6,0.0,1.0,0.0,1.0,1.0,1237386
1765219742429,0.0,0.0,1.0,10.0,0.0,0.0,0.0,0.0,0.0,0.0,-0.067832,0.010492,0.988444,-0.56,0.42000000000000004,-0.14,3.31,3.31,3.31,3.29,3.3,3.31,3.3,3.32,3.31,3.32,3.32,3.31,3.3,3.31,3.3,3.31,3.32,3.32,3.32,3.32,3.33,3.33,3.33,3.32,3.33,3.31,79.6,0.0,1.0,0.0,1.0,1.0,1237403
1765219742463,0.0,0.0,1.0,10.0,0.0,0.0,0.0,0.0,0.0,0.0,-0.067832,0.010492,0.988444,-0.49000000000000005,0.35000000000000003,-0.07,3.31,3.31,3.31,3.29,3.3,3.31,3.3,3.32,3.31,3.32,3.32,3.31,3.3,3.31,3.3,3.31,3.32,3.32,3.32,3.32,3.33,3.33,3.33,3.32,3.33,3.31,79.6,0.0,1.0,0.0,1.0,1.0,1237437
1765219742528,10.0,0.0,1.0,10.0,0.0,0.0,0.0,0.0,0.0,0.0,-0.067832,0.010492,0.988444,-0.49000000000000005,0.35000000000000003,-0.07,3.31,3.31,3.31,3.29,3.3,3.31,3.3,3.32,3.31,3.32,3.32,3.31,3.3,3.31,3.3,3.31,3.32,3.32,3.32,3.32,3.33,3.33,3.33,3.32,3.33,3.31,79.6,0.0,1.0,0.0,1.0,1.0,1237502
1765219742545,10.0,0.0,1.0,10.0,0.0,0.0,0.0,0.0,0.0,0.0,-0.067832,0.010492,0.988444,-0.49000000000000005,0.35000000000000003,-0.07,3.31,3.31,3.31,3.29,3.3,3.31,3.3,3.32,3.31,3.32,3.32,3.31,3.3,3.31,3.3,3.31,3.32,3.32,3.32,3.32,3.33,3.33,3.33,3.32,3.33,3.31,79.6,0.0,1.0,0.0,1.0,1.0,1237519
1765219742562,10.0,0.0,1.0,10.0,0.0,0.0,0.0,0.0,0.0,0.0,-0.067832,0.010492,0.988444,-0.49000000000000005,0.35000000000000003,-0.07,3.31,3.31,3.31,3.29,3.3,3.31,3.3,3.32,3.31,3.32,3.32,3.31,3.3,3.31,3.3,3.31,3.32,3.32,3.32,3.32,3.33,3.33,3.33,3.32,3.33,3.31,79.6,0.0,1.0,0.0,1.0,1.0,1237536
1765219742580,10.0,0.0,1.0,10.0,0.0,0.0,0.0,0.0,0.0,0.0,-0.067832,0.010492,0.988444,-0.49000000000000005,0.35000000000000003,-0.07,3.31,3.31,3.31,3.29,3.3,3.31,3.3,3.32,3.31,3.32,3.32,3.31,3.3,3.31,3.3,3.31,3.32,3.32,3.32,3.32,3.33,3.33,3.33,3.32,3.33,3.31,79.6,0.0,1.0,0.0,1.0,1.0,1237554
1765219742613,10.0,0.0,1.0,10.0,0.0,0.0,0.0,0.0,0.0,0.0,-0.067832,0.010492,0.988444,-0.49000000000000005,0.35000000000000003,-0.07,3.31,3.31,3.31,3.29,3.3,3.31,3.3,3.32,3.31,3.32,3.32,3.31,3.3,3.31,3.3,3.31,3.32,3.32,3.32,3.32,3.33,3.33,3.33,3.32,3.33,3.31,79.6,0.0,1.0,0.0,1.0,1.0,1237587
1765219742646,10.0,0.0,1.0,10.0,0.0,0.0,0.0,0.0,0.0,0.0,-0.078568,-0.003172,0.98515,-0.49000000000000005,0.35000000000000003,-0.07,3.31,3.31,3.31,3.29,3.3,3.31,3.3,3.32,3.31,3.32,3.32,3.31,3.3,3.31,3.3,3.31,3.32,3.32,3.32,3.32,3.33,3.33,3.33,3.32,3.33,3.31,79.6,0.0,1.0,0.0,1.0,1.0,1237620
1765219742663,10.0,0.0,1.0,10.0,0.0,0.0,0.0,0.0,0.0,0.0,-0.078568,-0.003172,0.98515,-0.49000000000000005,0.35000000000000003,-0.07,3.31,3.31,3.31,3.29,3.3,3.31,3.3,3.32,3.31,3.32,3.32,3.31,3.3,3.31,3.3,3.31,3.32,3.32,3.32,3.32,3.33,3.33,3.33,3.32,3.33,3.31,79.6,0.0,1.0,0.0,1.0,1.0,1237637
1765219742712,10.0,0.0,1.0,10.0,0.0,0.0,0.0,0.0,0.0,0.0,-0.078568,-0.003172,0.98515,-0.7000000000000001,0.35000000000000003,-0.07,3.31,3.31,3.31,3.29,3.3,3.31,3.3,3.32,3.31,3.32,3.32,3.31,3.3,3.31,3.3,3.31,3.32,3.32,3.32,3.32,3.33,3.33,3.33,3.32,3.33,3.31,79.6,0.0,1.0,0.0,1.0,1.0,1237686
1765219742748,10.0,0.0,1.0,10.0,0.0,0.0,0.0,0.0,0.0,0.0,-0.078568,-0.003172,0.98515,-0.7000000000000001,0.35000000000000003,-0.07,3.31,3.31,3.31,3.29,3.3,3.31,3.3,3.32,3.31,3.32,3.32,3.31,3.3,3.31,3.3,3.31,3.32,3.32,3.32,3.32,3.33,3.33,3.33,3.32,3.33,3.31,79.6,0.0,1.0,0.0,1.0,1.0,1237722
1765219742796,10.0,0.0,1.0,10.0,0.0,0.0,0.0,0.0,0.0,0.0,-0.056364,0.011956,0.988444,-0.7000000000000001,0.35000000000000003,-0.07,3.31,3.31,3.31,3.29,3.3,3.31,3.3,3.32,3.31,3.32,3.32,3.31,3.3,3.31,3.3,3.31,3.32,3.32,3.32,3.32,3.33,3.33,3.33,3.32,3.33,3.31,79.6,0.0,1.0,0.0,1.0,1.0,1237770
1765219742814,10.0,0.0,1.0,10.0,0.0,0.0,0.0,0.0,0.0,0.0,-0.056364,0.011956,0.988444,-0.7000000000000001,0.56,0.07,3.31,3.31,3.31,3.29,3.3,3.31,3.3,3.32,3.31,3.32,3.32,3.31,3.3,3.31,3.3,3.31,3.32,3.32,3.32,3.32,3.33,3.33,3.33,3.32,3.33,3.31,79.6,0.0,1.0,0.0,1.0,1.0,1237788
1765219742846,0.0,0.0,1.0,10.0,0.0,0.0,0.0,0.0,0.0,0.0,-0.056364,0.011956,0.988444,-0.7000000000000001,0.56,0.07,3.31,3.31,3.31,3.29,3.3,3.31,3.3,3.32,3.31,3.32,3.32,3.31,3.3,3.31,3.3,3.31,3.32,3.32,3.32,3.32,3.33,3.33,3.33,3.32,3.33,3.31,79.6,0.0,1.0,0.0,1.0,1.0,1237820
1765219742863,0.0,0.0,1.0,10.0,0.0,0.0,0.0,0.0,0.0,0.0,-0.056364,0.011956,0.988444,-0.7000000000000001,0.56,0.07,3.31,3.31,3.31,3.29,3.3,3.31,3.3,3.32,3.31,3.32,3.32,3.31,3.3,3.31,3.3,3.31,3.32,3.32,3.32,3.32,3.33,3.33,3.33,3.32,3.33,3.31,79.6,0.0,1.0,0.0,1.0,1.0,1237837
1765219742896,0.0,0.0,1.0,10.0,0.0,0.0,0.0,0.0,0.0,0.0,-0.056364,0.011956,0.988444,-0.7000000000000001,0.56,0.07,3.31,3.31,3.31,3.29,3.3,3.31,3.3,3.32,3.31,3.32,3.32,3.31,3.3,3.31,3.3,3.31,3.32,3.32,3.32,3.32,3.33,3.33,3.33,3.32,3.33,3.31,79.6,0.0,1.0,0.0,1.0,1.0,1237870
1765219742913,0.0,0.0,1.0,10.0,0.0,0.0,0.0,0.0,0.0,0.0,-0.056364,0.011956,0.988444,-0.7000000000000001,0.56,0.07,3.31,3.31,3.31,3.29,3.3,3.31,3.3,3.32,3.31,3.32,3.32,3.31,3.3,3.31,3.3,3.31,3.32,3.32,3.32,3.32,3.33,3.33,3.33,3.32,3.33,3.31,79.6,0.0,1.0,0.0,1.0,1.0,1237887
1765219742963,0.0,0.0,1.0,10.0,0.0,0.0,0.0,0.0,0.0,0.0,-0.056364,0.011956,0.988444,-0.7000000000000001,0.56,0.07,3.31,3.31,3.31,3.29,3.3,3.31,3.3,3.32,3.31,3.32,3.32,3.31,3.3,3.31,3.3,3.31,3.32,3.32,3.32,3.32,3.33,3.33,3.33,3.32,3.33,3.31,79.6,0.0,1.0,0.0,1.0,1.0,1237937
1765219742980,0.0,0.0,1.0,10.0,0.0,0.0,0.0,0.0,0.0,0.0,-0.06283,0.02013,0.996252,-0.7000000000000001,0.56,0.07,3.31,3.31,3.31,3.29,3.3,3.31,3.3,3.32,3.31,3.32,3.32,3.31,3.3,3.31,3.3,3.31,3.32,3.32,3.32,3.32,3.33,3.33,3.33,3.32,3.33,3.31,79.6,0.0,1.0,0.0,1.0,1.0,1237954
1765219743013,0.0,0.0,1.0,10.0,0.0,0.0,0.0,0.0,0.0,0.0,-0.06283,0.02013,0.996252,-0.35000000000000003,0.7000000000000001,-0.14,3.31,3.31,3.31,3.29,3.3,3.31,3.3,3.32,3.31,3.32,3.32,3.31,3.3,3.31,3.3,3.31,3.32,3.32,3.32,3.32,3.33,3.33,3.33,3.32,3.33,3.31,79.6,0.0,1.0,0.0,1.0,1.0,1237987
1765219743080,0.0,0.0,1.0,10.0,0.0,0.0,0.0,0.0,0.0,0.0,-0.078934,0.002806,0.9989359999999999,-0.35000000000000003,0.7000000000000001,-0.14,3.31,3.31,3.31,3.29,3.3,3.31,3.3,3.32,3.31,3.32,3.32,3.31,3.3,3.31,3.3,3.31,3.32,3.32,3.32,3.32,3.33,3.33,3.33,3.32,3.33,3.31,79.6,0.0,1.0,0.0,1.0,1.0,1238054
1765219743096,0.0,0.0,1.0,10.0,0.0,0.0,0.0,0.0,0.0,0.0,-0.078934,0.002806,0.9989359999999999,-0.9100000000000001,0.14,-0.14,3.31,3.31,3.31,3.29,3.3,3.31,3.3,3.32,3.31,3.32,3.32,3.31,3.3,3.31,3.3,3.31,3.32,3.32,3.32,3.32,3.33,3.33,3.33,3.32,3.33,3.31,79.6,0.0,1.0,0.0,1.0,1.0,1238070
1765219743130,0.0,0.0,1.0,10.0,0.0,0.0,0.0,0.0,0.0,0.0,-0.078934,0.002806,0.9989359999999999,-0.49000000000000005,0.35000000000000003,-0.07,3.31,3.31,3.31,3.29,3.3,3.31,3.3,3.32,3.31,3.32,3.32,3.31,3.3,3.31,3.3,3.31,3.32,3.32,3.32,3.32,3.33,3.33,3.33,3.32,3.33,3.31,79.6,0.0,1.0,0.0,1.0,1.0,1238104
1765219743146,0.0,0.0,1.0,10.0,0.0,0.0,0.0,0.0,0.0,0.0,-0.078934,0.002806,0.9989359999999999,-0.49000000000000005,0.35000000000000003,-0.07,3.31,3.31,3.31,3.29,3.3,3.31,3.3,3.32,3.32,3.33,3.33,3.32,3.3,3.31,3.3,3.31,3.32,3.32,3.32,3.32,3.33,3.33,3.33,3.32,3.33,3.31,79.6,0.0,1.0,0.0,1.0,1.0,1238120
1765219743163,0.0,0.0,1.0,10.0,0.0,0.0,0.0,0.0,0.0,0.0,-0.078934,0.002806,0.9989359999999999,-0.49000000000000005,0.35000000000000003,-0.07,3.31,3.31,3.31,3.29,3.3,3.31,3.3,3.32,3.32,3.33,3.33,3.32,3.31,3.32,3.31,3.31,3.32,3.32,3.32,3.32,3.33,3.33,3.33,3.32,3.33,3.31,79.6,0.0,1.0,0.0,1.0,1.0,1238137
1765219743179,0.0,0.0,1.0,10.0,0.0,0.0,0.0,0.0,0.0,0.0,-0.078934,0.002806,0.9989359999999999,-0.49000000000000005,0.35000000000000003,-0.07,3.31,3.31,3.31,3.29,3.3,3.31,3.3,3.32,3.32,3.33,3.33,3.32,3.31,3.32,3.31,3.31,3.32,3.32,3.32,3.32,3.33,3.33,3.33,3.32,3.33,3.31,79.6,0.0,1.0,0.0,1.0,1.0,1238153
1765219743196,0.0,0.0,1.0,10.0,0.0,0.0,0.0,0.0,0.0,0.0,-0.078934,0.002806,0.9989359999999999,-0.49000000000000005,0.35000000000000003,-0.07,3.31,3.31,3.31,3.29,3.3,3.31,3.3,3.32,3.32,3.33,3.33,3.32,3.31,3.32,3.31,3.31,3.32,3.32,3.32,3.32,3.33,3.33,3.33,3.32,3.33,3.31,79.6,0.0,1.0,0.0,1.0,1.0,1238170
1765219743229,620.0,0.0,1.0,10.0,0.0,0.0,0.0,0.0,0.0,0.0,-0.078934,0.002806,0.9989359999999999,-0.49000000000000005,0.35000000000000003,-0.07,3.31,3.31,3.31,3.29,3.3,3.31,3.3,3.32,3.32,3.33,3.33,3.32,3.31,3.32,3.31,3.31,3.32,3.32,3.32,3.32,3.33,3.33,3.33,3.32,3.33,3.31,79.6,0.0,1.0,0.0,1.0,1.0,1238203
1765219743246,620.0,0.0,1.0,10.0,0.0,0.0,0.0,0.0,0.0,0.0,-0.078934,0.002806,0.9989359999999999,-0.49000000000000005,0.35000000000000003,-0.07,3.31,3.31,3.31,3.29,3.3,3.31,3.3,3.32,3.32,3.33,3.33,3.32,3.31,3.32,3.31,3.31,3.32,3.32,3.32,3.32,3.33,3.33,3.33,3.32,3.33,3.31,79.6,0.0,1.0,0.0,1.0,1.0,1238220
1765219743263,620.0,0.0,1.0,10.0,616.0,616.0,0.0,0.0,0.0,0.0,-0.078934,0.002806,0.9989359999999999,-0.49000000000000005,0.35000000000000003,-0.07,3.31,3.31,3.31,3.29,3.3,3.31,3.3,3.32,3.32,3.33,3.33,3.32,3.31,3.32,3.31,3.31,3.32,3.32,3.32,3.32,3.33,3.33,3.33,3.32,3.33,3.31,79.6,0.0,1.0,0.0,1.0,1.0,1238237
1765219743279,620.0,0.0,1.0,10.0,616.0,616.0,0.0,0.0,0.011040128571428571,0.0,-0.078934,0.002806,0.9989359999999999,-0.49000000000000005,0.35000000000000003,-0.07,3.31,3.31,3.31,3.29,3.3,3.31,3.3,3.32,3.32,3.33,3.33,3.32,3.31,3.32,3.31,3.31,3.32,3.32,3.32,3.32,3.33,3.33,3.33,3.32,3.33,3.31,79.6,0.0,1.0,0.0,1.0,1.0,1238253
1765219743296,620.0,0.0,1.0,10.0,616.0,616.0,0.0,0.0,0.011040128571428571,0.0,-0.066612,0.005856,0.99308,-0.49000000000000005,0.35000000000000003,-0.07,3.31,3.31,3.31,3.29,3.3,3.31,3.3,3.32,3.32,3.33,3.33,3.32,3.31,3.32,3.31,3.31,3.32,3.32,3.32,3.32,3.33,3.33,3.33,3.32,3.33,3.31,79.6,0.0,1.0,0.0,1.0,1.0,1238270
1765219743313,620.0,0.0,1.0,10.0,616.0,616.0,0.0,0.0,0.011040128571428571,0.0,-0.066612,0.005856,0.99308,-0.49000000000000005,0.35000000000000003,-0.07,3.31,3.31,3.31,3.29,3.3,3.31,3.3,3.32,3.32,3.33,3.33,3.32,3.31,3.32,3.31,3.31,3.32,3.32,3.32,3.32,3.33,3.33,3.33,3.32,3.33,3.31,79.6,0.0,1.0,0.0,1.0,1.0,1238287
1765219743346,620.0,0.0,1.0,10.0,616.0,616.0,0.0,0.0,0.011040128571428571,0.0,-0.066612,0.005856,0.99308,-0.7000000000000001,0.21000000000000002,0.0,3.31,3.31,3.31,3.29,3.3,3.31,3.3,3.32,3.32,3.33,3.33,3.32,3.31,3.32,3.31,3.31,3.32,3.32,3.32,3.32,3.33,3.33,3.33,3.32,3.33,3.31,79.6,0.0,1.0,0.0,1.0,1.0,1238320
1765219743379,620.0,0.0,1.0,10.0,616.0,616.0,0.0,0.0,0.011040128571428571,0.0,-0.066612,0.005856,0.99308,-0.7000000000000001,0.21000000000000002,0.0,3.31,3.31,3.31,3.29,3.3,3.31,3.3,3.32,3.32,3.33,3.33,3.32,3.31,3.32,3.31,3.31,3.32,3.32,3.32,3.32,3.33,3.33,3.33,3.32,3.33,3.31,79.6,0.0,1.0,0.0,1.0,1.0,1238353
1765219743462,620.0,0.0,1.0,10.0,616.0,616.0,0.0,0.0,0.011040128571428571,0.0,-0.06478199999999999,0.011833999999999999,0.990152,-0.7000000000000001,0.21000000000000002,0.0,3.31,3.31,3.31,3.29,3.3,3.31,3.3,3.32,3.32,3.33,3.33,3.32,3.31,3.32,3.31,3.31,3.32,3.32,3.32,3.32,3.33,3.33,3.33,3.32,3.33,3.31,79.6,0.0,1.0,0.0,1.0,1.0,1238436
1765219743479,620.0,0.0,1.0,10.0,616.0,616.0,0.0,0.0,0.011040128571428571,0.0,-0.06478199999999999,0.011833999999999999,0.990152,-0.6300000000000001,0.49000000000000005,0.0,3.31,3.31,3.31,3.29,3.3,3.31,3.3,3.32,3.32,3.33,3.33,3.32,3.31,3.32,3.31,3.31,3.32,3.32,3.32,3.32,3.33,3.33,3.33,3.32,3.33,3.31,79.6,0.0,1.0,0.0,1.0,1.0,1238453
1765219743529,644.0,0.0,1.0,10.0,616.0,616.0,0.0,0.0,0.011040128571428571,0.0,-0.06478199999999999,0.011833999999999999,0.990152,-0.6300000000000001,0.49000000000000005,0.0,3.31,3.31,3.31,3.29,3.3,3.31,3.3,3.32,3.32,3.33,3.33,3.32,3.31,3.32,3.31,3.31,3.32,3.32,3.32,3.32,3.33,3.33,3.33,3.32,3.33,3.31,79.6,0.0,1.0,0.0,1.0,1.0,1238503
1765219743546,644.0,0.0,1.0,10.0,644.0,644.0,0.0,0.0,0.011040128571428571,0.0,-0.06478199999999999,0.011833999999999999,0.990152,-0.6300000000000001,0.49000000000000005,0.0,3.31,3.31,3.31,3.29,3.3,3.31,3.3,3.32,3.32,3.33,3.33,3.32,3.31,3.32,3.31,3.31,3.32,3.32,3.32,3.32,3.33,3.33,3.33,3.32,3.33,3.31,79.6,0.0,1.0,0.0,1.0,1.0,1238520
1765219743563,644.0,0.0,1.0,10.0,644.0,644.0,0.0,0.0,0.011040128571428571,0.0,-0.06478199999999999,0.011833999999999999,0.990152,-0.6300000000000001,0.49000000000000005,0.0,3.31,3.31,3.31,3.29,3.3,3.31,3.3,3.32,3.32,3.33,3.33,3.32,3.31,3.32,3.31,3.31,3.32,3.32,3.32,3.32,3.33,3.33,3.33,3.32,3.33,3.31,79.6,0.0,1.0,0.0,1.0,1.0,1238537
1765219743596,644.0,0.0,1.0,10.0,644.0,644.0,0.011040128571428571,0.0,0.011040128571428571,0.0,-0.06709999999999999,0.009271999999999999,0.991738,-0.6300000000000001,0.49000000000000005,0.0,3.31,3.31,3.31,3.29,3.3,3.31,3.3,3.32,3.32,3.33,3.33,3.32,3.31,3.32,3.31,3.31,3.32,3.32,3.32,3.32,3.33,3.33,3.33,3.32,3.33,3.31,79.6,0.0,1.0,0.0,1.0,1.0,1238570
1765219743629,644.0,0.0,1.0,10.0,644.0,644.0,0.011040128571428571,0.0,0.011040128571428571,0.0,-0.06709999999999999,0.009271999999999999,0.991738,-0.7000000000000001,0.28,-0.14,3.31,3.31,3.31,3.29,3.3,3.31,3.3,3.32,3.32,3.33,3.33,3.32,3.31,3.32,3.31,3.31,3.32,3.32,3.32,3.32,3.33,3.33,3.33,3.32,3.33,3.31,79.6,0.0,1.0,0.0,1.0,1.0,1238603
1765219743662,644.0,0.0,1.0,10.0,644.0,644.0,0.011040128571428571,0.0,0.011040128571428571,0.0,-0.06709999999999999,0.009271999999999999,0.991738,-0.7000000000000001,0.28,-0.14,3.31,3.31,3.31,3.29,3.3,3.31,3.3,3.32,3.32,3.33,3.33,3.32,3.31,3.32,3.31,3.31,3.32,3.32,3.32,3.32,3.33,3.33,3.33,3.32,3.33,3.31,79.6,0.0,1.0,0.0,1.0,1.0,1238636
1765219743779,644.0,0.0,1.0,10.0,644.0,644.0,0.011040128571428571,0.0,0.011040128571428571,0.0,-0.06709999999999999,0.009271999999999999,0.991738,-0.7000000000000001,0.28,-0.14,3.31,3.31,3.31,3.29,3.3,3.31,3.3,3.32,3.32,3.33,3.33,3.32,3.31,3.32,3.31,3.31,3.32,3.32,3.32,3.32,3.33,3.33,3.33,3.32,3.33,3.31,79.6,0.0,1.0,0.0,1.0,1.0,1238753
1765219743812,644.0,0.0,1.0,10.0,644.0,644.0,0.011040128571428571,0.0,0.011040128571428571,0.0,-0.067588,0.013663999999999999,0.98759,-0.7000000000000001,0.28,-0.14,3.31,3.31,3.31,3.29,3.3,3.31,3.3,3.32,3.32,3.33,3.33,3.32,3.31,3.32,3.31,3.31,3.32,3.32,3.32,3.32,3.33,3.33,3.33,3.32,3.33,3.31,79.6,0.0,1.0,0.0,1.0,1.0,1238786
1765219743846,644.0,0.0,1.0,10.0,644.0,644.0,0.011040128571428571,0.0,0.011040128571428571,0.0,-0.067588,0.013663999999999999,0.98759,-0.77,0.28,-0.07,3.31,3.31,3.31,3.29,3.3,3.31,3.3,3.32,3.32,3.33,3.33,3.32,3.31,3.32,3.31,3.31,3.32,3.32,3.32,3.32,3.33,3.33,3.33,3.32,3.33,3.31,79.6,0.0,1.0,0.0,1.0,1.0,1238820
1765219743896,644.0,0.0,1.0,10.0,644.0,644.0,0.011040128571428571,0.0,0.011040128571428571,0.0,-0.07015,0.008296,0.9897859999999999,-0.77,0.28,-0.07,3.31,3.31,3.31,3.29,3.3,3.31,3.3,3.32,3.32,3.33,3.33,3.32,3.31,3.32,3.31,3.31,3.32,3.32,3.32,3.32,3.33,3.33,3.33,3.32,3.33,3.31,79.6,0.0,1.0,0.0,1.0,1.0,1238870
1765219743912,644.0,0.0,1.0,10.0,644.0,644.0,0.011040128571428571,0.0,0.011040128571428571,0.0,-0.07015,0.008296,0.9897859999999999,-0.77,0.28,-0.07,3.31,3.31,3.31,3.29,3.3,3.31,3.3,3.32,3.32,3.33,3.33,3.32,3.31,3.32,3.31,3.31,3.32,3.32,3.32,3.32,3.33,3.33,3.33,3.32,3.33,3.31,79.6,1.0,1.0,0.0,1.0,1.0,1238886
1765219743929,644.0,0.0,1.0,10.0,644.0,644.0,0.011040128571428571,0.0,0.011040128571428571,0.0,-0.07015,0.008296,0.9897859999999999,-0.77,0.28,-0.07,3.31,3.31,3.31,3.29,3.3,3.31,3.3,3.32,3.32,3.33,3.33,3.32,3.31,3.32,3.31,3.31,3.32,3.32,3.32,3.32,3.33,3.33,3.33,3.32,3.33,3.31,79.6,1.0,1.0,0.0,1.0,1.0,1238903
1765219743946,644.0,0.0,1.0,10.0,644.0,644.0,0.011040128571428571,0.0,0.011040128571428571,0.0,-0.07015,0.008296,0.9897859999999999,-0.7000000000000001,0.49000000000000005,-0.07,3.31,3.31,3.31,3.29,3.3,3.31,3.3,3.32,3.32,3.33,3.33,3.32,3.31,3.32,3.31,3.31,3.32,3.32,3.32,3.32,3.33,3.33,3.33,3.32,3.33,3.31,79.6,1.0,1.0,0.0,1.0,1.0,1238920
1765219743963,837.0,0.0,1.0,10.0,644.0,644.0,0.011040128571428571,0.0,0.011040128571428571,0.0,-0.07015,0.008296,0.9897859999999999,-0.7000000000000001,0.49000000000000005,-0.07,3.31,3.31,3.31,3.29,3.3,3.31,3.3,3.32,3.32,3.33,3.33,3.32,3.31,3.32,3.31,3.31,3.32,3.32,3.32,3.32,3.33,3.33,3.33,3.32,3.33,3.31,79.6,1.0,1.0,0.0,1.0,1.0,1238937
1765219743981,837.0,0.0,1.0,10.0,644.0,644.0,0.011040128571428571,0.0,0.011040128571428571,0.0,-0.07015,0.008296,0.9897859999999999,-0.7000000000000001,0.49000000000000005,-0.07,3.31,3.31,3.31,3.29,3.3,3.31,3.3,3.32,3.32,3.33,3.33,3.32,3.31,3.32,3.31,3.31,3.32,3.32,3.32,3.32,3.33,3.33,3.33,3.32,3.33,3.31,79.6,1.0,1.0,0.0,1.0,1.0,1238955
1765219743996,837.0,0.0,1.0,10.0,713.0,713.0,0.011040128571428571,0.0,0.011040128571428571,0.0,-0.07015,0.008296,0.9897859999999999,-0.7000000000000001,0.49000000000000005,-0.07,3.31,3.31,3.31,3.29,3.3,3.31,3.3,3.32,3.32,3.33,3.33,3.32,3.31,3.32,3.31,3.31,3.32,3.32,3.32,3.32,3.33,3.33,3.33,3.32,3.33,3.31,79.6,1.0,1.0,0.0,1.0,1.0,1238970
1765219744013,837.0,0.0,1.0,10.0,713.0,713.0,0.011040128571428571,0.0,2.3957079,2.671711114285715,-0.07015,0.008296,0.9897859999999999,-0.7000000000000001,0.49000000000000005,-0.07,3.31,3.31,3.31,3.29,3.3,3.31,3.3,3.32,3.32,3.33,3.33,3.32,3.31,3.32,3.31,3.31,3.32,3.32,3.32,3.32,3.33,3.33,3.33,3.32,3.33,3.31,79.6,1.0,1.0,0.0,1.0,1.0,1238987
1765219744046,837.0,0.0,1.0,10.0,713.0,713.0,0.14352167142857145,0.0,2.3957079,2.671711114285715,-0.07015,0.008296,0.9897859999999999,-0.7000000000000001,0.49000000000000005,-0.07,3.31,3.31,3.31,3.29,3.3,3.31,3.3,3.32,3.32,3.33,3.33,3.32,3.31,3.32,3.31,3.31,3.32,3.32,3.32,3.32,3.33,3.33,3.33,3.32,3.33,3.31,79.6,1.0,1.0,0.0,1.0,1.0,1239020
1765219744096,837.0,0.0,1.0,10.0,713.0,713.0,0.14352167142857145,0.14352167142857145,2.3957079,2.671711114285715,-0.07015,0.008296,0.9897859999999999,-0.7000000000000001,0.49000000000000005,-0.07,3.31,3.31,3.31,3.29,3.3,3.31,3.3,3.32,3.32,3.33,3.33,3.32,3.31,3.32,3.31,3.31,3.32,3.32,3.32,3.32,3.33,3.33,3.33,3.32,3.33,3.31,79.6,1.0,1.0,0.0,1.0,1.0,1239070
1765219744178,837.0,0.0,1.0,10.0,713.0,713.0,0.14352167142857145,0.14352167142857145,2.3957079,2.671711114285715,-0.07015,0.008296,0.9897859999999999,-0.56,0.35000000000000003,0.0,3.31,3.31,3.31,3.29,3.3,3.31,3.3,3.32,3.32,3.33,3.33,3.32,3.31,3.32,3.31,3.31,3.32,3.32,3.32,3.32,3.33,3.33,3.33,3.32,3.33,3.31,79.6,1.0,1.0,0.0,1.0,1.0,1239152
1765219744229,711.0,0.0,1.0,10.0,713.0,713.0,0.14352167142857145,0.14352167142857145,2.3957079,2.671711114285715,-0.07015,0.008296,0.9897859999999999,-0.56,0.35000000000000003,0.0,3.31,3.31,3.31,3.29,3.3,3.31,3.3,3.32,3.32,3.33,3.33,3.32,3.31,3.32,3.31,3.31,3.32,3.32,3.32,3.32,3.33,3.33,3.33,3.32,3.33,3.31,79.6,1.0,1.0,0.0,1.0,1.0,1239203
1765219744246,711.0,0.0,1.0,10.0,713.0,713.0,0.14352167142857145,0.14352167142857145,2.3957079,2.671711114285715,-0.07015,0.008296,0.9897859999999999,-0.56,0.35000000000000003,0.0,3.31,3.31,3.31,3.29,3.3,3.31,3.3,3.32,3.32,3.33,3.33,3.32,3.31,3.32,3.31,3.31,3.32,3.32,3.32,3.32,3.33,3.33,3.33,3.32,3.33,3.31,79.6,1.0,1.0,0.0,1.0,1.0,1239220
1765219744263,711.0,0.0,1.0,10.0,711.0,711.0,0.14352167142857145,0.14352167142857145,2.3957079,2.671711114285715,0.164944,0.054412,1.040294,-0.56,0.35000000000000003,0.0,3.31,3.31,3.31,3.29,3.3,3.31,3.3,3.32,3.32,3.33,3.33,3.32,3.31,3.32,3.31,3.31,3.32,3.32,3.32,3.32,3.33,3.33,3.33,3.32,3.33,3.31,79.6,1.0,1.0,0.0,1.0,1.0,1239237
1765219744280,711.0,0.0,1.0,10.0,711.0,711.0,0.14352167142857145,0.14352167142857145,3.455560242857143,2.7489920142857143,0.164944,0.054412,1.040294,-0.56,0.35000000000000003,0.0,3.31,3.31,3.31,3.29,3.3,3.31,3.3,3.32,3.32,3.33,3.33,3.32,3.31,3.32,3.31,3.31,3.32,3.32,3.32,3.32,3.33,3.33,3.33,3.32,3.33,3.31,79.6,1.0,1.0,0.0,1.0,1.0,1239254
1765219744296,711.0,0.0,1.0,10.0,711.0,711.0,0.14352167142857145,0.14352167142857145,3.455560242857143,2.7489920142857143,0.164944,0.054412,1.040294,-1.6800000000000002,-0.14,0.14,3.31,3.31,3.31,3.29,3.3,3.31,3.3,3.32,3.32,3.33,3.33,3.32,3.31,3.32,3.31,3.31,3.32,3.32,3.32,3.32,3.33,3.33,3.33,3.32,3.33,3.31,79.6,1.0,1.0,0.0,1.0,1.0,1239270
1765219744329,711.0,0.0,1.0,10.0,711.0,711.0,3.455560242857143,0.14352167142857145,3.455560242857143,2.7489920142857143,0.164944,0.054412,1.040294,-1.6800000000000002,-0.14,0.14,3.31,3.31,3.31,3.29,3.3,3.31,3.3,3.32,3.32,3.33,3.33,3.32,3.31,3.32,3.31,3.31,3.32,3.32,3.32,3.32,3.33,3.33,3.33,3.32,3.33,3.31,79.6,1.0,1.0,0.0,1.0,1.0,1239303
1765219744379,711.0,0.0,1.0,10.0,711.0,711.0,3.455560242857143,2.7489920142857143,3.455560242857143,2.7489920142857143,0.164944,0.054412,1.040294,-1.6800000000000002,-0.14,0.14,3.31,3.31,3.31,3.29,3.3,3.31,3.3,3.32,3.32,3.33,3.33,3.32,3.31,3.32,3.31,3.31,3.32,3.32,3.32,3.32,3.33,3.33,3.33,3.32,3.33,3.31,79.6,1.0,1.0,0.0,1.0,1.0,1239353
1765219744447,711.0,0.0,1.0,10.0,711.0,711.0,3.455560242857143,2.7489920142857143,3.455560242857143,2.7489920142857143,-0.0037819999999999998,-0.000732,0.983686,-1.6800000000000002,-0.14,0.14,3.31,3.31,3.31,3.29,3.3,3.31,3.3,3.32,3.32,3.33,3.33,3.32,3.31,3.32,3.31,3.31,3.32,3.32,3.32,3.32,3.33,3.33,3.33,3.32,3.33,3.31,79.6,1.0,1.0,0.0,1.0,1.0,1239421
1765219744462,711.0,0.0,1.0,10.0,711.0,711.0,3.455560242857143,1.9209823714285712,3.455560242857143,2.7489920142857143,-0.0037819999999999998,-0.000732,0.983686,-1.6800000000000002,-0.14,0.14,3.31,3.31,3.31,3.29,3.3,3.31,3.3,3.32,3.32,3.33,3.33,3.32,3.31,3.32,3.31,3.31,3.32,3.32,3.32,3.32,3.33,3.33,3.33,3.32,3.33,3.31,79.6,1.0,1.0,0.0,1.0,1.0,1239436
1765219744494,711.0,0.0,1.0,10.0,711.0,711.0,3.455560242857143,1.9209823714285712,3.455560242857143,2.7489920142857143,-0.0037819999999999998,-0.000732,0.983686,-8.05,1.05,0.49000000000000005,3.31,3.31,3.31,3.29,3.3,3.31,3.3,3.32,3.32,3.33,3.33,3.32,3.31,3.32,3.31,3.31,3.32,3.32,3.32,3.32,3.33,3.33,3.33,3.32,3.33,3.31,79.6,1.0,1.0,0.0,1.0,1.0,1239468
1765219744563,711.0,0.0,1.0,10.0,711.0,711.0,3.455560242857143,1.9209823714285712,3.455560242857143,2.7489920142857143,0.02501,-0.013054,0.992104,-8.05,1.05,0.49000000000000005,3.31,3.31,3.31,3.29,3.3,3.31,3.3,3.32,3.32,3.33,3.33,3.32,3.31,3.32,3.31,3.31,3.32,3.32,3.32,3.32,3.33,3.33,3.33,3.32,3.33,3.31,79.6,1.0,1.0,0.0,1.0,1.0,1239537
1765219744579,711.0,0.0,1.0,10.0,711.0,711.0,3.455560242857143,1.9209823714285712,3.455560242857143,2.7489920142857143,0.02501,-0.013054,0.992104,-9.100000000000001,0.49000000000000005,0.49000000000000005,3.31,3.31,3.31,3.29,3.3,3.31,3.3,3.32,3.32,3.33,3.33,3.32,3.31,3.32,3.31,3.31,3.32,3.32,3.32,3.32,3.33,3.33,3.33,3.32,3.33,3.31,79.6,1.0,1.0,0.0,1.0,1.0,1239553
1765219744613,711.0,0.0,1.0,10.0,711.0,711.0,3.455560242857143,1.9209823714285712,3.455560242857143,2.7489920142857143,0.02501,-0.013054,0.992104,-9.100000000000001,0.49000000000000005,0.49000000000000005,3.31,3.31,3.31,3.29,3.3,3.31,3.3,3.32,3.32,3.33,3.33,3.32,3.31,3.32,3.31,3.31,3.32,3.32,3.32,3.32,3.33,3.33,3.33,3.32,3.33,3.31,79.6,1.0,1.0,0.0,1.0,1.0,1239587
1765219744629,711.0,0.0,1.0,10.0,711.0,711.0,3.455560242857143,1.9209823714285712,3.455560242857143,2.7489920142857143,0.02501,-0.013054,0.992104,-9.100000000000001,0.49000000000000005,0.49000000000000005,3.31,3.31,3.31,3.29,3.3,3.31,3.3,3.32,3.32,3.33,3.33,3.32,3.31,3.32,3.31,3.31,3.32,3.32,3.32,3.32,3.33,3.33,3.33,3.32,3.33,3.31,79.6,1.0,1.0,0.0,1.0,1.0,1239603
1765219744646,711.0,0.0,1.0,10.0,711.0,711.0,3.455560242857143,1.9209823714285712,2.219065842857143,1.8216212142857149,0.02501,-0.013054,0.992104,-9.100000000000001,0.49000000000000005,0.49000000000000005,3.31,3.31,3.31,3.29,3.3,3.31,3.3,3.32,3.32,3.33,3.33,3.32,3.31,3.32,3.31,3.31,3.32,3.32,3.32,3.32,3.33,3.33,3.33,3.32,3.33,3.31,79.6,1.0,1.0,0.0,1.0,1.0,1239620
1765219744679,711.0,0.0,1.0,10.0,711.0,711.0,2.219065842857143,1.9209823714285712,2.219065842857143,1.8216212142857149,0.02501,-0.013054,0.992104,-9.100000000000001,0.49000000000000005,0.49000000000000005,3.31,3.31,3.31,3.29,3.3,3.31,3.3,3.32,3.32,3.33,3.33,3.32,3.31,3.32,3.31,3.31,3.32,3.32,3.32,3.32,3.33,3.33,3.33,3.32,3.33,3.31,79.6,1.0,1.0,0.0,1.0,1.0,1239653
1765219744745,711.0,0.0,1.0,10.0,711.0,711.0,2.219065842857143,1.8216212142857149,2.219065842857143,1.8216212142857149,0.02501,-0.013054,0.992104,-9.100000000000001,0.49000000000000005,0.49000000000000005,3.31,3.31,3.31,3.29,3.3,3.31,3.3,3.32,3.32,3.33,3.33,3.32,3.31,3.32,3.31,3.31,3.32,3.32,3.32,3.32,3.33,3.33,3.33,3.32,3.33,3.31,79.6,1.0,1.0,0.0,1.0,1.0,1239719
1765219744778,711.0,0.0,1.0,10.0,711.0,711.0,2.219065842857143,1.8216212142857149,2.219065842857143,1.8216212142857149,-0.011467999999999999,-0.02623,0.98454,-9.100000000000001,0.49000000000000005,0.49000000000000005,3.31,3.31,3.31,3.29,3.3,3.31,3.3,3.32,3.32,3.33,3.33,3.32,3.31,3.32,3.31,3.31,3.32,3.32,3.32,3.32,3.33,3.33,3.33,3.32,3.33,3.31,79.6,1.0,1.0,0.0,1.0,1.0,1239752
1765219744813,711.0,0.0,1.0,10.0,711.0,711.0,2.219065842857143,1.8216212142857149,2.219065842857143,1.8216212142857149,-0.011467999999999999,-0.02623,0.98454,-10.360000000000001,1.1900000000000002,0.49000000000000005,3.31,3.31,3.31,3.29,3.3,3.31,3.3,3.32,3.32,3.33,3.33,3.32,3.31,3.32,3.31,3.31,3.32,3.32,3.32,3.32,3.33,3.33,3.33,3.32,3.33,3.31,79.6,1.0,1.0,0.0,1.0,1.0,1239787
1765219744863,711.0,0.0,1.0,10.0,711.0,711.0,2.219065842857143,1.8216212142857149,2.219065842857143,1.8216212142857149,0.003904,-0.015127999999999999,1.009672,-10.360000000000001,1.1900000000000002,0.49000000000000005,3.31,3.31,3.31,3.29,3.3,3.31,3.3,3.32,3.32,3.33,3.33,3.32,3.31,3.32,3.31,3.31,3.32,3.32,3.32,3.32,3.33,3.33,3.33,3.32,3.33,3.31,79.6,1.0,1.0,0.0,1.0,1.0,1239837
1765219744879,571.0,0.0,1.0,10.0,711.0,711.0,2.219065842857143,1.8216212142857149,2.219065842857143,1.8216212142857149,0.003904,-0.015127999999999999,1.009672,-10.360000000000001,1.1900000000000002,0.49000000000000005,3.31,3.31,3.31,3.29,3.3,3.31,3.3,3.32,3.32,3.33,3.33,3.32,3.31,3.32,3.31,3.31,3.32,3.32,3.32,3.32,3.33,3.33,3.33,3.32,3.33,3.31,79.6,1.0,1.0,0.0,1.0,1.0,1239853
1765219744896,571.0,0.0,1.0,10.0,711.0,711.0,2.219065842857143,1.8216212142857149,2.219065842857143,1.8216212142857149,0.003904,-0.015127999999999999,1.009672,-10.360000000000001,1.1900000000000002,0.49000000000000005,3.31,3.31,3.31,3.29,3.3,3.31,3.3,3.32,3.32,3.33,3.33,3.32,3.31,3.32,3.31,3.31,3.32,3.32,3.32,3.32,3.33,3.33,3.33,3.32,3.33,3.31,79.6,1.0,1.0,0.0,1.0,1.0,1239870
1765219744912,571.0,0.0,1.0,10.0,630.0,630.0,2.219065842857143,1.8216212142857149,2.219065842857143,1.8216212142857149,0.003904,-0.015127999999999999,1.009672,-10.360000000000001,1.1900000000000002,0.49000000000000005,3.31,3.31,3.31,3.29,3.3,3.31,3.3,3.32,3.32,3.33,3.33,3.32,3.31,3.32,3.31,3.31,3.32,3.32,3.32,3.32,3.33,3.33,3.33,3.32,3.33,3.31,79.6,1.0,1.0,0.0,1.0,1.0,1239886
1765219744929,571.0,0.0,1.0,10.0,630.0,630.0,2.219065842857143,1.8216212142857149,2.2632263571428575,1.7774607000000004,0.003904,-0.015127999999999999,1.009672,-9.870000000000001,1.4000000000000001,-0.21000000000000002,3.31,3.31,3.31,3.29,3.3,3.31,3.3,3.32,3.32,3.33,3.33,3.32,3.31,3.32,3.31,3.31,3.32,3.32,3.32,3.32,3.33,3.33,3.33,3.32,3.33,3.31,79.6,1.0,1.0,0.0,1.0,1.0,1239903
1765219744963,571.0,0.0,1.0,10.0,630.0,630.0,2.219065842857143,1.8216212142857149,2.2632263571428575,1.7774607000000004,0.003904,-0.015127999999999999,1.009672,-9.870000000000001,1.4000000000000001,-0.21000000000000002,3.31,3.31,3.31,3.29,3.3,3.31,3.3,3.32,3.32,3.33,3.33,3.32,3.31,3.32,3.31,3.31,3.32,3.32,3.32,3.32,3.33,3.33,3.33,3.32,3.32,3.25,79.3,9.0,1.0,0.0,1.0,1.0,1239937
1765219744980,571.0,0.0,1.0,10.0,630.0,630.0,2.219065842857143,1.8216212142857149,2.2632263571428575,1.7774607000000004,0.003904,-0.015127999999999999,1.009672,-9.870000000000001,1.4000000000000001,-0.21000000000000002,3.31,3.31,3.31,3.29,3.3,3.31,3.3,3.32,3.32,3.33,3.33,3.32,3.31,3.32,3.31,3.31,3.32,3.32,3.32,3.32,3.33,3.33,3.33,3.32,3.32,3.25,79.3,9.0,1.0,0.0,1.0,1.0,1239954
1765219744996,571.0,0.0,1.0,10.0,630.0,630.0,2.2632263571428575,1.8216212142857149,2.2632263571428575,1.7774607000000004,0.003904,-0.015127999999999999,1.009672,-9.870000000000001,1.4000000000000001,-0.21000000000000002,3.31,3.31,3.31,3.29,3.3,3.31,3.3,3.32,3.32,3.33,3.33,3.32,3.31,3.32,3.31,3.31,3.32,3.32,3.32,3.32,3.33,3.33,3.33,3.32,3.32,3.25,79.3,9.0,1.0,0.0,1.0,1.0,1239970
1765219745061,571.0,0.0,1.0,10.0,630.0,630.0,2.782112400000001,1.7774607000000004,2.2632263571428575,1.7774607000000004,0.003904,-0.015127999999999999,1.009672,-9.870000000000001,1.4000000000000001,-0.21000000000000002,3.31,3.31,3.31,3.29,3.3,3.31,3.3,3.32,3.32,3.33,3.33,3.32,3.31,3.32,3.31,3.31,3.32,3.32,3.32,3.32,3.33,3.33,3.33,3.32,3.32,3.25,79.3,9.0,1.0,0.0,1.0,1.0,1240035
1765219745128,571.0,0.0,1.0,10.0,630.0,630.0,2.782112400000001,1.7774607000000004,2.2632263571428575,1.7774607000000004,0.003904,-0.015127999999999999,1.009672,-9.870000000000001,1.4000000000000001,-0.21000000000000002,3.31,3.31,3.31,3.29,3.3,3.31,3.3,3.32,3.32,3.33,3.33,3.32,3.31,3.32,3.31,3.31,3.32,3.32,3.32,3.32,3.33,3.33,3.33,3.32,3.32,3.23,79.3,15.0,1.0,0.0,1.0,1.0,1240102
1765219745146,571.0,0.0,1.0,10.0,630.0,630.0,2.782112400000001,1.7774607000000004,2.2632263571428575,1.7774607000000004,0.003904,-0.015127999999999999,1.009672,-9.870000000000001,1.4000000000000001,-0.21000000000000002,3.31,3.31,3.31,3.29,3.3,3.31,3.3,3.32,3.32,3.33,3.33,3.32,3.31,3.32,3.31,3.31,3.32,3.32,3.32,3.32,3.33,3.33,3.33,3.32,3.32,3.23,79.3,15.0,1.0,0.0,1.0,1.0,1240120
1765219745163,571.0,0.0,1.0,10.0,630.0,630.0,2.782112400000001,2.0976244285714287,2.2632263571428575,1.7774607000000004,0.016836,-0.027327999999999998,1.02602,-9.870000000000001,1.4000000000000001,-0.21000000000000002,3.31,3.31,3.31,3.29,3.3,3.31,3.3,3.32,3.32,3.33,3.33,3.32,3.31,3.32,3.31,3.31,3.32,3.32,3.32,3.32,3.33,3.33,3.33,3.32,3.32,3.23,79.3,15.0,1.0,0.0,1.0,1.0,1240137
1765219745230,571.0,0.0,1.0,10.0,630.0,630.0,2.782112400000001,2.0976244285714287,2.2632263571428575,1.7774607000000004,0.016836,-0.027327999999999998,1.02602,-15.750000000000002,2.1,0.35000000000000003,3.31,3.31,3.31,3.29,3.3,3.31,3.3,3.32,3.32,3.33,3.33,3.32,3.31,3.32,3.31,3.31,3.32,3.32,3.32,3.32,3.33,3.33,3.33,3.32,3.32,3.23,79.3,15.0,1.0,0.0,1.0,1.0,1240204
1765219745279,571.0,0.0,1.0,10.0,630.0,630.0,2.782112400000001,2.0976244285714287,2.2632263571428575,1.7774607000000004,-0.034282,-0.047458,0.966484,-15.750000000000002,2.1,0.35000000000000003,3.31,3.31,3.31,3.29,3.3,3.31,3.3,3.32,3.32,3.33,3.33,3.32,3.31,3.32,3.31,3.31,3.32,3.32,3.32,3.32,3.33,3.33,3.33,3.32,3.32,3.23,79.3,15.0,1.0,0.0,1.0,1.0,1240253
1765219745313,472.0,0.0,1.0,10.0,630.0,630.0,2.782112400000001,2.0976244285714287,2.2632263571428575,1.7774607000000004,-0.034282,-0.047458,0.966484,-15.05,1.8200000000000003,1.7500000000000002,3.31,3.31,3.31,3.29,3.3,3.31,3.3,3.32,3.32,3.33,3.33,3.32,3.31,3.32,3.31,3.31,3.32,3.32,3.32,3.32,3.33,3.33,3.33,3.32,3.32,3.23,79.3,15.0,1.0,0.0,1.0,1.0,1240287
1765219745330,472.0,0.0,1.0,10.0,472.0,472.0,2.782112400000001,2.0976244285714287,2.2632263571428575,1.7774607000000004,-0.034282,-0.047458,0.966484,-15.05,1.8200000000000003,1.7500000000000002,3.31,3.31,3.31,3.29,3.3,3.31,3.3,3.32,3.32,3.33,3.33,3.32,3.31,3.32,3.31,3.31,3.32,3.32,3.32,3.32,3.33,3.33,3.33,3.32,3.32,3.23,79.3,15.0,1.0,0.0,1.0,1.0,1240304
1765219745363,472.0,0.0,1.0,10.0,472.0,472.0,2.782112400000001,2.0976244285714287,2.9697945857142862,2.196985585714286,-0.034282,-0.047458,0.966484,-15.05,1.8200000000000003,1.7500000000000002,3.31,3.31,3.31,3.29,3.3,3.31,3.3,3.32,3.32,3.33,3.33,3.32,3.31,3.32,3.31,3.31,3.32,3.32,3.32,3.32,3.33,3.33,3.33,3.32,3.32,3.23,79.3,15.0,1.0,0.0,1.0,1.0,1240337
1765219745396,472.0,0.0,1.0,10.0,472.0,472.0,2.9697945857142862,2.0976244285714287,2.9697945857142862,2.196985585714286,-0.034282,-0.047458,0.966484,-15.05,1.8200000000000003,1.7500000000000002,3.31,3.31,3.31,3.29,3.3,3.31,3.3,3.32,3.32,3.33,3.33,3.32,3.31,3.32,3.31,3.31,3.32,3.32,3.32,3.32,3.33,3.33,3.33,3.32,3.32,3.23,79.3,15.0,1.0,0.0,1.0,1.0,1240370
1765219745446,472.0,0.0,1.0,10.0,472.0,472.0,2.9697945857142862,2.196985585714286,2.9697945857142862,2.196985585714286,-0.034282,-0.047458,0.966484,-15.05,1.8200000000000003,1.7500000000000002,3.31,3.31,3.31,3.29,3.3,3.31,3.3,3.32,3.32,3.33,3.33,3.32,3.31,3.32,3.31,3.31,3.32,3.32,3.32,3.32,3.33,3.33,3.33,3.32,3.32,3.23,79.3,15.0,1.0,0.0,1.0,1.0,1240420
1765219745512,472.0,0.0,1.0,10.0,472.0,472.0,2.9697945857142862,2.196985585714286,2.9697945857142862,2.196985585714286,0.010126,-0.030012,1.01626,-15.05,1.8200000000000003,1.7500000000000002,3.31,3.31,3.31,3.29,3.3,3.31,3.3,3.32,3.32,3.33,3.33,3.32,3.31,3.32,3.31,3.31,3.32,3.32,3.32,3.32,3.33,3.33,3.33,3.32,3.32,3.23,79.3,15.0,1.0,0.0,1.0,1.0,1240486
1765219745529,472.0,0.0,1.0,10.0,472.0,472.0,2.9697945857142862,2.196985585714286,2.9697945857142862,2.196985585714286,0.010126,-0.030012,1.01626,-15.820000000000002,0.35000000000000003,-0.14,3.31,3.31,3.31,3.29,3.3,3.31,3.3,3.32,3.32,3.33,3.33,3.32,3.31,3.32,3.31,3.31,3.32,3.32,3.32,3.32,3.33,3.33,3.33,3.32,3.32,3.23,79.3,15.0,1.0,0.0,1.0,1.0,1240503
1765219745580,442.0,0.0,1.0,10.0,472.0,472.0,2.9697945857142862,2.196985585714286,2.9697945857142862,2.196985585714286,0.010126,-0.030012,1.01626,-15.820000000000002,0.35000000000000003,-0.14,3.31,3.31,3.31,3.29,3.3,3.31,3.3,3.32,3.32,3.33,3.33,3.32,3.31,3.32,3.31,3.31,3.32,3.32,3.32,3.32,3.33,3.33,3.33,3.32,3.32,3.23,79.3,15.0,1.0,0.0,1.0,1.0,1240554
1765219745596,442.0,0.0,1.0,10.0,472.0,472.0,2.9697945857142862,2.196985585714286,2.9697945857142862,2.196985585714286,0.013786,-0.013176,0.975268,-15.820000000000002,0.35000000000000003,-0.14,3.31,3.31,3.31,3.29,3.3,3.31,3.3,3.32,3.32,3.33,3.33,3.32,3.31,3.32,3.31,3.31,3.32,3.32,3.32,3.32,3.33,3.33,3.33,3.32,3.32,3.23,79.3,15.0,1.0,0.0,1.0,1.0,1240570
1765219745612,442.0,0.0,1.0,10.0,442.0,442.0,2.9697945857142862,2.196985585714286,2.9697945857142862,2.196985585714286,0.013786,-0.013176,0.975268,-15.820000000000002,0.35000000000000003,-0.14,3.31,3.31,3.31,3.29,3.3,3.31,3.3,3.32,3.32,3.33,3.33,3.32,3.31,3.32,3.31,3.31,3.32,3.32,3.32,3.32,3.33,3.33,3.33,3.32,3.32,3.23,79.3,15.0,1.0,0.0,1.0,1.0,1240586
1765219745629,442.0,0.0,1.0,10.0,442.0,442.0,2.9697945857142862,2.196985585714286,3.267878057142857,2.329467128571429,0.013786,-0.013176,0.975268,-15.820000000000002,0.35000000000000003,-0.14,3.31,3.31,3.31,3.29,3.3,3.31,3.3,3.32,3.32,3.33,3.33,3.32,3.31,3.32,3.31,3.31,3.32,3.32,3.32,3.32,3.33,3.33,3.33,3.32,3.32,3.23,79.3,15.0,1.0,0.0,1.0,1.0,1240603
1765219745663,442.0,0.0,1.0,10.0,442.0,442.0,3.146436642857144,2.196985585714286,3.267878057142857,2.329467128571429,0.013786,-0.013176,0.975268,-16.450000000000003,2.24,-0.9800000000000001,3.31,3.31,3.31,3.29,3.3,3.31,3.3,3.32,3.32,3.33,3.33,3.32,3.31,3.32,3.31,3.31,3.32,3.32,3.32,3.32,3.33,3.33,3.33,3.32,3.32,3.23,79.3,15.0,1.0,0.0,1.0,1.0,1240637
1765219745727,442.0,0.0,1.0,10.0,442.0,442.0,3.146436642857144,2.196985585714286,4.073807442857143,2.892513685714286,0.013786,-0.013176,0.975268,-16.450000000000003,2.24,-0.9800000000000001,3.31,3.31,3.31,3.29,3.3,3.31,3.3,3.32,3.32,3.33,3.33,3.32,3.31,3.32,3.31,3.31,3.32,3.32,3.32,3.32,3.33,3.33,3.33,3.32,3.32,3.23,79.3,15.0,1.0,0.0,1.0,1.0,1240701
1765219745745,442.0,0.0,1.0,10.0,442.0,442.0,3.996526542857144,2.196985585714286,4.073807442857143,2.892513685714286,0.013786,-0.013176,0.975268,-16.450000000000003,2.24,-0.9800000000000001,3.31,3.31,3.31,3.29,3.3,3.31,3.3,3.32,3.32,3.33,3.33,3.32,3.31,3.32,3.31,3.31,3.32,3.32,3.32,3.32,3.33,3.33,3.33,3.32,3.32,3.23,79.3,15.0,1.0,0.0,1.0,1.0,1240719
1765219745796,442.0,0.0,1.0,10.0,442.0,442.0,3.996526542857144,2.892513685714286,4.073807442857143,2.892513685714286,0.013786,-0.013176,0.975268,-16.450000000000003,2.24,-0.9800000000000001,3.31,3.31,3.31,3.29,3.3,3.31,3.3,3.32,3.32,3.33,3.33,3.32,3.31,3.32,3.31,3.31,3.32,3.32,3.32,3.32,3.33,3.33,3.33,3.32,3.32,3.23,79.3,15.0,1.0,0.0,1.0,1.0,1240770
1765219745846,442.0,0.0,1.0,10.0,442.0,442.0,3.996526542857144,2.892513685714286,4.073807442857143,2.892513685714286,-0.05795,-0.041236,0.9821,-16.450000000000003,2.24,-0.9800000000000001,3.31,3.31,3.31,3.29,3.3,3.31,3.3,3.32,3.32,3.33,3.33,3.32,3.31,3.32,3.31,3.31,3.32,3.32,3.32,3.32,3.33,3.33,3.33,3.32,3.32,3.23,79.3,15.0,1.0,0.0,1.0,1.0,1240820
1765219745879,442.0,0.0,1.0,10.0,442.0,442.0,3.996526542857144,2.892513685714286,4.073807442857143,2.892513685714286,-0.05795,-0.041236,0.9821,-19.250000000000004,1.6800000000000002,0.9100000000000001,3.31,3.31,3.31,3.29,3.3,3.31,3.3,3.32,3.32,3.33,3.33,3.32,3.31,3.32,3.31,3.31,3.32,3.32,3.32,3.32,3.33,3.33,3.33,3.32,3.32,3.23,79.3,15.0,1.0,0.0,1.0,1.0,1240853
1765219745929,442.0,0.0,1.0,10.0,442.0,442.0,3.996526542857144,2.892513685714286,4.073807442857143,2.892513685714286,-0.077226,-0.069906,1.008696,-19.250000000000004,1.6800000000000002,0.9100000000000001,3.31,3.31,3.31,3.29,3.3,3.31,3.3,3.32,3.32,3.33,3.33,3.32,3.31,3.32,3.31,3.31,3.32,3.32,3.32,3.32,3.33,3.33,3.33,3.32,3.32,3.23,79.3,15.0,1.0,0.0,1.0,1.0,1240903
1765219745946,283.0,0.0,1.0,10.0,442.0,442.0,3.996526542857144,2.892513685714286,4.073807442857143,2.892513685714286,-0.077226,-0.069906,1.008696,-19.250000000000004,1.6800000000000002,0.9100000000000001,3.31,3.31,3.31,3.29,3.3,3.31,3.3,3.32,3.32,3.33,3.33,3.32,3.31,3.32,3.31,3.31,3.32,3.32,3.32,3.32,3.33,3.33,3.33,3.32,3.32,3.23,79.3,15.0,1.0,0.0,1.0,1.0,1240920
1765219745963,283.0,0.0,1.0,10.0,442.0,442.0,3.996526542857144,2.892513685714286,4.073807442857143,2.892513685714286,-0.077226,-0.069906,1.008696,-19.250000000000004,1.6800000000000002,0.9100000000000001,3.31,3.31,3.31,3.29,3.3,3.31,3.3,3.32,3.32,3.33,3.33,3.32,3.31,3.32,3.31,3.31,3.32,3.32,3.32,3.32,3.33,3.33,3.33,3.32,3.32,3.23,79.3,15.0,1.0,0.0,1.0,1.0,1240937
1765219745982,283.0,0.0,1.0,10.0,285.0,285.0,3.996526542857144,2.892513685714286,4.073807442857143,2.892513685714286,-0.077226,-0.069906,1.008696,-18.900000000000002,1.6800000000000002,2.3800000000000003,3.31,3.31,3.31,3.29,3.3,3.31,3.3,3.32,3.32,3.33,3.33,3.32,3.31,3.32,3.31,3.31,3.32,3.32,3.32,3.32,3.33,3.33,3.33,3.32,3.32,3.23,79.3,15.0,1.0,0.0,1.0,1.0,1240956
1765219745994,283.0,0.0,1.0,10.0,285.0,285.0,3.996526542857144,2.892513685714286,4.228369242857143,3.0801958714285718,-0.077226,-0.069906,1.008696,-18.900000000000002,1.6800000000000002,2.3800000000000003,3.31,3.31,3.31,3.29,3.3,3.31,3.3,3.32,3.32,3.33,3.33,3.32,3.31,3.32,3.31,3.31,3.32,3.32,3.32,3.32,3.33,3.33,3.33,3.32,3.32,3.23,79.3,15.0,1.0,0.0,1.0,1.0,1240968
1765219746013,283.0,0.0,1.0,10.0,285.0,285.0,4.1731686,2.892513685714286,4.228369242857143,3.0801958714285718,-0.077226,-0.069906,1.008696,-18.900000000000002,1.6800000000000002,2.3800000000000003,3.31,3.31,3.31,3.29,3.3,3.31,3.3,3.32,3.32,3.33,3.33,3.32,3.31,3.32,3.31,3.31,3.32,3.32,3.32,3.32,3.33,3.33,3.33,3.32,3.32,3.23,79.3,15.0,1.0,0.0,1.0,1.0,1240987
1765219746080,283.0,0.0,1.0,10.0,285.0,285.0,4.1731686,3.002914971428572,4.228369242857143,3.0801958714285718,-0.077226,-0.069906,1.008696,-18.900000000000002,1.6800000000000002,2.3800000000000003,3.31,3.31,3.31,3.29,3.3,3.31,3.3,3.32,3.32,3.33,3.33,3.32,3.31,3.32,3.31,3.31,3.32,3.32,3.32,3.32,3.33,3.33,3.33,3.32,3.32,3.23,79.3,15.0,1.0,0.0,1.0,1.0,1241054
1765219746146,283.0,0.0,1.0,10.0,285.0,285.0,4.1731686,3.002914971428572,4.228369242857143,3.0801958714285718,-0.077226,-0.069906,1.008696,-18.900000000000002,1.6800000000000002,2.3800000000000003,3.31,3.31,3.31,3.29,3.3,3.31,3.3,3.32,3.32,3.33,3.33,3.32,3.31,3.32,3.31,3.31,3.32,3.32,3.32,3.32,3.33,3.33,3.33,3.32,3.32,3.25,79.3,15.0,1.0,0.0,1.0,1.0,1241120
