timestamp,THROTTLE,BRAKE,ECU_MODE_ID,TORQUE_GAIN,TORQUE_REF_LEFT_MOTOR,TORQUE_REF_RIGHT_MOTOR,LEFT_MOTOR_SPEED,RIGHT_MOTOR_SPEED,REAR_LEFT_WHEEL_SPEED,REAR_RIGHT_WHEEL_SPEED,ACCEL_LONGITUDINAL,ACCEL_LATERAL,ACCEL_NORMAL,VEL_ANGULAR_YAW,VEL_ANGULAR_PITCH,VEL_ANGULAR_ROLL,STACK_1_CELL_1,STACK_1_CELL_2,STACK_1_CELL_3,STACK_1_CELL_4,STACK_2_CELL_1,STACK_2_CELL_2,STACK_2_CELL_3,STACK_2_CELL_4,STACK_3_CELL_1,STACK_3_CELL_2,STACK_3_CELL_3,STACK_3_CELL_4,STACK_4_CELL_1,STACK_4_CELL_2,STACK_4_CELL_3,STACK_4_CELL_4,STACK_5_CELL_1,STACK_5_CELL_2,STACK_5_CELL_3,STACK_5_CELL_4,STACK_6_CELL_1,STACK_6_CELL_2,STACK_6_CELL_3,STACK_6_CELL_4,MAX_VOLTAGE,MIN_VOLTAGE,TOTAL_VOLTAGE,SHUNT_CURRENT,BMS_MODE_ID,BMS_ERROR_ID,AIR_P,AIR_N,t
1765219160002,1000.0,0.0,2.0,25.0,2500.0,2500.0,0.0,0.0,0.0,0.0,-0.023302,0.0057339999999999995,0.991982,-0.7000000000000001,0.49000000000000005,0.0,3.32,3.33,3.32,3.32,3.32,3.32,3.32,3.32,3.34,3.34,3.34,3.34,3.32,3.32,3.32,3.32,3.32,3.33,3.32,3.32,3.33,3.34,3.33,3.33,3.34,3.32,79.8,0.0,1.0,0.0,0.0,1.0,654976
1765219160054,1000.0,0.0,2.0,25.0,2500.0,2500.0,0.0,0.0,0.0,0.0,-0.023302,0.0057339999999999995,0.991982,-0.7000000000000001,0.49000000000000005,0.0,3.32,3.33,3.32,3.32,3.32,3.32,3.32,3.32,3.34,3.34,3.34,3.34,3.32,3.32,3.32,3.32,3.32,3.33,3.32,3.32,3.33,3.34,3.33,3.33,3.34,3.32,79.8,0.0,1.0,0.0,0.0,1.0,655028
1765219160071,1000.0,0.0,2.0,25.0,2500.0,2500.0,0.0,0.0,0.0,0.0,-0.023302,0.0057339999999999995,0.991982,-0.7000000000000001,0.7000000000000001,-0.07,3.32,3.33,3.32,3.32,3.32,3.32,3.32,3.32,3.34,3.34,3.34,3.34,3.32,3.32,3.32,3.32,3.32,3.33,3.32,3.32,3.33,3.34,3.33,3.33,3.34,3.32,79.8,0.0,1.0,0.0,0.0,1.0,655045
1765219160137,1000.0,0.0,2.0,25.0,2500.0,2500.0,0.0,0.0,0.0,0.0,-0.023302,0.0057339999999999995,0.991982,-0.7000000000000001,0.7000000000000001,-0.07,3.33,3.33,3.33,3.32,3.32,3.32,3.32,3.32,3.34,3.34,3.34,3.34,3.32,3.32,3.32,3.32,3.32,3.33,3.32,3.32,3.33,3.34,3.33,3.33,3.34,3.32,79.8,0.0,1.0,0.0,0.0,1.0,655111
1765219160154,1000.0,0.0,2.0,25.0,2500.0,2500.0,0.0,0.0,0.0,0.0,-0.023302,0.0057339999999999995,0.991982,-0.7000000000000001,0.7000000000000001,-0.07,3.33,3.33,3.33,3.32,3.32,3.33,3.33,3.32,3.34,3.34,3.34,3.34,3.32,3.32,3.32,3.32,3.32,3.33,3.32,3.32,3.33,3.34,3.33,3.33,3.34,3.32,79.8,0.0,1.0,0.0,0.0,1.0,655128
1765219160171,1000.0,0.0,2.0,25.0,2500.0,2500.0,0.0,0.0,0.0,0.0,-0.023302,0.0057339999999999995,0.991982,-0.7000000000000001,0.7000000000000001,-0.07,3.33,3.33,3.33,3.32,3.32,3.33,3.33,3.32,3.34,3.34,3.34,3.34,3.32,3.32,3.32,3.32,3.32,3.33,3.32,3.32,3.33,3.34,3.33,3.33,3.34,3.32,79.8,0.0,1.0,0.0,0.0,1.0,655145
1765219160188,1000.0,0.0,2.0,25.0,2500.0,2500.0,0.0,0.0,0.0,0.0,-0.023302,0.0057339999999999995,0.991982,-0.7000000000000001,0.7000000000000001,-0.07,3.33,3.33,3.33,3.32,3.32,3.33,3.33,3.32,3.34,3.34,3.34,3.34,3.32,3.33,3.33,3.32,3.32,3.33,3.32,3.32,3.33,3.34,3.33,3.33,3.34,3.32,79.8,0.0,1.0,0.0,0.0,1.0,655162
1765219160204,1000.0,0.0,2.0,25.0,2500.0,2500.0,0.0,0.0,0.0,0.0,-0.023302,0.0057339999999999995,0.991982,-0.7000000000000001,0.7000000000000001,-0.07,3.33,3.33,3.33,3.32,3.32,3.33,3.33,3.32,3.34,3.34,3.34,3.34,3.32,3.33,3.33,3.32,3.33,3.33,3.33,3.32,3.34,3.34,3.34,3.34,3.34,3.32,79.8,0.0,1.0,0.0,0.0,1.0,655178
1765219160237,1000.0,0.0,2.0,25.0,2500.0,2500.0,0.0,0.0,0.0,0.0,-0.023424,0.0037819999999999998,0.99369,-0.7000000000000001,0.7000000000000001,-0.07,3.33,3.33,3.33,3.32,3.32,3.33,3.33,3.32,3.34,3.34,3.34,3.34,3.32,3.33,3.33,3.32,3.33,3.33,3.33,3.32,3.34,3.34,3.34,3.34,3.34,3.32,79.8,0.0,1.0,0.0,0.0,1.0,655211
1765219160254,0.0,0.0,2.0,25.0,2500.0,2500.0,0.0,0.0,0.0,0.0,-0.023424,0.0037819999999999998,0.99369,-0.7000000000000001,0.7000000000000001,-0.07,3.33,3.33,3.33,3.32,3.32,3.33,3.33,3.32,3.34,3.34,3.34,3.34,3.32,3.33,3.33,3.32,3.33,3.33,3.33,3.32,3.34,3.34,3.34,3.34,3.34,3.32,79.8,0.0,1.0,0.0,0.0,1.0,655228
1765219160270,0.0,0.0,2.0,25.0,2500.0,2500.0,0.0,0.0,0.0,0.0,-0.023424,0.0037819999999999998,0.99369,-0.7000000000000001,0.42000000000000004,0.0,3.33,3.33,3.33,3.32,3.32,3.33,3.33,3.32,3.34,3.34,3.34,3.34,3.32,3.33,3.33,3.32,3.33,3.33,3.33,3.32,3.34,3.34,3.34,3.34,3.34,3.32,79.8,0.0,1.0,0.0,0.0,1.0,655244
1765219160304,0.0,0.0,2.0,25.0,2500.0,2500.0,0.0,0.0,0.0,0.0,-0.023424,0.0037819999999999998,0.99369,-0.7000000000000001,0.42000000000000004,0.0,3.33,3.33,3.33,3.32,3.32,3.33,3.33,3.32,3.34,3.34,3.34,3.34,3.32,3.33,3.33,3.32,3.33,3.33,3.33,3.32,3.34,3.34,3.34,3.34,3.34,3.32,79.8,0.0,1.0,0.0,0.0,1.0,655278
1765219160320,0.0,0.0,2.0,25.0,2500.0,2500.0,0.0,0.0,0.0,0.0,-0.023424,0.0037819999999999998,0.99369,-0.7000000000000001,0.42000000000000004,0.0,3.33,3.33,3.33,3.32,3.32,3.33,3.33,3.32,3.34,3.34,3.34,3.34,3.32,3.33,3.33,3.32,3.33,3.33,3.33,3.32,3.34,3.34,3.34,3.34,3.34,3.32,79.8,0.0,1.0,0.0,0.0,1.0,655294
1765219160336,0.0,0.0,2.0,25.0,2500.0,2500.0,0.0,0.0,0.0,0.0,-0.023424,0.0037819999999999998,0.99369,-0.7000000000000001,0.42000000000000004,0.0,3.33,3.33,3.33,3.32,3.32,3.33,3.33,3.32,3.34,3.34,3.34,3.34,3.32,3.33,3.33,3.32,3.33,3.33,3.33,3.32,3.34,3.34,3.34,3.34,3.34,3.32,79.8,0.0,1.0,0.0,0.0,1.0,655310
1765219160353,0.0,0.0,2.0,25.0,2500.0,2500.0,0.0,0.0,0.0,0.0,-0.023424,0.0037819999999999998,0.99369,-0.7000000000000001,0.42000000000000004,0.0,3.33,3.33,3.33,3.32,3.32,3.33,3.33,3.32,3.34,3.34,3.34,3.34,3.32,3.33,3.33,3.32,3.33,3.33,3.33,3.32,3.34,3.34,3.34,3.34,3.34,3.32,79.8,0.0,1.0,0.0,0.0,1.0,655327
1765219160369,0.0,0.0,2.0,25.0,2500.0,2500.0,0.0,0.0,0.0,0.0,-0.023424,0.0037819999999999998,0.99369,-0.7000000000000001,0.42000000000000004,0.0,3.33,3.33,3.33,3.32,3.32,3.33,3.33,3.32,3.34,3.34,3.34,3.34,3.32,3.33,3.33,3.32,3.33,3.33,3.33,3.32,3.34,3.34,3.34,3.34,3.34,3.32,79.8,0.0,1.0,0.0,0.0,1.0,655343
1765219160387,0.0,0.0,1.0,10.0,2500.0,2500.0,0.0,0.0,0.0,0.0,-0.023424,0.0037819999999999998,0.99369,-0.7000000000000001,0.42000000000000004,0.0,3.33,3.33,3.33,3.32,3.32,3.33,3.33,3.32,3.34,3.34,3.34,3.34,3.32,3.33,3.33,3.32,3.33,3.33,3.33,3.32,3.34,3.34,3.34,3.34,3.34,3.32,79.8,0.0,1.0,0.0,0.0,1.0,655361
1765219160420,0.0,0.0,1.0,10.0,0.0,0.0,0.0,0.0,0.0,0.0,-0.023424,0.0037819999999999998,0.99369,-0.7000000000000001,0.42000000000000004,0.0,3.33,3.33,3.33,3.32,3.32,3.33,3.33,3.32,3.34,3.34,3.34,3.34,3.32,3.33,3.33,3.32,3.33,3.33,3.33,3.32,3.34,3.34,3.34,3.34,3.34,3.32,79.8,0.0,1.0,0.0,0.0,1.0,655394
1765219160436,0.0,0.0,1.0,10.0,0.0,0.0,0.0,0.0,0.0,0.0,-0.023424,0.0037819999999999998,0.99369,-0.7000000000000001,0.42000000000000004,0.0,3.33,3.33,3.33,3.32,3.32,3.33,3.33,3.32,3.34,3.34,3.34,3.34,3.32,3.33,3.33,3.32,3.33,3.33,3.33,3.32,3.34,3.34,3.34,3.34,3.34,3.32,79.8,0.0,1.0,0.0,0.0,1.0,655410
1765219160453,0.0,0.0,1.0,10.0,0.0,0.0,0.0,0.0,0.0,0.0,-0.02318,0.005856,0.9916159999999999,-0.7000000000000001,0.42000000000000004,0.0,3.33,3.33,3.33,3.32,3.32,3.33,3.33,3.32,3.34,3.34,3.34,3.34,3.32,3.33,3.33,3.32,3.33,3.33,3.33,3.32,3.34,3.34,3.34,3.34,3.34,3.32,79.8,0.0,1.0,0.0,0.0,1.0,655427
1765219160520,0.0,0.0,1.0,10.0,0.0,0.0,0.0,0.0,0.0,0.0,-0.02318,0.005856,0.9916159999999999,-0.6300000000000001,0.49000000000000005,-0.07,3.33,3.33,3.33,3.32,3.32,3.33,3.33,3.32,3.34,3.34,3.34,3.34,3.32,3.33,3.33,3.32,3.33,3.33,3.33,3.32,3.34,3.34,3.34,3.34,3.34,3.32,79.8,0.0,1.0,0.0,0.0,1.0,655494
1765219160620,0.0,0.0,1.0,10.0,0.0,0.0,0.0,0.0,0.0,0.0,-0.023424,0.005978,0.99552,-0.6300000000000001,0.49000000000000005,-0.07,3.33,3.33,3.33,3.32,3.32,3.33,3.33,3.32,3.34,3.34,3.34,3.34,3.32,3.33,3.33,3.32,3.33,3.33,3.33,3.32,3.34,3.34,3.34,3.34,3.34,3.32,79.8,0.0,1.0,0.0,0.0,1.0,655594
1765219160637,0.0,0.0,1.0,10.0,0.0,0.0,0.0,0.0,0.0,0.0,-0.023424,0.005978,0.99552,-0.7000000000000001,0.49000000000000005,-0.07,3.33,3.33,3.33,3.32,3.32,3.33,3.33,3.32,3.34,3.34,3.34,3.34,3.32,3.33,3.33,3.32,3.33,3.33,3.33,3.32,3.34,3.34,3.34,3.34,3.34,3.32,79.8,0.0,1.0,0.0,0.0,1.0,655611
1765219160671,0.0,0.0,1.0,10.0,0.0,0.0,0.0,0.0,0.0,0.0,-0.023424,0.005978,0.99552,-0.7000000000000001,0.49000000000000005,-0.07,3.33,3.33,3.33,3.32,3.32,3.33,3.33,3.32,3.34,3.34,3.34,3.34,3.32,3.33,3.33,3.32,3.33,3.33,3.33,3.32,3.34,3.34,3.34,3.34,3.34,3.32,79.8,0.0,1.0,0.0,0.0,1.0,655645
1765219160686,0.0,0.0,1.0,10.0,0.0,0.0,0.0,0.0,0.0,0.0,-0.023424,0.005978,0.99552,-0.7000000000000001,0.49000000000000005,-0.07,3.33,3.33,3.33,3.32,3.32,3.33,3.33,3.32,3.34,3.34,3.34,3.34,3.32,3.33,3.33,3.32,3.33,3.33,3.33,3.32,3.34,3.34,3.34,3.34,3.34,3.32,79.8,0.0,1.0,0.0,0.0,1.0,655660
1765219160703,0.0,0.0,1.0,10.0,0.0,0.0,0.0,0.0,0.0,0.0,-0.023424,0.005978,0.99552,-0.7000000000000001,0.49000000000000005,-0.07,3.33,3.33,3.33,3.32,3.32,3.33,3.33,3.32,3.34,3.34,3.34,3.34,3.32,3.33,3.33,3.32,3.33,3.33,3.33,3.32,3.34,3.34,3.34,3.34,3.34,3.32,79.8,0.0,1.0,0.0,0.0,1.0,655677
1765219160719,0.0,0.0,1.0,10.0,0.0,0.0,0.0,0.0,0.0,0.0,-0.023424,0.005978,0.99552,-0.7000000000000001,0.49000000000000005,-0.07,3.33,3.33,3.33,3.32,3.32,3.33,3.33,3.32,3.34,3.34,3.34,3.34,3.32,3.33,3.33,3.32,3.33,3.33,3.33,3.32,3.34,3.34,3.34,3.34,3.34,3.32,79.8,0.0,1.0,0.0,0.0,1.0,655693
1765219160739,0.0,0.0,1.0,10.0,0.0,0.0,0.0,0.0,0.0,0.0,-0.023424,0.005978,0.99552,-0.7000000000000001,0.49000000000000005,-0.07,3.33,3.33,3.33,3.32,3.32,3.33,3.33,3.32,3.34,3.34,3.34,3.34,3.32,3.33,3.33,3.32,3.33,3.33,3.33,3.32,3.34,3.34,3.34,3.34,3.34,3.32,79.8,0.0,1.0,0.0,0.0,1.0,655713
1765219160788,0.0,0.0,1.0,10.0,0.0,0.0,0.0,0.0,0.0,0.0,-0.023424,0.005978,0.99552,-0.7000000000000001,0.49000000000000005,-0.07,3.33,3.33,3.33,3.32,3.32,3.33,3.33,3.32,3.34,3.34,3.34,3.34,3.32,3.33,3.33,3.32,3.33,3.33,3.33,3.32,3.34,3.34,3.34,3.34,3.34,3.32,79.8,0.0,1.0,0.0,0.0,1.0,655762
1765219160821,0.0,0.0,1.0,10.0,0.0,0.0,0.0,0.0,0.0,0.0,-0.026595999999999998,0.005246,0.993324,-0.7000000000000001,0.49000000000000005,-0.07,3.33,3.33,3.33,3.32,3.32,3.33,3.33,3.32,3.34,3.34,3.34,3.34,3.32,3.33,3.33,3.32,3.33,3.33,3.33,3.32,3.34,3.34,3.34,3.34,3.34,3.32,79.8,0.0,1.0,0.0,0.0,1.0,655795
1765219160870,0.0,0.0,1.0,10.0,0.0,0.0,0.0,0.0,0.0,0.0,-0.026595999999999998,0.005246,0.993324,-0.7000000000000001,0.42000000000000004,-0.07,3.33,3.33,3.33,3.32,3.32,3.33,3.33,3.32,3.34,3.34,3.34,3.34,3.32,3.33,3.33,3.32,3.33,3.33,3.33,3.32,3.34,3.34,3.34,3.34,3.34,3.32,79.8,0.0,1.0,0.0,0.0,1.0,655844
1765219160936,0.0,0.0,1.0,10.0,0.0,0.0,0.0,0.0,0.0,0.0,-0.026595999999999998,0.005246,0.993324,-0.7000000000000001,0.42000000000000004,-0.07,3.33,3.33,3.33,3.32,3.32,3.33,3.33,3.32,3.34,3.34,3.34,3.34,3.32,3.33,3.33,3.32,3.33,3.33,3.33,3.32,3.34,3.34,3.34,3.34,3.34,3.32,79.8,0.0,1.0,0.0,0.0,1.0,655910
1765219161003,0.0,0.0,1.0,10.0,0.0,0.0,0.0,0.0,0.0,0.0,-0.02562,0.0026839999999999998,0.99308,-0.7000000000000001,0.42000000000000004,-0.07,3.33,3.33,3.33,3.32,3.32,3.33,3.33,3.32,3.34,3.34,3.34,3.34,3.32,3.33,3.33,3.32,3.33,3.33,3.33,3.32,3.34,3.34,3.34,3.34,3.34,3.32,79.8,0.0,1.0,0.0,0.0,1.0,655977
1765219161019,0.0,0.0,1.0,10.0,0.0,0.0,0.0,0.0,0.0,0.0,-0.02562,0.0026839999999999998,0.99308,-0.6300000000000001,0.42000000000000004,-0.14,3.33,3.33,3.33,3.32,3.32,3.33,3.33,3.32,3.34,3.34,3.34,3.34,3.32,3.33,3.33,3.32,3.33,3.33,3.33,3.32,3.34,3.34,3.34,3.34,3.34,3.32,79.8,0.0,1.0,0.0,0.0,1.0,655993
1765219161070,0.0,0.0,1.0,10.0,0.0,0.0,0.0,0.0,0.0,0.0,-0.02562,0.0026839999999999998,0.99308,-0.6300000000000001,0.42000000000000004,-0.14,3.33,3.33,3.33,3.32,3.32,3.33,3.33,3.32,3.34,3.34,3.34,3.34,3.32,3.33,3.33,3.32,3.33,3.33,3.33,3.32,3.34,3.34,3.34,3.34,3.34,3.32,79.8,0.0,1.0,0.0,0.0,1.0,656044
1765219161086,0.0,0.0,1.0,10.0,0.0,0.0,0.0,0.0,0.0,0.0,-0.02562,0.0026839999999999998,0.99308,-0.6300000000000001,0.42000000000000004,-0.14,3.33,3.33,3.33,3.32,3.32,3.33,3.33,3.32,3.34,3.34,3.34,3.34,3.32,3.33,3.33,3.32,3.33,3.33,3.33,3.32,3.34,3.34,3.34,3.34,3.34,3.32,79.8,0.0,1.0,0.0,0.0,1.0,656060
1765219161104,0.0,0.0,1.0,10.0,0.0,0.0,0.0,0.0,0.0,0.0,-0.024766,0.003904,0.994422,-0.6300000000000001,0.42000000000000004,-0.14,3.33,3.33,3.33,3.32,3.32,3.33,3.33,3.32,3.34,3.34,3.34,3.34,3.32,3.33,3.33,3.32,3.33,3.33,3.33,3.32,3.34,3.34,3.34,3.34,3.34,3.32,79.8,0.0,1.0,0.0,0.0,1.0,656078
1765219161136,0.0,0.0,1.0,10.0,0.0,0.0,0.0,0.0,0.0,0.0,-0.024766,0.003904,0.994422,-0.6300000000000001,0.42000000000000004,-0.14,3.33,3.33,3.33,3.32,3.32,3.33,3.33,3.32,3.34,3.34,3.34,3.34,3.32,3.33,3.33,3.32,3.33,3.33,3.33,3.32,3.34,3.34,3.34,3.34,3.34,3.32,79.9,0.0,1.0,0.0,0.0,1.0,656110
1765219161185,0.0,0.0,1.0,10.0,0.0,0.0,0.0,0.0,0.0,0.0,-0.024766,0.003904,0.994422,-0.6300000000000001,0.42000000000000004,-0.14,3.33,3.33,3.33,3.32,3.32,3.33,3.33,3.32,3.34,3.34,3.34,3.34,3.32,3.33,3.33,3.32,3.33,3.33,3.33,3.32,3.34,3.34,3.34,3.34,3.34,3.32,79.9,0.0,1.0,0.0,1.0,1.0,656159
1765219161218,0.0,0.0,1.0,10.0,0.0,0.0,0.0,0.0,0.0,0.0,-0.024766,0.003904,0.994422,-0.7000000000000001,0.56,-0.07,3.33,3.33,3.33,3.32,3.32,3.33,3.33,3.32,3.34,3.34,3.34,3.34,3.32,3.33,3.33,3.32,3.33,3.33,3.33,3.32,3.34,3.34,3.34,3.34,3.34,3.32,79.9,0.0,1.0,0.0,1.0,1.0,656192
1765219161252,0.0,0.0,1.0,10.0,0.0,0.0,0.0,0.0,0.0,0.0,-0.024766,0.003904,0.994422,-0.7000000000000001,0.56,-0.07,3.33,3.33,3.33,3.32,3.32,3.33,3.33,3.32,3.34,3.34,3.34,3.34,3.32,3.33,3.33,3.32,3.33,3.33,3.33,3.32,3.34,3.34,3.34,3.34,3.34,3.32,79.9,0.0,1.0,0.0,1.0,1.0,656226
1765219161354,0.0,0.0,1.0,10.0,0.0,0.0,0.0,0.0,0.0,0.0,-0.025131999999999998,0.0075639999999999995,0.99308,-0.6300000000000001,0.28,-0.07,3.33,3.33,3.33,3.32,3.32,3.33,3.33,3.32,3.34,3.34,3.34,3.34,3.32,3.33,3.33,3.32,3.33,3.33,3.33,3.32,3.34,3.34,3.34,3.34,3.34,3.32,79.9,0.0,1.0,0.0,1.0,1.0,656328
1765219161404,0.0,0.0,1.0,10.0,0.0,0.0,0.0,0.0,0.0,0.0,-0.025131999999999998,0.0075639999999999995,0.99308,-0.6300000000000001,0.28,-0.07,3.33,3.33,3.33,3.32,3.32,3.33,3.33,3.32,3.34,3.34,3.34,3.34,3.32,3.33,3.33,3.32,3.33,3.33,3.33,3.32,3.34,3.34,3.34,3.34,3.34,3.32,79.9,0.0,1.0,0.0,1.0,1.0,656378
1765219161420,0.0,0.0,1.0,10.0,0.0,0.0,0.0,0.0,0.0,0.0,-0.025131999999999998,0.0075639999999999995,0.99308,-0.6300000000000001,0.28,-0.07,3.33,3.33,3.33,3.32,3.32,3.33,3.33,3.32,3.34,3.34,3.34,3.34,3.32,3.33,3.33,3.32,3.33,3.33,3.33,3.32,3.34,3.34,3.34,3.34,3.34,3.32,79.9,0.0,1.0,0.0,1.0,1.0,656394
1765219161436,0.0,0.0,1.0,10.0,0.0,0.0,0.0,0.0,0.0,0.0,-0.025131999999999998,0.0075639999999999995,0.99308,-0.6300000000000001,0.28,-0.07,3.33,3.33,3.33,3.32,3.32,3.33,3.33,3.32,3.34,3.34,3.34,3.34,3.32,3.33,3.33,3.32,3.33,3.33,3.33,3.32,3.34,3.34,3.34,3.34,3.34,3.32,79.9,0.0,1.0,0.0,1.0,1.0,656410
1765219161471,0.0,0.0,1.0,10.0,0.0,0.0,0.0,0.0,0.0,0.0,-0.025131999999999998,0.0075639999999999995,0.99308,-0.6300000000000001,0.28,-0.07,3.33,3.33,3.33,3.32,3.32,3.33,3.33,3.32,3.34,3.34,3.34,3.34,3.32,3.33,3.33,3.32,3.33,3.33,3.33,3.32,3.34,3.34,3.34,3.34,3.34,3.32,79.9,0.0,1.0,0.0,1.0,1.0,656445
1765219161504,0.0,0.0,1.0,10.0,0.0,0.0,0.0,0.0,0.0,0.0,-0.023912,0.0053679999999999995,0.99308,-0.6300000000000001,0.28,-0.07,3.33,3.33,3.33,3.32,3.32,3.33,3.33,3.32,3.34,3.34,3.34,3.34,3.32,3.33,3.33,3.32,3.33,3.33,3.33,3.32,3.34,3.34,3.34,3.34,3.34,3.32,79.9,0.0,1.0,0.0,1.0,1.0,656478
1765219161522,0.0,0.0,1.0,10.0,0.0,0.0,0.0,0.0,0.0,0.0,-0.023912,0.0053679999999999995,0.99308,-0.6300000000000001,0.28,-0.07,3.33,3.33,3.33,3.32,3.32,3.33,3.33,3.32,3.34,3.34,3.34,3.34,3.32,3.33,3.33,3.32,3.33,3.33,3.33,3.32,3.34,3.34,3.34,3.34,3.34,3.32,79.9,0.0,1.0,0.0,1.0,1.0,656496
1765219161555,0.0,0.0,1.0,10.0,0.0,0.0,0.0,0.0,0.0,0.0,-0.023912,0.0053679999999999995,0.99308,-0.6300000000000001,0.28,-0.07,3.33,3.33,3.33,3.32,3.32,3.33,3.33,3.32,3.34,3.34,3.34,3.34,3.32,3.33,3.33,3.32,3.33,3.33,3.33,3.32,3.34,3.34,3.34,3.34,3.34,3.32,79.9,0.0,1.0,0.0,1.0,1.0,656529
1765219161572,0.0,0.0,1.0,10.0,0.0,0.0,0.0,0.0,0.0,0.0,-0.023912,0.0053679999999999995,0.99308,-0.6300000000000001,0.28,-0.07,3.33,3.33,3.33,3.32,3.32,3.33,3.33,3.32,3.34,3.34,3.34,3.34,3.32,3.33,3.33,3.32,3.33,3.33,3.33,3.32,3.34,3.34,3.34,3.34,3.34,3.32,79.9,0.0,1.0,0.0,1.0,1.0,656546
1765219161605,0.0,0.0,1.0,10.0,0.0,0.0,0.0,0.0,0.0,0.0,-0.023912,0.0053679999999999995,0.99308,-0.6300000000000001,0.28,-0.07,3.33,3.33,3.33,3.32,3.32,3.33,3.33,3.32,3.34,3.34,3.34,3.34,3.32,3.33,3.33,3.32,3.33,3.33,3.33,3.32,3.34,3.34,3.34,3.34,3.34,3.32,79.9,0.0,1.0,0.0,1.0,1.0,656579
1765219161655,0.0,0.0,1.0,10.0,0.0,0.0,0.0,0.0,0.0,0.0,-0.023912,0.0053679999999999995,0.99308,-0.6300000000000001,0.28,-0.07,3.33,3.33,3.33,3.32,3.32,3.33,3.33,3.32,3.34,3.34,3.34,3.34,3.32,3.33,3.33,3.32,3.33,3.33,3.33,3.32,3.34,3.34,3.34,3.34,3.34,3.32,79.9,0.0,1.0,0.0,1.0,1.0,656629
1765219161720,0.0,0.0,1.0,10.0,0.0,0.0,0.0,0.0,0.0,0.0,-0.025863999999999998,0.004392,0.992714,-0.7000000000000001,0.56,-0.07,3.33,3.33,3.33,3.32,3.32,3.33,3.33,3.32,3.34,3.34,3.34,3.34,3.32,3.33,3.33,3.32,3.33,3.33,3.33,3.32,3.34,3.34,3.34,3.34,3.34,3.32,79.9,0.0,1.0,0.0,1.0,1.0,656694
1765219161788,0.0,0.0,1.0,10.0,0.0,0.0,0.0,0.0,0.0,0.0,-0.022448,0.0046359999999999995,0.9922259999999999,-0.7000000000000001,0.56,-0.07,3.33,3.33,3.33,3.32,3.32,3.33,3.33,3.32,3.34,3.34,3.34,3.34,3.32,3.33,3.33,3.32,3.33,3.33,3.33,3.32,3.34,3.34,3.34,3.34,3.34,3.32,79.9,0.0,1.0,0.0,1.0,1.0,656762
1765219161804,0.0,0.0,1.0,10.0,0.0,0.0,0.0,0.0,0.0,0.0,-0.022448,0.0046359999999999995,0.9922259999999999,-0.7000000000000001,0.56,-0.07,3.33,3.33,3.33,3.32,3.32,3.33,3.33,3.32,3.34,3.34,3.34,3.34,3.32,3.33,3.33,3.32,3.33,3.33,3.33,3.32,3.34,3.34,3.34,3.34,3.34,3.32,79.9,0.0,1.0,0.0,1.0,1.0,656778
1765219161820,0.0,0.0,1.0,10.0,0.0,0.0,0.0,0.0,0.0,0.0,-0.022448,0.0046359999999999995,0.9922259999999999,-0.7000000000000001,0.56,-0.07,3.33,3.33,3.33,3.32,3.32,3.33,3.33,3.32,3.34,3.34,3.34,3.34,3.32,3.33,3.33,3.32,3.33,3.33,3.33,3.32,3.34,3.34,3.34,3.34,3.34,3.32,79.9,0.0,1.0,0.0,1.0,1.0,656794
1765219161837,0.0,0.0,1.0,10.0,0.0,0.0,0.0,0.0,0.0,0.0,-0.022448,0.0046359999999999995,0.9922259999999999,-0.7000000000000001,0.42000000000000004,-0.07,3.33,3.33,3.33,3.32,3.32,3.33,3.33,3.32,3.34,3.34,3.34,3.34,3.32,3.33,3.33,3.32,3.33,3.33,3.33,3.32,3.34,3.34,3.34,3.34,3.34,3.32,79.9,0.0,1.0,0.0,1.0,1.0,656811
1765219161854,0.0,0.0,1.0,10.0,0.0,0.0,0.0,0.0,0.0,0.0,-0.022448,0.0046359999999999995,0.9922259999999999,-0.7000000000000001,0.42000000000000004,-0.07,3.33,3.33,3.33,3.32,3.32,3.33,3.33,3.32,3.34,3.34,3.34,3.34,3.32,3.33,3.33,3.32,3.33,3.33,3.33,3.32,3.34,3.34,3.34,3.34,3.34,3.32,79.9,0.0,1.0,0.0,1.0,1.0,656828
1765219161886,0.0,0.0,1.0,10.0,0.0,0.0,0.0,0.0,0.0,0.0,-0.022448,0.0046359999999999995,0.9922259999999999,-0.7000000000000001,0.42000000000000004,-0.07,3.33,3.33,3.33,3.32,3.32,3.33,3.33,3.32,3.34,3.34,3.34,3.34,3.32,3.33,3.33,3.32,3.33,3.33,3.33,3.32,3.34,3.34,3.34,3.34,3.34,3.32,79.9,0.0,1.0,0.0,1.0,1.0,656860
1765219161918,0.0,0.0,1.0,10.0,0.0,0.0,0.0,0.0,0.0,0.0,-0.022448,0.0046359999999999995,0.9922259999999999,-0.7000000000000001,0.42000000000000004,-0.07,3.33,3.33,3.33,3.32,3.33,3.33,3.33,3.32,3.34,3.34,3.34,3.34,3.32,3.33,3.33,3.32,3.33,3.33,3.33,3.32,3.34,3.34,3.34,3.34,3.34,3.32,79.9,0.0,1.0,0.0,1.0,1.0,656892
1765219161936,0.0,0.0,1.0,10.0,0.0,0.0,0.0,0.0,0.0,0.0,-0.022448,0.0046359999999999995,0.9922259999999999,-0.7000000000000001,0.42000000000000004,-0.07,3.33,3.33,3.33,3.32,3.33,3.33,3.33,3.32,3.34,3.34,3.34,3.34,3.32,3.33,3.33,3.32,3.33,3.33,3.33,3.32,3.34,3.34,3.34,3.34,3.34,3.32,79.9,0.0,1.0,0.0,1.0,1.0,656910
1765219161952,0.0,0.0,1.0,10.0,0.0,0.0,0.0,0.0,0.0,0.0,-0.022448,0.0046359999999999995,0.9922259999999999,-0.7000000000000001,0.42000000000000004,-0.07,3.33,3.33,3.33,3.32,3.33,3.33,3.33,3.32,3.34,3.34,3.34,3.34,3.32,3.33,3.33,3.32,3.33,3.33,3.33,3.32,3.34,3.34,3.34,3.34,3.34,3.32,79.9,0.0,1.0,0.0,1.0,1.0,656926
1765219161986,0.0,0.0,1.0,10.0,0.0,0.0,0.0,0.0,0.0,0.0,-0.022448,0.0046359999999999995,0.9922259999999999,-0.7000000000000001,0.42000000000000004,-0.07,3.33,3.33,3.33,3.32,3.33,3.33,3.33,3.32,3.34,3.34,3.34,3.34,3.32,3.33,3.33,3.32,3.33,3.33,3.33,3.32,3.34,3.34,3.34,3.34,3.34,3.32,79.9,0.0,1.0,0.0,1.0,1.0,656960
1765219162019,0.0,0.0,1.0,10.0,0.0,0.0,0.0,0.0,0.0,0.0,-0.022448,0.0046359999999999995,0.9922259999999999,-0.7000000000000001,0.42000000000000004,-0.07,3.33,3.33,3.33,3.32,3.33,3.33,3.33,3.32,3.34,3.34,3.34,3.34,3.32,3.33,3.33,3.32,3.33,3.33,3.33,3.32,3.34,3.34,3.34,3.34,3.34,3.32,79.9,0.0,1.0,0.0,1.0,1.0,656993
1765219162087,0.0,0.0,1.0,10.0,0.0,0.0,0.0,0.0,0.0,0.0,-0.025498,0.0037819999999999998,0.996008,-0.7000000000000001,0.42000000000000004,-0.07,3.33,3.33,3.33,3.32,3.33,3.33,3.33,3.32,3.34,3.34,3.34,3.34,3.32,3.33,3.33,3.32,3.33,3.33,3.33,3.32,3.34,3.34,3.34,3.34,3.34,3.32,79.9,0.0,1.0,0.0,1.0,1.0,657061
1765219162104,0.0,0.0,1.0,10.0,0.0,0.0,0.0,0.0,0.0,0.0,-0.025498,0.0037819999999999998,0.996008,-0.77,0.49000000000000005,-0.07,3.33,3.33,3.33,3.32,3.33,3.33,3.33,3.32,3.34,3.34,3.34,3.34,3.32,3.33,3.33,3.32,3.33,3.33,3.33,3.32,3.34,3.34,3.34,3.34,3.34,3.32,79.9,0.0,1.0,0.0,1.0,1.0,657078
1765219162138,0.0,0.0,1.0,10.0,0.0,0.0,0.0,0.0,0.0,0.0,-0.025498,0.0037819999999999998,0.996008,-0.77,0.49000000000000005,-0.07,3.33,3.33,3.33,3.32,3.33,3.33,3.33,3.32,3.34,3.34,3.34,3.34,3.32,3.33,3.33,3.32,3.33,3.33,3.33,3.32,3.34,3.34,3.34,3.34,3.34,3.32,79.9,0.0,1.0,0.0,1.0,1.0,657112
1765219162153,0.0,0.0,1.0,10.0,0.0,0.0,0.0,0.0,0.0,0.0,-0.025498,0.0037819999999999998,0.996008,-0.77,0.49000000000000005,-0.07,3.33,3.33,3.33,3.32,3.33,3.33,3.33,3.32,3.34,3.34,3.34,3.34,3.32,3.33,3.33,3.32,3.33,3.33,3.33,3.32,3.34,3.34,3.34,3.34,3.34,3.32,79.9,0.0,1.0,0.0,1.0,1.0,657127
1765219162170,0.0,0.0,1.0,10.0,0.0,0.0,0.0,0.0,0.0,0.0,-0.025498,0.0037819999999999998,0.996008,-0.77,0.49000000000000005,-0.07,3.33,3.33,3.33,3.32,3.33,3.33,3.33,3.32,3.34,3.34,3.34,3.34,3.32,3.33,3.33,3.32,3.33,3.33,3.33,3.32,3.34,3.34,3.34,3.34,3.34,3.32,79.9,0.0,1.0,0.0,1.0,1.0,657144
1765219162187,0.0,0.0,1.0,10.0,0.0,0.0,0.0,0.0,0.0,0.0,-0.025498,0.0037819999999999998,0.996008,-0.77,0.49000000000000005,-0.07,3.33,3.33,3.33,3.32,3.33,3.33,3.33,3.32,3.34,3.34,3.34,3.34,3.32,3.33,3.33,3.32,3.33,3.33,3.33,3.32,3.34,3.34,3.34,3.34,3.34,3.32,79.9,0.0,1.0,0.0,1.0,1.0,657161
1765219162237,0.0,0.0,1.0,10.0,0.0,0.0,0.0,0.0,0.0,0.0,-0.023546,0.007808,0.98942,-0.77,0.49000000000000005,-0.07,3.33,3.33,3.33,3.32,3.33,3.33,3.33,3.32,3.34,3.34,3.34,3.34,3.32,3.33,3.33,3.32,3.33,3.33,3.33,3.32,3.34,3.34,3.34,3.34,3.34,3.32,79.9,0.0,1.0,0.0,1.0,1.0,657211
1765219162271,0.0,0.0,1.0,10.0,0.0,0.0,0.0,0.0,0.0,0.0,-0.023546,0.007808,0.98942,-0.77,0.49000000000000005,-0.07,3.33,3.33,3.33,3.32,3.33,3.33,3.33,3.32,3.34,3.34,3.34,3.34,3.32,3.33,3.33,3.32,3.33,3.33,3.33,3.32,3.34,3.34,3.34,3.34,3.34,3.32,79.9,0.0,1.0,0.0,1.0,1.0,657245
1765219162287,0.0,0.0,1.0,10.0,0.0,0.0,0.0,0.0,0.0,0.0,-0.023546,0.007808,0.98942,-0.77,0.42000000000000004,-0.07,3.33,3.33,3.33,3.32,3.33,3.33,3.33,3.32,3.34,3.34,3.34,3.34,3.32,3.33,3.33,3.32,3.33,3.33,3.33,3.32,3.34,3.34,3.34,3.34,3.34,3.32,79.9,0.0,1.0,0.0,1.0,1.0,657261
1765219162321,0.0,0.0,1.0,10.0,0.0,0.0,0.0,0.0,0.0,0.0,-0.023546,0.007808,0.98942,-0.77,0.42000000000000004,-0.07,3.33,3.33,3.33,3.32,3.33,3.33,3.33,3.32,3.34,3.34,3.34,3.34,3.32,3.33,3.33,3.32,3.33,3.33,3.33,3.32,3.34,3.34,3.34,3.34,3.34,3.32,79.9,0.0,1.0,0.0,1.0,1.0,657295
1765219162337,0.0,0.0,1.0,10.0,0.0,0.0,0.0,0.0,0.0,0.0,-0.023546,0.007808,0.98942,-0.77,0.42000000000000004,-0.07,3.33,3.33,3.33,3.32,3.33,3.33,3.33,3.32,3.34,3.34,3.34,3.34,3.32,3.33,3.33,3.32,3.33,3.33,3.33,3.32,3.34,3.34,3.34,3.34,3.34,3.32,79.9,0.0,1.0,0.0,1.0,1.0,657311
1765219162403,0.0,0.0,1.0,10.0,0.0,0.0,0.0,0.0,0.0,0.0,-0.023546,0.007808,0.98942,-0.77,0.42000000000000004,-0.07,3.33,3.33,3.33,3.32,3.33,3.33,3.33,3.32,3.34,3.34,3.34,3.34,3.32,3.33,3.33,3.32,3.33,3.33,3.33,3.32,3.34,3.34,3.34,3.34,3.34,3.32,79.9,0.0,1.0,0.0,1.0,1.0,657377
1765219162469,0.0,0.0,1.0,10.0,0.0,0.0,0.0,0.0,0.0,0.0,-0.022692,0.005124,0.99735,-0.77,0.42000000000000004,-0.07,3.33,3.33,3.33,3.32,3.33,3.33,3.33,3.32,3.34,3.34,3.34,3.34,3.32,3.33,3.33,3.32,3.33,3.33,3.33,3.32,3.34,3.34,3.34,3.34,3.34,3.32,79.9,0.0,1.0,0.0,1.0,1.0,657443
1765219162486,0.0,0.0,1.0,10.0,0.0,0.0,0.0,0.0,0.0,0.0,-0.022692,0.005124,0.99735,-0.7000000000000001,0.49000000000000005,-0.07,3.33,3.33,3.33,3.32,3.33,3.33,3.33,3.32,3.34,3.34,3.34,3.34,3.32,3.33,3.33,3.32,3.33,3.33,3.33,3.32,3.34,3.34,3.34,3.34,3.34,3.32,79.9,0.0,1.0,0.0,1.0,1.0,657460
1765219162536,0.0,0.0,1.0,10.0,0.0,0.0,0.0,0.0,0.0,0.0,-0.022692,0.005124,0.99735,-0.7000000000000001,0.49000000000000005,-0.07,3.33,3.33,3.33,3.32,3.33,3.33,3.33,3.32,3.34,3.34,3.34,3.34,3.32,3.33,3.33,3.32,3.33,3.33,3.33,3.32,3.34,3.34,3.34,3.34,3.34,3.32,79.9,0.0,1.0,0.0,1.0,1.0,657510
1765219162553,0.0,0.0,1.0,10.0,0.0,0.0,0.0,0.0,0.0,0.0,-0.022692,0.005124,0.99735,-0.7000000000000001,0.49000000000000005,-0.07,3.33,3.33,3.33,3.32,3.33,3.33,3.33,3.32,3.34,3.34,3.34,3.34,3.32,3.33,3.33,3.32,3.33,3.33,3.33,3.32,3.34,3.34,3.34,3.34,3.34,3.32,79.9,0.0,1.0,0.0,1.0,1.0,657527
1765219162569,0.0,0.0,1.0,10.0,0.0,0.0,0.0,0.0,0.0,0.0,-0.022692,0.005124,0.99735,-0.7000000000000001,0.49000000000000005,-0.07,3.33,3.33,3.33,3.32,3.33,3.33,3.33,3.32,3.34,3.34,3.34,3.34,3.32,3.33,3.33,3.32,3.33,3.33,3.33,3.32,3.34,3.34,3.34,3.34,3.34,3.32,79.9,0.0,1.0,0.0,1.0,1.0,657543
1765219162587,0.0,0.0,1.0,10.0,0.0,0.0,0.0,0.0,0.0,0.0,-0.026108,0.0046359999999999995,0.99491,-0.7000000000000001,0.49000000000000005,-0.07,3.33,3.33,3.33,3.32,3.33,3.33,3.33,3.32,3.34,3.34,3.34,3.34,3.32,3.33,3.33,3.32,3.33,3.33,3.33,3.32,3.34,3.34,3.34,3.34,3.34,3.32,79.9,0.0,1.0,0.0,1.0,1.0,657561
1765219162620,0.0,0.0,1.0,10.0,0.0,0.0,0.0,0.0,0.0,0.0,-0.026108,0.0046359999999999995,0.99491,-0.7000000000000001,0.49000000000000005,-0.07,3.33,3.33,3.33,3.32,3.33,3.33,3.33,3.32,3.34,3.34,3.34,3.34,3.32,3.33,3.33,3.32,3.33,3.33,3.33,3.32,3.34,3.34,3.34,3.34,3.34,3.32,79.9,0.0,1.0,0.0,1.0,1.0,657594
1765219162652,0.0,0.0,1.0,10.0,0.0,0.0,0.0,0.0,0.0,0.0,-0.026108,0.0046359999999999995,0.99491,-0.77,0.35000000000000003,-0.14,3.33,3.33,3.33,3.32,3.33,3.33,3.33,3.32,3.34,3.34,3.34,3.34,3.32,3.33,3.33,3.32,3.33,3.33,3.33,3.32,3.34,3.34,3.34,3.34,3.34,3.32,79.9,0.0,1.0,0.0,1.0,1.0,657626
1765219162685,0.0,0.0,1.0,10.0,0.0,0.0,0.0,0.0,0.0,0.0,-0.026108,0.0046359999999999995,0.99491,-0.77,0.35000000000000003,-0.14,3.33,3.33,3.33,3.32,3.33,3.33,3.33,3.32,3.34,3.34,3.34,3.34,3.32,3.33,3.33,3.32,3.33,3.33,3.33,3.32,3.34,3.34,3.34,3.34,3.34,3.32,79.9,0.0,1.0,0.0,1.0,1.0,657659
1765219162785,0.0,0.0,1.0,10.0,0.0,0.0,0.0,0.0,0.0,0.0,-0.026108,0.0046359999999999995,0.99491,-0.77,0.35000000000000003,-0.14,3.33,3.33,3.33,3.32,3.33,3.33,3.33,3.32,3.34,3.34,3.34,3.34,3.32,3.33,3.33,3.32,3.33,3.33,3.33,3.32,3.34,3.34,3.34,3.34,3.34,3.32,79.9,0.0,1.0,0.0,1.0,1.0,657759
1765219162803,0.0,0.0,1.0,10.0,0.0,0.0,0.0,0.0,0.0,0.0,-0.025376,0.0034159999999999998,0.9928359999999999,-0.77,0.35000000000000003,-0.14,3.33,3.33,3.33,3.32,3.33,3.33,3.33,3.32,3.34,3.34,3.34,3.34,3.32,3.33,3.33,3.32,3.33,3.33,3.33,3.32,3.34,3.34,3.34,3.34,3.34,3.32,79.9,0.0,1.0,0.0,1.0,1.0,657777
1765219162851,0.0,0.0,1.0,10.0,0.0,0.0,0.0,0.0,0.0,0.0,-0.025376,0.0034159999999999998,0.9928359999999999,-0.77,0.6300000000000001,0.0,3.33,3.33,3.33,3.32,3.33,3.33,3.33,3.32,3.34,3.34,3.34,3.34,3.32,3.33,3.33,3.32,3.33,3.33,3.33,3.32,3.34,3.34,3.34,3.34,3.34,3.32,79.9,0.0,1.0,0.0,1.0,1.0,657825
1765219162903,0.0,0.0,1.0,10.0,0.0,0.0,0.0,0.0,0.0,0.0,-0.025376,0.0034159999999999998,0.9928359999999999,-0.77,0.6300000000000001,0.0,3.33,3.33,3.33,3.32,3.33,3.33,3.33,3.32,3.34,3.34,3.34,3.34,3.32,3.33,3.33,3.32,3.33,3.33,3.33,3.32,3.34,3.34,3.34,3.34,3.34,3.32,79.9,0.0,1.0,0.0,1.0,1.0,657877
1765219162918,0.0,0.0,1.0,10.0,0.0,0.0,0.0,0.0,0.0,0.0,-0.025376,0.0034159999999999998,0.9928359999999999,-0.77,0.6300000000000001,0.0,3.33,3.33,3.33,3.32,3.33,3.33,3.33,3.32,3.34,3.34,3.34,3.34,3.32,3.33,3.33,3.32,3.33,3.33,3.33,3.32,3.34,3.34,3.34,3.34,3.34,3.32,79.9,0.0,1.0,0.0,1.0,1.0,657892
1765219162936,0.0,0.0,1.0,10.0,0.0,0.0,0.0,0.0,0.0,0.0,-0.025742,0.007442,0.998692,-0.77,0.6300000000000001,0.0,3.33,3.33,3.33,3.32,3.33,3.33,3.33,3.32,3.34,3.34,3.34,3.34,3.32,3.33,3.33,3.32,3.33,3.33,3.33,3.32,3.34,3.34,3.34,3.34,3.34,3.32,79.9,0.0,1.0,0.0,1.0,1.0,657910
1765219162969,0.0,0.0,1.0,10.0,0.0,0.0,0.0,0.0,0.0,0.0,-0.025742,0.007442,0.998692,-0.77,0.6300000000000001,0.0,3.33,3.33,3.33,3.32,3.33,3.33,3.33,3.32,3.34,3.34,3.34,3.34,3.32,3.33,3.33,3.32,3.33,3.33,3.33,3.32,3.34,3.34,3.34,3.34,3.34,3.32,79.9,0.0,1.0,0.0,1.0,1.0,657943
1765219162985,0.0,0.0,1.0,10.0,0.0,0.0,0.0,0.0,0.0,0.0,-0.025742,0.007442,0.998692,-0.6300000000000001,0.56,0.0,3.33,3.33,3.33,3.32,3.33,3.33,3.33,3.32,3.34,3.34,3.34,3.34,3.32,3.33,3.33,3.32,3.33,3.33,3.33,3.32,3.34,3.34,3.34,3.34,3.34,3.32,79.9,0.0,1.0,0.0,1.0,1.0,657959
1765219163002,0.0,0.0,1.0,10.0,0.0,0.0,0.0,0.0,0.0,0.0,-0.025742,0.007442,0.998692,-0.6300000000000001,0.56,0.0,3.33,3.33,3.33,3.32,3.33,3.33,3.33,3.32,3.34,3.34,3.34,3.34,3.32,3.33,3.33,3.32,3.33,3.33,3.33,3.32,3.34,3.34,3.34,3.34,3.34,3.32,79.9,0.0,1.0,0.0,1.0,1.0,657976
1765219163019,0.0,0.0,1.0,10.0,0.0,0.0,0.0,0.0,0.0,0.0,-0.025742,0.007442,0.998692,-0.6300000000000001,0.56,0.0,3.33,3.33,3.33,3.32,3.33,3.33,3.33,3.32,3.34,3.34,3.34,3.34,3.32,3.33,3.33,3.32,3.33,3.33,3.33,3.32,3.34,3.34,3.34,3.34,3.34,3.32,79.9,0.0,1.0,0.0,1.0,1.0,657993
1765219163053,0.0,0.0,1.0,10.0,0.0,0.0,0.0,0.0,0.0,0.0,-0.025742,0.007442,0.998692,-0.6300000000000001,0.56,0.0,3.33,3.33,3.33,3.32,3.33,3.33,3.33,3.32,3.34,3.34,3.34,3.34,3.32,3.33,3.33,3.32,3.33,3.33,3.33,3.32,3.34,3.34,3.34,3.34,3.34,3.32,79.9,0.0,1.0,0.0,1.0,1.0,658027
1765219163119,0.0,0.0,1.0,10.0,0.0,0.0,0.0,0.0,0.0,0.0,-0.025742,0.007442,0.998692,-0.6300000000000001,0.56,0.0,3.33,3.33,3.33,3.32,3.33,3.33,3.33,3.32,3.34,3.34,3.34,3.34,3.32,3.33,3.33,3.32,3.33,3.33,3.33,3.32,3.34,3.34,3.34,3.34,3.34,3.32,79.9,0.0,1.0,0.0,1.0,1.0,658093
1765219163187,0.0,0.0,1.0,10.0,0.0,0.0,0.0,0.0,0.0,0.0,-0.02623,0.005978,0.9864919999999999,-0.6300000000000001,0.49000000000000005,-0.07,3.33,3.33,3.33,3.32,3.33,3.33,3.33,3.32,3.34,3.34,3.34,3.34,3.32,3.33,3.33,3.32,3.33,3.33,3.33,3.32,3.34,3.34,3.34,3.34,3.34,3.32,79.9,0.0,1.0,0.0,1.0,1.0,658161
1765219163253,0.0,0.0,1.0,10.0,0.0,0.0,0.0,0.0,0.0,0.0,-0.028426,0.003294,0.99674,-0.6300000000000001,0.49000000000000005,-0.07,3.33,3.33,3.33,3.32,3.33,3.33,3.33,3.32,3.34,3.34,3.34,3.34,3.32,3.33,3.33,3.32,3.33,3.33,3.33,3.32,3.34,3.34,3.34,3.34,3.34,3.32,79.9,0.0,1.0,0.0,1.0,1.0,658227
1765219163269,0.0,0.0,1.0,10.0,0.0,0.0,0.0,0.0,0.0,0.0,-0.028426,0.003294,0.99674,-0.6300000000000001,0.49000000000000005,-0.07,3.33,3.33,3.33,3.32,3.33,3.33,3.33,3.32,3.34,3.34,3.34,3.34,3.32,3.33,3.33,3.32,3.33,3.33,3.33,3.32,3.34,3.34,3.34,3.34,3.34,3.32,79.9,0.0,1.0,0.0,1.0,1.0,658243
1765219163286,0.0,0.0,1.0,10.0,0.0,0.0,0.0,0.0,0.0,0.0,-0.028426,0.003294,0.99674,-0.6300000000000001,0.49000000000000005,-0.07,3.33,3.33,3.33,3.32,3.33,3.33,3.33,3.32,3.34,3.34,3.34,3.34,3.32,3.33,3.33,3.32,3.33,3.33,3.33,3.32,3.34,3.34,3.34,3.34,3.34,3.32,79.9,0.0,1.0,0.0,1.0,1.0,658260
1765219163302,0.0,0.0,1.0,10.0,0.0,0.0,0.0,0.0,0.0,0.0,-0.028426,0.003294,0.99674,-0.6300000000000001,0.49000000000000005,-0.07,3.33,3.33,3.33,3.32,3.33,3.33,3.33,3.32,3.34,3.34,3.34,3.34,3.32,3.33,3.33,3.32,3.33,3.33,3.33,3.32,3.34,3.34,3.34,3.34,3.34,3.32,79.9,0.0,1.0,0.0,1.0,1.0,658276
1765219163319,0.0,0.0,1.0,10.0,0.0,0.0,0.0,0.0,0.0,0.0,-0.028426,0.003294,0.99674,-0.56,0.35000000000000003,-0.07,3.33,3.33,3.33,3.32,3.33,3.33,3.33,3.32,3.34,3.34,3.34,3.34,3.32,3.33,3.33,3.32,3.33,3.33,3.33,3.32,3.34,3.34,3.34,3.34,3.34,3.32,79.9,0.0,1.0,0.0,1.0,1.0,658293
1765219163336,0.0,0.0,1.0,10.0,0.0,0.0,0.0,0.0,0.0,0.0,-0.028426,0.003294,0.99674,-0.56,0.35000000000000003,-0.07,3.33,3.33,3.33,3.32,3.33,3.33,3.33,3.32,3.34,3.34,3.34,3.34,3.32,3.33,3.33,3.32,3.33,3.33,3.33,3.32,3.34,3.34,3.34,3.34,3.34,3.32,79.9,0.0,1.0,0.0,1.0,1.0,658310
1765219163402,0.0,0.0,1.0,10.0,0.0,0.0,0.0,0.0,0.0,0.0,-0.028426,0.003294,0.99674,-0.56,0.35000000000000003,-0.07,3.33,3.33,3.33,3.32,3.33,3.33,3.33,3.32,3.34,3.34,3.34,3.34,3.32,3.33,3.33,3.32,3.33,3.33,3.33,3.32,3.34,3.34,3.34,3.34,3.34,3.32,79.9,0.0,1.0,0.0,1.0,1.0,658376
1765219163420,0.0,0.0,1.0,10.0,0.0,0.0,0.0,0.0,0.0,0.0,-0.028426,0.003294,0.99674,-0.56,0.35000000000000003,-0.07,3.33,3.33,3.33,3.32,3.33,3.33,3.33,3.32,3.34,3.34,3.34,3.34,3.32,3.33,3.33,3.32,3.33,3.33,3.33,3.32,3.34,3.34,3.34,3.34,3.34,3.32,79.9,0.0,1.0,0.0,1.0,1.0,658394
1765219163436,0.0,0.0,1.0,10.0,0.0,0.0,0.0,0.0,0.0,0.0,-0.028426,0.003294,0.99674,-0.56,0.35000000000000003,-0.07,3.33,3.33,3.33,3.32,3.33,3.33,3.33,3.32,3.34,3.34,3.34,3.34,3.32,3.33,3.33,3.32,3.33,3.33,3.33,3.32,3.34,3.34,3.34,3.34,3.34,3.32,79.9,0.0,1.0,0.0,1.0,1.0,658410
1765219163506,0.0,0.0,1.0,10.0,0.0,0.0,0.0,0.0,0.0,0.0,-0.019642,0.005856,0.991128,-0.56,0.35000000000000003,-0.07,3.33,3.33,3.33,3.32,3.33,3.33,3.33,3.32,3.34,3.34,3.34,3.34,3.32,3.33,3.33,3.32,3.33,3.33,3.33,3.32,3.34,3.34,3.34,3.34,3.34,3.32,79.9,0.0,1.0,0.0,1.0,1.0,658480
1765219163569,0.0,0.0,1.0,10.0,0.0,0.0,0.0,0.0,0.0,0.0,-0.019642,0.005856,0.991128,-0.6300000000000001,0.56,0.0,3.33,3.33,3.33,3.32,3.33,3.33,3.33,3.32,3.34,3.34,3.34,3.34,3.32,3.33,3.33,3.32,3.33,3.33,3.33,3.32,3.34,3.34,3.34,3.34,3.34,3.32,79.9,0.0,1.0,0.0,1.0,1.0,658543
1765219163602,0.0,0.0,1.0,10.0,0.0,0.0,0.0,0.0,0.0,0.0,-0.019642,0.005856,0.991128,-0.6300000000000001,0.56,0.0,3.33,3.33,3.33,3.32,3.33,3.33,3.33,3.32,3.34,3.34,3.34,3.34,3.32,3.33,3.33,3.32,3.33,3.33,3.33,3.32,3.34,3.34,3.34,3.34,3.34,3.32,79.9,0.0,1.0,0.0,1.0,1.0,658576
1765219163618,0.0,0.0,1.0,10.0,0.0,0.0,0.0,0.0,0.0,0.0,-0.019642,0.005856,0.991128,-0.6300000000000001,0.56,0.0,3.33,3.33,3.33,3.32,3.33,3.33,3.33,3.32,3.34,3.34,3.34,3.34,3.32,3.33,3.33,3.32,3.33,3.33,3.33,3.32,3.34,3.34,3.34,3.34,3.34,3.32,79.9,0.0,1.0,0.0,1.0,1.0,658592
1765219163638,0.0,0.0,1.0,10.0,0.0,0.0,0.0,0.0,0.0,0.0,-0.019642,0.005856,0.991128,-0.6300000000000001,0.56,0.0,3.33,3.33,3.33,3.32,3.33,3.33,3.33,3.32,3.34,3.34,3.34,3.34,3.32,3.33,3.33,3.32,3.33,3.33,3.33,3.32,3.34,3.34,3.34,3.34,3.34,3.32,79.9,0.0,1.0,0.0,1.0,1.0,658612
1765219163652,0.0,0.0,1.0,10.0,0.0,0.0,0.0,0.0,0.0,0.0,-0.019642,0.005856,0.991128,-0.6300000000000001,0.56,0.0,3.33,3.33,3.33,3.32,3.33,3.33,3.33,3.32,3.34,3.34,3.34,3.34,3.32,3.33,3.33,3.32,3.33,3.33,3.33,3.32,3.34,3.34,3.34,3.34,3.34,3.32,79.9,0.0,1.0,0.0,1.0,1.0,658626
1765219163669,0.0,0.0,1.0,10.0,0.0,0.0,0.0,0.0,0.0,0.0,-0.019642,0.005856,0.991128,-0.6300000000000001,0.56,0.0,3.33,3.33,3.33,3.32,3.33,3.33,3.33,3.32,3.34,3.34,3.34,3.34,3.32,3.33,3.33,3.32,3.33,3.33,3.33,3.32,3.34,3.34,3.34,3.34,3.34,3.32,79.9,0.0,1.0,0.0,1.0,1.0,658643
1765219163685,0.0,0.0,1.0,10.0,0.0,0.0,0.0,0.0,0.0,0.0,-0.019642,0.005856,0.991128,-0.6300000000000001,0.56,0.0,3.33,3.33,3.33,3.32,3.33,3.33,3.33,3.32,3.34,3.34,3.34,3.34,3.32,3.33,3.33,3.32,3.33,3.33,3.33,3.32,3.34,3.34,3.34,3.34,3.34,3.32,79.9,0.0,1.0,0.0,1.0,1.0,658659
1765219163703,0.0,0.0,1.0,10.0,0.0,0.0,0.0,0.0,0.0,0.0,-0.023912,0.0034159999999999998,0.9934459999999999,-0.6300000000000001,0.56,0.0,3.33,3.33,3.33,3.32,3.33,3.33,3.33,3.32,3.34,3.34,3.34,3.34,3.32,3.33,3.33,3.32,3.33,3.33,3.33,3.32,3.34,3.34,3.34,3.34,3.34,3.32,79.9,0.0,1.0,0.0,1.0,1.0,658677
1765219163718,0.0,0.0,1.0,10.0,0.0,0.0,0.0,0.0,0.0,0.0,-0.023912,0.0034159999999999998,0.9934459999999999,-0.6300000000000001,0.56,0.0,3.33,3.33,3.33,3.32,3.33,3.33,3.33,3.32,3.34,3.34,3.34,3.34,3.32,3.33,3.33,3.32,3.33,3.33,3.33,3.32,3.34,3.34,3.34,3.34,3.34,3.32,79.9,0.0,1.0,0.0,1.0,1.0,658692
1765219163736,0.0,0.0,1.0,10.0,0.0,0.0,0.0,0.0,0.0,0.0,-0.023912,0.0034159999999999998,0.9934459999999999,-0.6300000000000001,0.56,0.0,3.33,3.33,3.33,3.32,3.33,3.33,3.33,3.32,3.34,3.34,3.34,3.34,3.32,3.33,3.33,3.32,3.33,3.33,3.33,3.32,3.34,3.34,3.34,3.34,3.34,3.32,79.9,0.0,1.0,0.0,1.0,1.0,658710
1765219163751,0.0,0.0,1.0,10.0,0.0,0.0,0.0,0.0,0.0,0.0,-0.023912,0.0034159999999999998,0.9934459999999999,-0.6300000000000001,0.56,0.0,3.33,3.33,3.33,3.32,3.33,3.33,3.33,3.32,3.34,3.34,3.34,3.34,3.32,3.33,3.33,3.32,3.33,3.33,3.33,3.32,3.34,3.34,3.34,3.34,3.34,3.32,79.9,0.0,1.0,0.0,1.0,1.0,658725
1765219163785,0.0,0.0,1.0,10.0,0.0,0.0,0.0,0.0,0.0,0.0,-0.023912,0.0034159999999999998,0.9934459999999999,-0.6300000000000001,0.56,0.0,3.33,3.33,3.33,3.32,3.33,3.33,3.33,3.32,3.34,3.34,3.34,3.34,3.32,3.33,3.33,3.32,3.33,3.33,3.33,3.32,3.34,3.34,3.34,3.34,3.34,3.32,79.9,0.0,1.0,0.0,1.0,1.0,658759
1765219163803,0.0,0.0,1.0,10.0,0.0,0.0,0.0,0.0,0.0,0.0,-0.023912,0.0034159999999999998,0.9934459999999999,-0.7000000000000001,0.56,0.0,3.33,3.33,3.33,3.32,3.33,3.33,3.33,3.32,3.34,3.34,3.34,3.34,3.32,3.33,3.33,3.32,3.33,3.33,3.33,3.32,3.34,3.34,3.34,3.34,3.34,3.32,79.9,0.0,1.0,0.0,1.0,1.0,658777
1765219163836,0.0,0.0,1.0,10.0,0.0,0.0,0.0,0.0,0.0,0.0,-0.023912,0.0034159999999999998,0.9934459999999999,-0.7000000000000001,0.56,0.0,3.33,3.33,3.33,3.32,3.33,3.33,3.33,3.32,3.34,3.34,3.34,3.34,3.32,3.33,3.33,3.32,3.33,3.33,3.33,3.32,3.34,3.34,3.34,3.34,3.34,3.32,79.9,0.0,1.0,0.0,1.0,1.0,658810
1765219163918,0.0,0.0,1.0,10.0,0.0,0.0,0.0,0.0,0.0,0.0,-0.027206,0.00488,0.990274,-0.7000000000000001,0.56,0.0,3.33,3.33,3.33,3.32,3.33,3.33,3.33,3.32,3.34,3.34,3.34,3.34,3.32,3.33,3.33,3.32,3.33,3.33,3.33,3.32,3.34,3.34,3.34,3.34,3.34,3.32,79.9,0.0,1.0,0.0,1.0,1.0,658892
1765219163951,0.0,0.0,1.0,10.0,0.0,0.0,0.0,0.0,0.0,0.0,-0.027206,0.00488,0.990274,-0.6300000000000001,0.42000000000000004,-0.07,3.33,3.33,3.33,3.32,3.33,3.33,3.33,3.32,3.34,3.34,3.34,3.34,3.32,3.33,3.33,3.32,3.33,3.33,3.33,3.32,3.34,3.34,3.34,3.34,3.34,3.32,79.9,0.0,1.0,0.0,1.0,1.0,658925
1765219164052,0.0,0.0,1.0,10.0,0.0,0.0,0.0,0.0,0.0,0.0,-0.020496,0.0026839999999999998,0.989664,-0.6300000000000001,0.42000000000000004,-0.07,3.33,3.33,3.33,3.32,3.33,3.33,3.33,3.32,3.34,3.34,3.34,3.34,3.32,3.33,3.33,3.32,3.33,3.33,3.33,3.32,3.34,3.34,3.34,3.34,3.34,3.32,79.9,0.0,1.0,0.0,1.0,1.0,659026
1765219164069,0.0,0.0,1.0,10.0,0.0,0.0,0.0,0.0,0.0,0.0,-0.020496,0.0026839999999999998,0.989664,-0.7000000000000001,0.42000000000000004,-0.07,3.33,3.33,3.33,3.32,3.33,3.33,3.33,3.32,3.34,3.34,3.34,3.34,3.32,3.33,3.33,3.32,3.33,3.33,3.33,3.32,3.34,3.34,3.34,3.34,3.34,3.32,79.9,0.0,1.0,0.0,1.0,1.0,659043
1765219164104,0.0,0.0,1.0,10.0,0.0,0.0,0.0,0.0,0.0,0.0,-0.020496,0.0026839999999999998,0.989664,-0.7000000000000001,0.42000000000000004,-0.07,3.33,3.33,3.33,3.32,3.33,3.33,3.33,3.32,3.34,3.34,3.34,3.34,3.32,3.33,3.33,3.32,3.33,3.33,3.33,3.32,3.34,3.34,3.34,3.34,3.34,3.32,79.9,0.0,1.0,0.0,1.0,1.0,659078
1765219164120,0.0,0.0,1.0,10.0,0.0,0.0,0.0,0.0,0.0,0.0,-0.020496,0.0026839999999999998,0.989664,-0.7000000000000001,0.42000000000000004,-0.07,3.33,3.33,3.33,3.32,3.33,3.33,3.33,3.32,3.34,3.34,3.34,3.34,3.32,3.33,3.33,3.32,3.33,3.33,3.33,3.32,3.34,3.34,3.34,3.34,3.34,3.32,79.9,0.0,1.0,0.0,1.0,1.0,659094
1765219164138,0.0,0.0,1.0,10.0,0.0,0.0,0.0,0.0,0.0,0.0,-0.020496,0.0026839999999999998,0.989664,-0.7000000000000001,0.42000000000000004,-0.07,3.33,3.33,3.33,3.32,3.33,3.33,3.33,3.32,3.34,3.34,3.34,3.34,3.32,3.33,3.33,3.32,3.33,3.33,3.33,3.32,3.34,3.34,3.34,3.34,3.34,3.32,79.9,0.0,1.0,0.0,1.0,1.0,659112
1765219164171,0.0,0.0,1.0,10.0,0.0,0.0,0.0,0.0,0.0,0.0,-0.020496,0.0026839999999999998,0.989664,-0.7000000000000001,0.42000000000000004,-0.07,3.33,3.33,3.33,3.32,3.33,3.33,3.33,3.32,3.34,3.34,3.34,3.34,3.32,3.33,3.33,3.32,3.33,3.33,3.33,3.32,3.34,3.34,3.34,3.34,3.34,3.32,79.9,0.0,1.0,0.0,1.0,1.0,659145
1765219164219,0.0,0.0,1.0,10.0,0.0,0.0,0.0,0.0,0.0,0.0,-0.024644,-0.0017079999999999999,0.995032,-0.7000000000000001,0.42000000000000004,-0.07,3.33,3.33,3.33,3.32,3.33,3.33,3.33,3.32,3.34,3.34,3.34,3.34,3.32,3.33,3.33,3.32,3.33,3.33,3.33,3.32,3.34,3.34,3.34,3.34,3.34,3.32,79.9,0.0,1.0,0.0,1.0,1.0,659193
1765219164237,0.0,0.0,1.0,10.0,0.0,0.0,0.0,0.0,0.0,0.0,-0.024644,-0.0017079999999999999,0.995032,-0.7000000000000001,0.42000000000000004,-0.07,3.33,3.33,3.33,3.32,3.33,3.33,3.33,3.32,3.34,3.34,3.34,3.34,3.32,3.33,3.33,3.32,3.33,3.33,3.33,3.32,3.34,3.34,3.34,3.34,3.34,3.32,79.9,0.0,1.0,0.0,1.0,1.0,659211
1765219164286,0.0,0.0,1.0,10.0,0.0,0.0,0.0,0.0,0.0,0.0,-0.024644,-0.0017079999999999999,0.995032,-0.77,0.42000000000000004,0.07,3.33,3.33,3.33,3.32,3.33,3.33,3.33,3.32,3.34,3.34,3.34,3.34,3.32,3.33,3.33,3.32,3.33,3.33,3.33,3.32,3.34,3.34,3.34,3.34,3.34,3.32,79.9,0.0,1.0,0.0,1.0,1.0,659260
1765219164337,0.0,0.0,1.0,10.0,0.0,0.0,0.0,0.0,0.0,0.0,-0.0305,0.008173999999999999,0.996862,-0.77,0.42000000000000004,0.07,3.33,3.33,3.33,3.32,3.33,3.33,3.33,3.32,3.34,3.34,3.34,3.34,3.32,3.33,3.33,3.32,3.33,3.33,3.33,3.32,3.34,3.34,3.34,3.34,3.34,3.32,79.9,0.0,1.0,0.0,1.0,1.0,659311
1765219164371,0.0,0.0,1.0,10.0,0.0,0.0,0.0,0.0,0.0,0.0,-0.0305,0.008173999999999999,0.996862,-0.7000000000000001,0.42000000000000004,0.0,3.33,3.33,3.33,3.32,3.33,3.33,3.33,3.32,3.34,3.34,3.34,3.34,3.32,3.33,3.33,3.32,3.33,3.33,3.33,3.32,3.34,3.34,3.34,3.34,3.34,3.32,79.9,0.0,1.0,0.0,1.0,1.0,659345
1765219164386,0.0,0.0,1.0,10.0,0.0,0.0,0.0,0.0,0.0,0.0,-0.0305,0.008173999999999999,0.996862,-0.7000000000000001,0.42000000000000004,0.0,3.33,3.33,3.33,3.32,3.33,3.33,3.33,3.32,3.34,3.34,3.34,3.34,3.32,3.33,3.33,3.32,3.33,3.33,3.33,3.32,3.34,3.34,3.34,3.34,3.34,3.32,79.9,0.0,1.0,0.0,1.0,1.0,659360
1765219164420,0.0,0.0,1.0,10.0,0.0,0.0,0.0,0.0,0.0,0.0,-0.0305,0.008173999999999999,0.996862,-0.7000000000000001,0.42000000000000004,0.0,3.33,3.33,3.33,3.32,3.33,3.33,3.33,3.32,3.34,3.34,3.34,3.34,3.32,3.33,3.33,3.32,3.33,3.33,3.33,3.32,3.34,3.34,3.34,3.34,3.34,3.32,79.9,0.0,1.0,0.0,1.0,1.0,659394
1765219164437,0.0,0.0,1.0,10.0,0.0,0.0,0.0,0.0,0.0,0.0,-0.0305,0.008173999999999999,0.996862,-0.7000000000000001,0.42000000000000004,0.0,3.33,3.33,3.33,3.32,3.33,3.33,3.33,3.32,3.34,3.34,3.34,3.34,3.32,3.33,3.33,3.32,3.33,3.33,3.33,3.32,3.34,3.34,3.34,3.34,3.34,3.32,79.9,0.0,1.0,0.0,1.0,1.0,659411
1765219164454,0.0,0.0,1.0,10.0,0.0,0.0,0.0,0.0,0.0,0.0,-0.0305,0.008173999999999999,0.996862,-0.7000000000000001,0.42000000000000004,0.0,3.33,3.33,3.33,3.32,3.33,3.33,3.33,3.32,3.34,3.34,3.34,3.34,3.32,3.33,3.33,3.32,3.33,3.33,3.33,3.32,3.34,3.34,3.34,3.34,3.34,3.32,79.9,0.0,1.0,0.0,1.0,1.0,659428
1765219164487,0.0,0.0,1.0,10.0,0.0,0.0,0.0,0.0,0.0,0.0,-0.0305,0.008173999999999999,0.996862,-0.7000000000000001,0.42000000000000004,0.0,3.33,3.33,3.33,3.32,3.33,3.33,3.33,3.32,3.34,3.34,3.34,3.34,3.32,3.33,3.33,3.32,3.33,3.33,3.33,3.32,3.34,3.34,3.34,3.34,3.34,3.32,79.9,1.0,1.0,0.0,1.0,1.0,659461
1765219164555,0.0,0.0,1.0,10.0,0.0,0.0,0.0,0.0,0.0,0.0,-0.0305,0.008173999999999999,0.996862,-0.7000000000000001,0.42000000000000004,0.0,3.33,3.33,3.33,3.32,3.33,3.33,3.33,3.32,3.34,3.34,3.34,3.34,3.32,3.33,3.33,3.32,3.33,3.33,3.33,3.32,3.34,3.34,3.34,3.34,3.34,3.32,79.9,1.0,1.0,0.0,1.0,1.0,659529
1765219164619,0.0,0.0,1.0,10.0,0.0,0.0,0.0,0.0,0.0,0.0,-0.030378,0.005124,0.994788,-0.7000000000000001,0.42000000000000004,0.0,3.33,3.33,3.33,3.32,3.33,3.33,3.33,3.32,3.34,3.34,3.34,3.34,3.32,3.33,3.33,3.32,3.33,3.33,3.33,3.32,3.34,3.34,3.34,3.34,3.34,3.32,79.9,1.0,1.0,0.0,1.0,1.0,659593
1765219164651,0.0,0.0,1.0,10.0,0.0,0.0,0.0,0.0,0.0,0.0,-0.030378,0.005124,0.994788,-0.7000000000000001,0.42000000000000004,0.0,3.33,3.33,3.33,3.32,3.33,3.33,3.33,3.32,3.34,3.34,3.34,3.34,3.32,3.33,3.33,3.32,3.33,3.33,3.33,3.32,3.34,3.34,3.34,3.34,3.34,3.32,79.9,0.0,1.0,0.0,1.0,1.0,659625
1765219164669,0.0,0.0,1.0,10.0,0.0,0.0,0.0,0.0,0.0,0.0,-0.030378,0.005124,0.994788,-0.7000000000000001,0.42000000000000004,0.0,3.33,3.33,3.33,3.32,3.33,3.33,3.33,3.32,3.34,3.34,3.34,3.34,3.32,3.33,3.33,3.32,3.33,3.33,3.33,3.32,3.34,3.34,3.34,3.34,3.34,3.32,79.9,0.0,1.0,0.0,1.0,1.0,659643
1765219164737,0.0,0.0,1.0,10.0,0.0,0.0,0.0,0.0,0.0,0.0,-0.021594,0.010614,0.980758,-0.77,0.42000000000000004,-0.07,3.33,3.33,3.33,3.32,3.33,3.33,3.33,3.32,3.34,3.34,3.34,3.34,3.32,3.33,3.33,3.32,3.33,3.33,3.33,3.32,3.34,3.34,3.34,3.34,3.34,3.32,79.9,0.0,1.0,0.0,1.0,1.0,659711
1765219164803,0.0,0.0,1.0,10.0,0.0,0.0,0.0,0.0,0.0,0.0,-0.021594,0.010614,0.980758,-0.77,0.42000000000000004,-0.07,3.33,3.33,3.33,3.32,3.33,3.33,3.33,3.32,3.34,3.34,3.34,3.34,3.32,3.33,3.33,3.32,3.33,3.33,3.33,3.32,3.34,3.34,3.34,3.34,3.34,3.32,79.9,0.0,1.0,0.0,1.0,1.0,659777
1765219164836,0.0,0.0,1.0,10.0,0.0,0.0,0.0,0.0,0.0,0.0,-0.021594,0.010614,0.980758,-0.77,0.42000000000000004,-0.07,3.33,3.33,3.33,3.32,3.33,3.33,3.33,3.32,3.34,3.34,3.34,3.34,3.32,3.33,3.33,3.32,3.33,3.33,3.33,3.32,3.34,3.34,3.34,3.34,3.34,3.32,79.9,0.0,1.0,0.0,1.0,1.0,659810
1765219164852,0.0,0.0,1.0,10.0,0.0,0.0,0.0,0.0,0.0,0.0,-0.017811999999999998,0.00244,1.002962,-0.77,0.42000000000000004,-0.07,3.33,3.33,3.33,3.32,3.33,3.33,3.33,3.32,3.34,3.34,3.34,3.34,3.32,3.33,3.33,3.32,3.33,3.33,3.33,3.32,3.34,3.34,3.34,3.34,3.34,3.32,79.9,0.0,1.0,0.0,1.0,1.0,659826
1765219164870,0.0,0.0,1.0,10.0,0.0,0.0,0.0,0.0,0.0,0.0,-0.017811999999999998,0.00244,1.002962,-0.77,0.42000000000000004,-0.07,3.33,3.33,3.33,3.32,3.33,3.33,3.33,3.32,3.34,3.34,3.34,3.34,3.32,3.33,3.33,3.32,3.33,3.33,3.33,3.32,3.34,3.34,3.34,3.34,3.34,3.32,79.9,0.0,1.0,0.0,1.0,1.0,659844
1765219164919,0.0,0.0,1.0,10.0,0.0,0.0,0.0,0.0,0.0,0.0,-0.017811999999999998,0.00244,1.002962,-0.6300000000000001,0.49000000000000005,-0.07,3.33,3.33,3.33,3.32,3.33,3.33,3.33,3.32,3.34,3.34,3.34,3.34,3.32,3.33,3.33,3.32,3.33,3.33,3.33,3.32,3.34,3.34,3.34,3.34,3.34,3.32,79.9,0.0,1.0,0.0,1.0,1.0,659893
1765219164936,0.0,0.0,1.0,10.0,0.0,0.0,0.0,0.0,0.0,0.0,-0.017811999999999998,0.00244,1.002962,-0.6300000000000001,0.49000000000000005,-0.07,3.33,3.33,3.33,3.32,3.33,3.33,3.33,3.32,3.34,3.34,3.34,3.34,3.32,3.33,3.33,3.32,3.33,3.33,3.33,3.32,3.34,3.34,3.34,3.34,3.34,3.32,79.9,0.0,1.0,0.0,1.0,1.0,659910
1765219165037,0.0,0.0,1.0,10.0,0.0,0.0,0.0,0.0,0.0,0.0,-0.024644,-0.000122,0.996252,-0.6300000000000001,0.49000000000000005,-0.07,3.33,3.33,3.33,3.32,3.33,3.33,3.33,3.32,3.34,3.34,3.34,3.34,3.32,3.33,3.33,3.32,3.33,3.33,3.33,3.32,3.34,3.34,3.34,3.34,3.34,3.32,79.9,0.0,1.0,0.0,1.0,1.0,660011
1765219165052,0.0,0.0,1.0,10.0,0.0,0.0,0.0,0.0,0.0,0.0,-0.024644,-0.000122,0.996252,-0.8400000000000001,0.49000000000000005,0.0,3.33,3.33,3.33,3.32,3.33,3.33,3.33,3.32,3.34,3.34,3.34,3.34,3.32,3.33,3.33,3.32,3.33,3.33,3.33,3.32,3.34,3.34,3.34,3.34,3.34,3.32,79.9,0.0,1.0,0.0,1.0,1.0,660026
1765219165087,0.0,0.0,1.0,10.0,0.0,0.0,0.0,0.0,0.0,0.0,-0.024644,-0.000122,0.996252,-0.8400000000000001,0.49000000000000005,0.0,3.33,3.33,3.33,3.32,3.33,3.33,3.33,3.32,3.34,3.34,3.34,3.34,3.32,3.33,3.33,3.32,3.33,3.33,3.33,3.32,3.34,3.34,3.34,3.34,3.34,3.32,79.9,0.0,1.0,0.0,1.0,1.0,660061
1765219165103,0.0,0.0,1.0,10.0,0.0,0.0,0.0,0.0,0.0,0.0,-0.024644,-0.000122,0.996252,-0.8400000000000001,0.49000000000000005,0.0,3.33,3.33,3.33,3.32,3.33,3.33,3.33,3.32,3.34,3.34,3.34,3.34,3.32,3.33,3.33,3.32,3.33,3.33,3.33,3.32,3.34,3.34,3.34,3.34,3.34,3.32,79.9,0.0,1.0,0.0,1.0,1.0,660077
1765219165119,0.0,0.0,1.0,10.0,0.0,0.0,0.0,0.0,0.0,0.0,-0.024644,-0.000122,0.996252,-0.8400000000000001,0.49000000000000005,0.0,3.33,3.33,3.33,3.32,3.33,3.33,3.33,3.32,3.34,3.34,3.34,3.34,3.32,3.33,3.33,3.32,3.33,3.33,3.33,3.32,3.34,3.34,3.34,3.34,3.34,3.32,79.9,0.0,1.0,0.0,1.0,1.0,660093
1765219165153,0.0,0.0,1.0,10.0,0.0,0.0,0.0,0.0,0.0,0.0,-0.024644,-0.000122,0.996252,-0.8400000000000001,0.49000000000000005,0.0,3.33,3.33,3.33,3.32,3.33,3.33,3.33,3.32,3.34,3.34,3.34,3.34,3.32,3.33,3.33,3.32,3.33,3.33,3.33,3.32,3.34,3.34,3.34,3.34,3.34,3.32,79.9,0.0,1.0,0.0,1.0,1.0,660127
1765219165170,0.0,0.0,1.0,10.0,0.0,0.0,0.0,0.0,0.0,0.0,-0.024644,-0.000122,0.996252,-0.8400000000000001,0.49000000000000005,0.0,3.33,3.33,3.33,3.32,3.33,3.33,3.33,3.32,3.34,3.34,3.34,3.34,3.32,3.33,3.33,3.32,3.33,3.33,3.33,3.32,3.34,3.34,3.34,3.34,3.34,3.32,79.9,0.0,1.0,0.0,1.0,1.0,660144
1765219165187,0.0,0.0,1.0,10.0,0.0,0.0,0.0,0.0,0.0,0.0,-0.024644,-0.000122,0.996252,-0.8400000000000001,0.49000000000000005,0.0,3.33,3.33,3.33,3.32,3.33,3.33,3.33,3.32,3.34,3.34,3.34,3.34,3.32,3.33,3.33,3.32,3.33,3.33,3.33,3.32,3.34,3.34,3.34,3.34,3.34,3.32,79.9,0.0,1.0,0.0,1.0,1.0,660161
1765219165220,0.0,0.0,1.0,10.0,0.0,0.0,0.0,0.0,0.0,0.0,-0.024644,-0.000122,0.996252,-0.8400000000000001,0.49000000000000005,0.0,3.33,3.33,3.33,3.32,3.33,3.33,3.33,3.32,3.34,3.34,3.34,3.34,3.32,3.33,3.33,3.32,3.33,3.33,3.33,3.32,3.34,3.34,3.34,3.34,3.34,3.32,79.9,0.0,1.0,0.0,1.0,1.0,660194
1765219165236,0.0,0.0,1.0,10.0,0.0,0.0,0.0,0.0,0.0,0.0,-0.024644,-0.000122,0.996252,-0.8400000000000001,0.49000000000000005,0.0,3.33,3.33,3.33,3.32,3.33,3.33,3.33,3.32,3.34,3.34,3.34,3.34,3.32,3.33,3.33,3.32,3.33,3.33,3.33,3.32,3.34,3.34,3.34,3.34,3.34,3.32,79.9,0.0,1.0,0.0,1.0,1.0,660210
1765219165253,0.0,0.0,1.0,10.0,0.0,0.0,0.0,0.0,0.0,0.0,-0.024644,-0.000122,0.996252,-0.8400000000000001,0.49000000000000005,0.0,3.33,3.33,3.33,3.32,3.33,3.33,3.33,3.32,3.34,3.34,3.34,3.34,3.32,3.33,3.33,3.32,3.33,3.33,3.33,3.32,3.34,3.34,3.34,3.34,3.34,3.32,79.9,0.0,1.0,0.0,1.0,1.0,660227
1765219165270,0.0,0.0,1.0,10.0,0.0,0.0,0.0,0.0,0.0,0.0,-0.024644,-0.000122,0.996252,-0.8400000000000001,0.49000000000000005,0.0,3.33,3.33,3.33,3.32,3.33,3.33,3.33,3.32,3.34,3.34,3.34,3.34,3.32,3.33,3.33,3.32,3.33,3.33,3.33,3.32,3.34,3.34,3.34,3.34,3.34,3.32,79.9,0.0,1.0,0.0,1.0,1.0,660244
1765219165319,0.0,0.0,1.0,10.0,0.0,0.0,0.0,0.0,0.0,0.0,-0.024644,-0.000122,0.996252,-0.8400000000000001,0.49000000000000005,0.0,3.33,3.33,3.33,3.32,3.33,3.33,3.33,3.32,3.34,3.34,3.34,3.34,3.32,3.33,3.33,3.32,3.33,3.33,3.33,3.32,3.34,3.34,3.34,3.34,3.34,3.32,79.9,0.0,1.0,0.0,1.0,1.0,660293
1765219165336,0.0,0.0,1.0,10.0,0.0,0.0,0.0,0.0,0.0,0.0,-0.024644,-0.000122,0.996252,-0.8400000000000001,0.49000000000000005,0.0,3.33,3.33,3.33,3.32,3.33,3.33,3.33,3.32,3.34,3.34,3.34,3.34,3.32,3.33,3.33,3.32,3.33,3.33,3.33,3.32,3.34,3.34,3.34,3.34,3.34,3.32,79.9,0.0,1.0,0.0,1.0,1.0,660310
1765219165369,0.0,0.0,1.0,10.0,0.0,0.0,0.0,0.0,0.0,0.0,-0.024644,-0.000122,0.996252,-0.8400000000000001,0.49000000000000005,0.0,3.33,3.33,3.33,3.32,3.33,3.33,3.33,3.32,3.34,3.34,3.34,3.34,3.32,3.33,3.33,3.32,3.33,3.33,3.33,3.32,3.34,3.34,3.34,3.34,3.34,3.32,79.9,0.0,1.0,0.0,1.0,1.0,660343
1765219165385,0.0,0.0,1.0,10.0,0.0,0.0,0.0,0.0,0.0,0.0,-0.024644,-0.000122,0.996252,-0.8400000000000001,0.49000000000000005,0.0,3.33,3.33,3.33,3.32,3.33,3.33,3.33,3.32,3.34,3.34,3.34,3.34,3.32,3.33,3.33,3.32,3.33,3.33,3.33,3.32,3.34,3.34,3.34,3.34,3.34,3.32,79.9,0.0,1.0,0.0,1.0,1.0,660359
1765219165419,0.0,0.0,1.0,10.0,0.0,0.0,0.0,0.0,0.0,0.0,-0.024644,-0.000122,0.996252,-0.8400000000000001,0.49000000000000005,0.0,3.33,3.33,3.33,3.32,3.33,3.33,3.33,3.32,3.34,3.34,3.34,3.34,3.32,3.33,3.33,3.32,3.33,3.33,3.33,3.32,3.34,3.34,3.34,3.34,3.34,3.32,79.9,0.0,1.0,0.0,1.0,1.0,660393
1765219165436,0.0,0.0,1.0,10.0,0.0,0.0,0.0,0.0,0.0,0.0,-0.024644,-0.000122,0.996252,-0.8400000000000001,0.49000000000000005,0.0,3.33,3.33,3.33,3.32,3.33,3.33,3.33,3.32,3.34,3.34,3.34,3.34,3.32,3.33,3.33,3.32,3.33,3.33,3.33,3.32,3.34,3.34,3.34,3.34,3.34,3.32,79.9,0.0,1.0,0.0,1.0,1.0,660410
1765219165453,0.0,0.0,1.0,10.0,0.0,0.0,0.0,0.0,0.0,0.0,-0.024644,-0.000122,0.996252,-0.8400000000000001,0.49000000000000005,0.0,3.33,3.33,3.33,3.32,3.33,3.33,3.33,3.32,3.34,3.34,3.34,3.34,3.32,3.33,3.33,3.32,3.33,3.33,3.33,3.32,3.34,3.34,3.34,3.34,3.34,3.32,79.9,0.0,1.0,0.0,1.0,1.0,660427
1765219165470,0.0,0.0,1.0,10.0,0.0,0.0,0.0,0.0,0.0,0.0,-0.024644,0.00366,0.990274,-0.56,0.21000000000000002,0.0,3.33,3.33,3.33,3.32,3.33,3.33,3.33,3.32,3.34,3.34,3.34,3.34,3.32,3.33,3.33,3.32,3.33,3.33,3.33,3.32,3.34,3.34,3.34,3.34,3.34,3.32,79.9,0.0,1.0,0.0,1.0,1.0,660444
1765219165538,0.0,0.0,1.0,10.0,0.0,0.0,0.0,0.0,0.0,0.0,-0.024644,0.00366,0.990274,-0.56,0.21000000000000002,0.0,3.33,3.33,3.33,3.32,3.33,3.33,3.33,3.32,3.34,3.34,3.34,3.34,3.32,3.33,3.33,3.32,3.33,3.33,3.33,3.32,3.34,3.34,3.34,3.34,3.34,3.32,79.9,0.0,1.0,0.0,1.0,1.0,660512
1765219165554,0.0,0.0,1.0,10.0,0.0,0.0,0.0,0.0,0.0,0.0,-0.024644,0.00366,0.990274,-0.56,0.21000000000000002,0.0,3.33,3.33,3.33,3.32,3.33,3.33,3.33,3.32,3.34,3.34,3.34,3.34,3.32,3.33,3.33,3.32,3.33,3.33,3.33,3.32,3.34,3.34,3.34,3.34,3.34,3.32,79.9,0.0,1.0,0.0,1.0,1.0,660528
1765219165572,0.0,0.0,1.0,10.0,0.0,0.0,0.0,0.0,0.0,0.0,-0.024644,0.00366,0.990274,-0.56,0.21000000000000002,0.0,3.33,3.33,3.33,3.32,3.33,3.33,3.33,3.32,3.34,3.34,3.34,3.34,3.32,3.33,3.33,3.32,3.33,3.33,3.33,3.32,3.34,3.34,3.34,3.34,3.34,3.32,79.9,0.0,1.0,0.0,1.0,1.0,660546
1765219165605,0.0,0.0,1.0,10.0,0.0,0.0,0.0,0.0,0.0,0.0,-0.020739999999999998,0.0046359999999999995,0.9977159999999999,-0.56,0.21000000000000002,0.0,3.33,3.33,3.33,3.32,3.33,3.33,3.33,3.32,3.34,3.34,3.34,3.34,3.32,3.33,3.33,3.32,3.33,3.33,3.33,3.32,3.34,3.34,3.34,3.34,3.34,3.32,79.9,0.0,1.0,0.0,1.0,1.0,660579
1765219165669,0.0,0.0,1.0,10.0,0.0,0.0,0.0,0.0,0.0,0.0,-0.020739999999999998,0.0046359999999999995,0.9977159999999999,-0.6300000000000001,0.7000000000000001,-0.14,3.33,3.33,3.33,3.32,3.33,3.33,3.33,3.32,3.34,3.34,3.34,3.34,3.32,3.33,3.33,3.32,3.33,3.33,3.33,3.32,3.34,3.34,3.34,3.34,3.34,3.32,79.9,0.0,1.0,0.0,1.0,1.0,660643
1765219165769,0.0,0.0,1.0,10.0,0.0,0.0,0.0,0.0,0.0,0.0,-0.024522,0.004026,0.9943,-0.8400000000000001,0.49000000000000005,-0.07,3.33,3.33,3.33,3.32,3.33,3.33,3.33,3.32,3.34,3.34,3.34,3.34,3.32,3.33,3.33,3.32,3.33,3.33,3.33,3.32,3.34,3.34,3.34,3.34,3.34,3.32,79.9,0.0,1.0,0.0,1.0,1.0,660743
1765219165820,176.0,0.0,1.0,10.0,0.0,0.0,0.0,0.0,0.0,0.0,-0.024522,0.004026,0.9943,-0.8400000000000001,0.49000000000000005,-0.07,3.33,3.33,3.33,3.32,3.33,3.33,3.33,3.32,3.34,3.34,3.34,3.34,3.32,3.33,3.33,3.32,3.33,3.33,3.33,3.32,3.34,3.34,3.34,3.34,3.34,3.32,79.9,0.0,1.0,0.0,1.0,1.0,660794
1765219165837,176.0,0.0,1.0,10.0,0.0,0.0,0.0,0.0,0.0,0.0,-0.024522,0.004026,0.9943,-0.8400000000000001,0.49000000000000005,-0.07,3.33,3.33,3.33,3.32,3.33,3.33,3.33,3.32,3.34,3.34,3.34,3.34,3.32,3.33,3.33,3.32,3.33,3.33,3.33,3.32,3.34,3.34,3.34,3.34,3.34,3.32,79.9,0.0,1.0,0.0,1.0,1.0,660811
1765219165853,176.0,0.0,1.0,10.0,149.0,149.0,0.0,0.0,0.0,0.0,-0.024522,0.004026,0.9943,-0.8400000000000001,0.49000000000000005,-0.07,3.33,3.33,3.33,3.32,3.33,3.33,3.33,3.32,3.34,3.34,3.34,3.34,3.32,3.33,3.33,3.32,3.33,3.33,3.33,3.32,3.34,3.34,3.34,3.34,3.34,3.32,79.9,0.0,1.0,0.0,1.0,1.0,660827
1765219165887,176.0,0.0,1.0,10.0,149.0,149.0,0.0,0.0,0.0,0.0,-0.024522,0.004026,0.9943,-0.8400000000000001,0.49000000000000005,-0.07,3.33,3.33,3.33,3.32,3.33,3.33,3.33,3.32,3.34,3.34,3.34,3.34,3.32,3.33,3.33,3.32,3.33,3.33,3.33,3.32,3.34,3.34,3.34,3.34,3.34,3.32,79.9,0.0,1.0,0.0,1.0,1.0,660861
1765219165921,678.0,0.0,1.0,10.0,149.0,149.0,0.0,0.0,0.0,0.0,-0.024522,0.004026,0.9943,-0.8400000000000001,0.49000000000000005,-0.07,3.33,3.33,3.33,3.32,3.33,3.33,3.33,3.32,3.34,3.34,3.34,3.34,3.32,3.33,3.33,3.32,3.33,3.33,3.33,3.32,3.34,3.34,3.34,3.34,3.34,3.32,79.9,0.0,1.0,0.0,1.0,1.0,660895
1765219165937,678.0,0.0,1.0,10.0,149.0,149.0,0.0,0.0,0.0,0.0,-0.024522,0.004026,0.9943,-0.8400000000000001,0.49000000000000005,-0.07,3.33,3.33,3.33,3.32,3.33,3.33,3.33,3.32,3.34,3.34,3.34,3.34,3.32,3.33,3.33,3.32,3.33,3.33,3.33,3.32,3.34,3.34,3.34,3.34,3.34,3.32,79.9,0.0,1.0,0.0,1.0,1.0,660911
1765219165955,678.0,0.0,1.0,10.0,149.0,149.0,0.0,0.0,0.0,0.0,-0.024522,0.004026,0.9943,-0.77,0.35000000000000003,0.0,3.33,3.33,3.33,3.32,3.33,3.33,3.33,3.32,3.34,3.34,3.34,3.34,3.32,3.33,3.33,3.32,3.33,3.33,3.33,3.32,3.34,3.34,3.34,3.34,3.34,3.32,79.9,0.0,1.0,0.0,1.0,1.0,660929
1765219165970,678.0,0.0,1.0,10.0,678.0,678.0,0.0,0.0,0.0,0.0,-0.024522,0.004026,0.9943,-0.77,0.35000000000000003,0.0,3.33,3.33,3.33,3.32,3.33,3.33,3.33,3.32,3.34,3.34,3.34,3.34,3.32,3.33,3.33,3.32,3.33,3.33,3.33,3.32,3.34,3.34,3.34,3.34,3.34,3.32,79.9,0.0,1.0,0.0,1.0,1.0,660944
1765219165985,678.0,0.0,1.0,10.0,678.0,678.0,0.0,0.0,0.0,0.0,-0.024522,0.004026,0.9943,-0.77,0.35000000000000003,0.0,3.33,3.33,3.33,3.32,3.33,3.33,3.33,3.32,3.34,3.34,3.34,3.34,3.32,3.33,3.33,3.32,3.33,3.33,3.33,3.32,3.34,3.34,3.34,3.34,3.34,3.32,79.9,0.0,1.0,0.0,1.0,1.0,660959
1765219166004,678.0,0.0,1.0,10.0,678.0,678.0,0.0,0.0,0.0,0.0,-0.024522,0.004026,0.9943,-0.77,0.35000000000000003,0.0,3.33,3.33,3.33,3.32,3.33,3.33,3.33,3.32,3.34,3.34,3.34,3.34,3.32,3.33,3.33,3.32,3.33,3.33,3.33,3.32,3.34,3.34,3.34,3.34,3.34,3.32,79.9,0.0,1.0,0.0,1.0,1.0,660978
1765219166070,678.0,0.0,1.0,10.0,678.0,678.0,0.0,0.0,0.0,0.0,-0.024522,0.004026,0.9943,-0.77,0.35000000000000003,0.0,3.33,3.33,3.33,3.32,3.33,3.33,3.33,3.32,3.34,3.34,3.34,3.34,3.32,3.33,3.33,3.32,3.33,3.33,3.33,3.32,3.34,3.34,3.34,3.34,3.34,3.32,79.9,0.0,1.0,0.0,1.0,1.0,661044
1765219166137,678.0,0.0,1.0,10.0,678.0,678.0,0.0,0.0,0.0,0.0,-0.030255999999999998,0.006344,0.996618,-0.77,0.35000000000000003,0.0,3.33,3.33,3.33,3.32,3.33,3.33,3.33,3.32,3.34,3.34,3.34,3.34,3.32,3.33,3.33,3.32,3.33,3.33,3.33,3.32,3.34,3.34,3.34,3.34,3.34,3.32,79.9,0.0,1.0,0.0,1.0,1.0,661111
1765219166154,678.0,0.0,1.0,10.0,678.0,678.0,0.0,0.0,0.0,0.0,-0.030255999999999998,0.006344,0.996618,-0.77,0.49000000000000005,-0.07,3.33,3.33,3.33,3.32,3.33,3.33,3.33,3.32,3.34,3.34,3.34,3.34,3.32,3.33,3.33,3.32,3.33,3.33,3.33,3.32,3.34,3.34,3.34,3.34,3.34,3.32,79.9,0.0,1.0,0.0,1.0,1.0,661128
1765219166170,678.0,0.0,1.0,10.0,678.0,678.0,0.0,0.0,0.0,0.0,-0.030255999999999998,0.006344,0.996618,-0.77,0.49000000000000005,-0.07,3.33,3.33,3.33,3.32,3.33,3.33,3.33,3.32,3.34,3.34,3.34,3.34,3.32,3.33,3.33,3.32,3.33,3.33,3.33,3.32,3.34,3.34,3.34,3.34,3.34,3.32,79.9,0.0,1.0,0.0,1.0,1.0,661144
1765219166187,678.0,0.0,1.0,10.0,678.0,678.0,0.0,0.0,0.0,0.0,-0.030255999999999998,0.006344,0.996618,-0.77,0.49000000000000005,-0.07,3.33,3.33,3.33,3.32,3.33,3.33,3.33,3.32,3.34,3.34,3.34,3.34,3.32,3.33,3.33,3.32,3.33,3.33,3.33,3.32,3.34,3.34,3.34,3.34,3.34,3.32,79.9,0.0,1.0,0.0,1.0,1.0,661161
1765219166238,836.0,0.0,1.0,10.0,678.0,678.0,0.0,0.0,0.0,0.0,-0.030255999999999998,0.006344,0.996618,-0.77,0.49000000000000005,-0.07,3.33,3.33,3.33,3.32,3.33,3.33,3.33,3.32,3.34,3.34,3.34,3.34,3.32,3.33,3.33,3.32,3.33,3.33,3.33,3.32,3.34,3.34,3.34,3.34,3.34,3.32,79.9,0.0,1.0,0.0,1.0,1.0,661212
1765219166255,836.0,0.0,1.0,10.0,709.0,709.0,0.0,0.0,0.0,0.0,-0.030255999999999998,0.006344,0.996618,-0.77,0.49000000000000005,-0.07,3.33,3.33,3.33,3.32,3.33,3.33,3.33,3.32,3.34,3.34,3.34,3.34,3.32,3.33,3.33,3.32,3.33,3.33,3.33,3.32,3.34,3.34,3.34,3.34,3.34,3.32,79.9,0.0,1.0,0.0,1.0,1.0,661229
1765219166272,836.0,0.0,1.0,10.0,709.0,709.0,0.0,0.0,0.0,0.011040128571428571,-0.030255999999999998,0.006344,0.996618,-0.77,0.49000000000000005,-0.07,3.33,3.33,3.33,3.32,3.33,3.33,3.33,3.32,3.34,3.34,3.34,3.34,3.32,3.33,3.33,3.32,3.33,3.33,3.33,3.32,3.34,3.34,3.34,3.34,3.34,3.32,79.9,0.0,1.0,0.0,1.0,1.0,661246
1765219166287,836.0,0.0,1.0,10.0,709.0,709.0,0.0,0.0,0.0,0.011040128571428571,-0.024399999999999998,0.00366,0.99064,-0.77,0.49000000000000005,-0.07,3.33,3.33,3.33,3.32,3.33,3.33,3.33,3.32,3.34,3.34,3.34,3.34,3.32,3.33,3.33,3.32,3.33,3.33,3.33,3.32,3.34,3.34,3.34,3.34,3.34,3.32,79.9,0.0,1.0,0.0,1.0,1.0,661261
1765219166321,836.0,0.0,1.0,10.0,709.0,709.0,0.0,0.0,0.0,0.011040128571428571,-0.024399999999999998,0.00366,0.99064,-0.77,0.49000000000000005,-0.07,3.33,3.33,3.33,3.32,3.33,3.33,3.33,3.32,3.34,3.34,3.34,3.34,3.32,3.33,3.33,3.32,3.33,3.33,3.33,3.32,3.34,3.34,3.34,3.34,3.34,3.32,79.9,0.0,1.0,0.0,1.0,1.0,661295
1765219166353,836.0,0.0,1.0,10.0,709.0,709.0,0.0,0.0,0.0,0.011040128571428571,-0.024399999999999998,0.00366,0.99064,-0.8400000000000001,0.49000000000000005,-0.07,3.33,3.33,3.33,3.32,3.33,3.33,3.33,3.32,3.34,3.34,3.34,3.34,3.32,3.33,3.33,3.32,3.33,3.33,3.33,3.32,3.34,3.34,3.34,3.34,3.34,3.32,79.9,0.0,1.0,0.0,1.0,1.0,661327
1765219166370,836.0,0.0,1.0,10.0,709.0,709.0,0.0,0.011040128571428571,0.0,0.011040128571428571,-0.024399999999999998,0.00366,0.99064,-0.8400000000000001,0.49000000000000005,-0.07,3.33,3.33,3.33,3.32,3.33,3.33,3.33,3.32,3.34,3.34,3.34,3.34,3.32,3.33,3.33,3.32,3.33,3.33,3.33,3.32,3.34,3.34,3.34,3.34,3.34,3.32,79.9,0.0,1.0,0.0,1.0,1.0,661344
1765219166470,836.0,0.0,1.0,10.0,709.0,709.0,0.0,0.011040128571428571,0.0,0.011040128571428571,-0.024156,0.00488,0.994422,-0.8400000000000001,0.49000000000000005,-0.07,3.33,3.33,3.33,3.32,3.33,3.33,3.33,3.32,3.34,3.34,3.34,3.34,3.32,3.33,3.33,3.32,3.33,3.33,3.33,3.32,3.34,3.34,3.34,3.34,3.34,3.32,79.9,0.0,1.0,0.0,1.0,1.0,661444
1765219166486,836.0,0.0,1.0,10.0,709.0,709.0,0.0,0.011040128571428571,0.0,0.011040128571428571,-0.024156,0.00488,0.994422,-0.7000000000000001,0.35000000000000003,0.0,3.33,3.33,3.33,3.32,3.33,3.33,3.33,3.32,3.34,3.34,3.34,3.34,3.32,3.33,3.33,3.32,3.33,3.33,3.33,3.32,3.34,3.34,3.34,3.34,3.34,3.32,79.9,0.0,1.0,0.0,1.0,1.0,661460
