timestamp,THROTTLE,BRAKE,ECU_MODE_ID,TORQUE_GAIN,TORQUE_REF_LEFT_MOTOR,TORQUE_REF_RIGHT_MOTOR,LEFT_MOTOR_SPEED,RIGHT_MOTOR_SPEED,REAR_LEFT_WHEEL_SPEED,REAR_RIGHT_WHEEL_SPEED,ACCEL_LONGITUDINAL,ACCEL_LATERAL,ACCEL_NORMAL,VEL_ANGULAR_YAW,VEL_ANGULAR_PITCH,VEL_ANGULAR_ROLL,STACK_1_CELL_1,STACK_1_CELL_2,STACK_1_CELL_3,STACK_1_CELL_4,STACK_2_CELL_1,STACK_2_CELL_2,STACK_2_CELL_3,STACK_2_CELL_4,STACK_3_CELL_1,STACK_3_CELL_2,STACK_3_CELL_3,STACK_3_CELL_4,STACK_4_CELL_1,STACK_4_CELL_2,STACK_4_CELL_3,STACK_4_CELL_4,STACK_5_CELL_1,STACK_5_CELL_2,STACK_5_CELL_3,STACK_5_CELL_4,STACK_6_CELL_1,STACK_6_CELL_2,STACK_6_CELL_3,STACK_6_CELL_4,MAX_VOLTAGE,MIN_VOLTAGE,TOTAL_VOLTAGE,SHUNT_CURRENT,BMS_MODE_ID,BMS_ERROR_ID,AIR_P,AIR_N,t
1765221360043,0.0,0.0,2.0,25.0,0.0,0.0,0.0,0.0,0.0,0.0,-0.023302,0.052216,0.994422,-0.7000000000000001,0.49000000000000005,-0.07,3.3,3.3,3.3,3.28,3.28,3.29,3.28,3.31,3.3,3.31,3.3,3.28,3.28,3.29,3.28,3.31,3.3,3.3,3.3,3.3,3.31,3.32,3.3,3.3,3.32,3.27,79.0,1.0,1.0,0.0,1.0,1.0,2855017
1765221360076,0.0,0.0,2.0,25.0,0.0,0.0,0.0,0.0,0.0,0.0,-0.010735999999999999,0.026595999999999998,0.991372,-0.7000000000000001,0.49000000000000005,-0.07,3.3,3.3,3.3,3.28,3.28,3.29,3.28,3.31,3.3,3.31,3.3,3.28,3.28,3.29,3.28,3.31,3.3,3.3,3.3,3.3,3.31,3.32,3.3,3.3,3.32,3.27,79.0,1.0,1.0,0.0,1.0,1.0,2855050
1765221360126,0.0,0.0,2.0,25.0,0.0,0.0,0.0,0.0,0.0,0.0,-0.010735999999999999,0.026595999999999998,0.991372,-0.7000000000000001,0.49000000000000005,-0.07,3.3,3.3,3.3,3.28,3.28,3.29,3.28,3.31,3.3,3.31,3.3,3.28,3.28,3.29,3.28,3.31,3.3,3.3,3.3,3.3,3.31,3.32,3.3,3.3,3.32,3.27,79.0,1.0,1.0,0.0,1.0,1.0,2855100
1765221360142,0.0,0.0,2.0,25.0,0.0,0.0,0.0,0.0,0.0,0.0,-0.010735999999999999,0.026595999999999998,0.991372,-0.7000000000000001,0.42000000000000004,0.07,3.3,3.3,3.3,3.28,3.28,3.29,3.28,3.31,3.3,3.31,3.3,3.28,3.28,3.29,3.28,3.31,3.3,3.3,3.3,3.3,3.31,3.32,3.3,3.3,3.32,3.27,79.0,1.0,1.0,0.0,1.0,1.0,2855116
1765221360208,0.0,0.0,2.0,25.0,0.0,0.0,0.0,0.0,0.0,0.0,-0.010735999999999999,0.026595999999999998,0.991372,-0.7000000000000001,0.42000000000000004,0.07,3.3,3.3,3.3,3.28,3.28,3.29,3.28,3.31,3.3,3.31,3.3,3.28,3.28,3.29,3.28,3.31,3.3,3.3,3.3,3.3,3.31,3.32,3.3,3.3,3.33,3.3,79.6,1.0,1.0,0.0,1.0,1.0,2855182
1765221360241,0.0,0.0,2.0,25.0,0.0,0.0,0.0,0.0,0.0,0.0,-0.010735999999999999,0.026595999999999998,0.991372,-0.7000000000000001,0.42000000000000004,0.07,3.3,3.3,3.3,3.28,3.28,3.29,3.28,3.31,3.3,3.31,3.3,3.28,3.28,3.29,3.28,3.31,3.3,3.3,3.3,3.3,3.31,3.32,3.3,3.3,3.33,3.3,79.6,1.0,1.0,0.0,0.0,1.0,2855215
1765221360274,0.0,0.0,2.0,25.0,0.0,0.0,0.0,0.0,0.0,0.0,-0.008662,0.028059999999999998,0.992714,-0.7000000000000001,0.42000000000000004,0.07,3.3,3.3,3.3,3.28,3.28,3.29,3.28,3.31,3.3,3.31,3.3,3.28,3.28,3.29,3.28,3.31,3.3,3.3,3.3,3.3,3.31,3.32,3.3,3.3,3.33,3.3,79.6,1.0,1.0,0.0,0.0,1.0,2855248
1765221360290,0.0,0.0,2.0,25.0,0.0,0.0,0.0,0.0,0.0,0.0,-0.008662,0.028059999999999998,0.992714,-0.56,0.21000000000000002,0.0,3.3,3.3,3.3,3.28,3.28,3.29,3.28,3.31,3.3,3.31,3.3,3.28,3.28,3.29,3.28,3.31,3.3,3.3,3.3,3.3,3.31,3.32,3.3,3.3,3.33,3.3,79.6,1.0,1.0,0.0,0.0,1.0,2855264
1765221360326,0.0,0.0,2.0,25.0,0.0,0.0,0.0,0.0,0.0,0.0,-0.008662,0.028059999999999998,0.992714,-0.56,0.21000000000000002,0.0,3.3,3.3,3.3,3.28,3.28,3.29,3.28,3.31,3.3,3.31,3.3,3.28,3.28,3.29,3.28,3.31,3.3,3.3,3.3,3.3,3.31,3.32,3.3,3.3,3.33,3.3,79.6,1.0,1.0,0.0,0.0,1.0,2855300
1765221360341,0.0,0.0,1.0,10.0,0.0,0.0,0.0,0.0,0.0,0.0,-0.008662,0.028059999999999998,0.992714,-0.56,0.21000000000000002,0.0,3.3,3.3,3.3,3.28,3.28,3.29,3.28,3.31,3.3,3.31,3.3,3.28,3.28,3.29,3.28,3.31,3.3,3.3,3.3,3.3,3.31,3.32,3.3,3.3,3.33,3.3,79.6,1.0,1.0,0.0,0.0,1.0,2855315
1765221360357,0.0,0.0,1.0,10.0,0.0,0.0,0.0,0.0,0.0,0.0,-0.008662,0.028059999999999998,0.992714,-0.56,0.21000000000000002,0.0,3.3,3.3,3.3,3.28,3.28,3.29,3.28,3.31,3.3,3.31,3.3,3.28,3.28,3.29,3.28,3.31,3.3,3.3,3.3,3.3,3.31,3.32,3.3,3.3,3.33,3.3,79.6,1.0,1.0,0.0,0.0,1.0,2855331
1765221360390,0.0,0.0,1.0,10.0,0.0,0.0,0.0,0.0,0.0,0.0,-0.008662,0.028059999999999998,0.992714,-0.56,0.21000000000000002,0.0,3.3,3.3,3.3,3.28,3.28,3.29,3.28,3.31,3.3,3.31,3.3,3.28,3.28,3.29,3.28,3.31,3.3,3.3,3.3,3.3,3.31,3.32,3.3,3.3,3.33,3.3,79.6,1.0,1.0,0.0,0.0,1.0,2855364
1765221360440,0.0,0.0,1.0,10.0,0.0,0.0,0.0,0.0,0.0,0.0,-0.008662,0.028059999999999998,0.992714,-0.56,0.21000000000000002,0.0,3.3,3.3,3.3,3.28,3.28,3.29,3.28,3.31,3.3,3.31,3.3,3.28,3.28,3.29,3.28,3.31,3.3,3.3,3.3,3.3,3.31,3.32,3.3,3.3,3.33,3.3,79.6,1.0,1.0,0.0,0.0,1.0,2855414
1765221360457,0.0,0.0,1.0,10.0,0.0,0.0,0.0,0.0,0.0,0.0,-0.011833999999999999,0.025986,0.98942,-0.56,0.21000000000000002,0.0,3.3,3.3,3.3,3.28,3.28,3.29,3.28,3.31,3.3,3.31,3.3,3.28,3.28,3.29,3.28,3.31,3.3,3.3,3.3,3.3,3.31,3.32,3.3,3.3,3.33,3.3,79.6,1.0,1.0,0.0,0.0,1.0,2855431
1765221360524,0.0,0.0,1.0,10.0,0.0,0.0,0.0,0.0,0.0,0.0,-0.011833999999999999,0.025986,0.98942,-0.7000000000000001,0.35000000000000003,0.0,3.3,3.3,3.3,3.28,3.28,3.29,3.28,3.31,3.3,3.31,3.3,3.28,3.28,3.29,3.28,3.31,3.3,3.3,3.3,3.3,3.31,3.32,3.3,3.3,3.33,3.3,79.6,1.0,1.0,0.0,0.0,1.0,2855498
1765221360557,0.0,0.0,1.0,10.0,0.0,0.0,0.0,0.0,0.0,0.0,-0.008173999999999999,0.027084,0.99186,-0.7000000000000001,0.35000000000000003,0.0,3.3,3.3,3.3,3.28,3.28,3.29,3.28,3.31,3.3,3.31,3.3,3.28,3.28,3.29,3.28,3.31,3.3,3.3,3.3,3.3,3.31,3.32,3.3,3.3,3.33,3.3,79.6,1.0,1.0,0.0,0.0,1.0,2855531
1765221360591,0.0,0.0,1.0,10.0,0.0,0.0,0.0,0.0,0.0,0.0,-0.008173999999999999,0.027084,0.99186,-0.6300000000000001,0.42000000000000004,0.0,3.3,3.3,3.3,3.28,3.28,3.29,3.28,3.31,3.3,3.31,3.3,3.28,3.28,3.29,3.28,3.31,3.3,3.3,3.3,3.3,3.31,3.32,3.3,3.3,3.33,3.3,79.6,1.0,1.0,0.0,0.0,1.0,2855565
1765221360609,0.0,0.0,1.0,10.0,0.0,0.0,0.0,0.0,0.0,0.0,-0.008173999999999999,0.027084,0.99186,-0.6300000000000001,0.42000000000000004,0.0,3.3,3.3,3.3,3.28,3.28,3.29,3.28,3.31,3.3,3.31,3.3,3.28,3.28,3.29,3.28,3.31,3.3,3.3,3.3,3.3,3.31,3.32,3.3,3.3,3.33,3.3,79.6,1.0,1.0,0.0,0.0,1.0,2855583
1765221360625,0.0,0.0,1.0,10.0,0.0,0.0,0.0,0.0,0.0,0.0,-0.008173999999999999,0.027084,0.99186,-0.6300000000000001,0.42000000000000004,0.0,3.3,3.3,3.3,3.28,3.28,3.29,3.28,3.31,3.3,3.31,3.3,3.28,3.28,3.29,3.28,3.31,3.3,3.3,3.3,3.3,3.31,3.32,3.3,3.3,3.33,3.3,79.6,1.0,1.0,0.0,0.0,1.0,2855599
1765221360658,0.0,0.0,1.0,10.0,0.0,0.0,0.0,0.0,0.0,0.0,-0.008173999999999999,0.027084,0.99186,-0.6300000000000001,0.42000000000000004,0.0,3.3,3.3,3.3,3.28,3.28,3.29,3.28,3.31,3.3,3.31,3.3,3.28,3.28,3.29,3.28,3.31,3.3,3.3,3.3,3.3,3.31,3.32,3.3,3.3,3.33,3.3,79.6,1.0,1.0,0.0,0.0,1.0,2855632
1765221360676,0.0,0.0,1.0,10.0,0.0,0.0,0.0,0.0,0.0,0.0,-0.008173999999999999,0.027084,0.99186,-0.56,0.21000000000000002,0.07,3.3,3.3,3.3,3.28,3.28,3.29,3.28,3.31,3.3,3.31,3.3,3.28,3.28,3.29,3.28,3.31,3.3,3.3,3.3,3.3,3.31,3.32,3.3,3.3,3.33,3.3,79.6,1.0,1.0,0.0,0.0,1.0,2855650
1765221360724,0.0,0.0,1.0,10.0,0.0,0.0,0.0,0.0,0.0,0.0,-0.008173999999999999,0.027084,0.99186,-0.56,0.21000000000000002,0.07,3.3,3.3,3.3,3.28,3.28,3.29,3.28,3.31,3.3,3.31,3.3,3.28,3.28,3.29,3.28,3.31,3.3,3.3,3.3,3.3,3.31,3.32,3.3,3.3,3.33,3.3,79.6,1.0,1.0,0.0,0.0,1.0,2855698
1765221360742,0.0,0.0,1.0,10.0,0.0,0.0,0.0,0.0,0.0,0.0,-0.008173999999999999,0.027084,0.99186,-0.56,0.21000000000000002,0.07,3.3,3.3,3.3,3.28,3.28,3.29,3.28,3.31,3.3,3.31,3.3,3.28,3.28,3.29,3.28,3.31,3.3,3.3,3.3,3.3,3.31,3.32,3.3,3.3,3.33,3.3,79.6,1.0,1.0,0.0,0.0,1.0,2855716
1765221360757,0.0,0.0,1.0,10.0,0.0,0.0,0.0,0.0,0.0,0.0,-0.008173999999999999,0.027084,0.99186,-0.56,0.21000000000000002,0.07,3.3,3.3,3.3,3.28,3.28,3.29,3.28,3.31,3.3,3.31,3.3,3.28,3.28,3.29,3.28,3.31,3.3,3.3,3.3,3.3,3.31,3.32,3.3,3.3,3.33,3.3,79.6,1.0,1.0,0.0,0.0,1.0,2855731
1765221360774,0.0,0.0,1.0,10.0,0.0,0.0,0.0,0.0,0.0,0.0,-0.00976,0.028059999999999998,0.992958,-0.56,0.21000000000000002,0.07,3.3,3.3,3.3,3.28,3.28,3.29,3.28,3.31,3.3,3.31,3.3,3.28,3.28,3.29,3.28,3.31,3.3,3.3,3.3,3.3,3.31,3.32,3.3,3.3,3.33,3.3,79.6,1.0,1.0,0.0,0.0,1.0,2855748
1765221360807,0.0,0.0,1.0,10.0,0.0,0.0,0.0,0.0,0.0,0.0,-0.00976,0.028059999999999998,0.992958,-0.56,0.21000000000000002,0.07,3.3,3.3,3.3,3.28,3.28,3.29,3.28,3.31,3.3,3.31,3.3,3.28,3.28,3.29,3.28,3.31,3.3,3.3,3.3,3.3,3.31,3.32,3.3,3.3,3.33,3.3,79.6,1.0,1.0,0.0,0.0,1.0,2855781
1765221360824,0.0,0.0,1.0,10.0,0.0,0.0,0.0,0.0,0.0,0.0,-0.00976,0.028059999999999998,0.992958,-0.7000000000000001,0.42000000000000004,-0.07,3.3,3.3,3.3,3.28,3.28,3.29,3.28,3.31,3.3,3.31,3.3,3.28,3.28,3.29,3.28,3.31,3.3,3.3,3.3,3.3,3.31,3.32,3.3,3.3,3.33,3.3,79.6,1.0,1.0,0.0,0.0,1.0,2855798
1765221360858,0.0,0.0,1.0,10.0,0.0,0.0,0.0,0.0,0.0,0.0,-0.00976,0.028059999999999998,0.992958,-0.7000000000000001,0.42000000000000004,-0.07,3.3,3.3,3.3,3.28,3.28,3.29,3.28,3.31,3.3,3.31,3.3,3.28,3.28,3.29,3.28,3.31,3.3,3.3,3.3,3.3,3.31,3.32,3.3,3.3,3.33,3.3,79.6,1.0,1.0,0.0,0.0,1.0,2855832
1765221360927,0.0,0.0,1.0,10.0,0.0,0.0,0.0,0.0,0.0,0.0,-0.00976,0.028059999999999998,0.992958,-0.7000000000000001,0.42000000000000004,-0.07,3.32,3.32,3.32,3.31,3.28,3.29,3.28,3.31,3.3,3.31,3.3,3.28,3.28,3.29,3.28,3.31,3.3,3.3,3.3,3.3,3.31,3.32,3.3,3.3,3.33,3.3,79.6,1.0,1.0,0.0,0.0,1.0,2855901
1765221360941,0.0,0.0,1.0,10.0,0.0,0.0,0.0,0.0,0.0,0.0,-0.00976,0.028059999999999998,0.992958,-0.7000000000000001,0.42000000000000004,-0.07,3.32,3.32,3.32,3.31,3.31,3.31,3.3,3.32,3.3,3.31,3.3,3.28,3.28,3.29,3.28,3.31,3.3,3.3,3.3,3.3,3.31,3.32,3.3,3.3,3.33,3.3,79.6,1.0,1.0,0.0,0.0,1.0,2855915
1765221360974,0.0,0.0,1.0,10.0,0.0,0.0,0.0,0.0,0.0,0.0,-0.00976,0.028059999999999998,0.992958,-0.7000000000000001,0.42000000000000004,-0.07,3.32,3.32,3.32,3.31,3.31,3.31,3.3,3.32,3.32,3.32,3.32,3.32,3.3,3.32,3.3,3.31,3.3,3.3,3.3,3.3,3.31,3.32,3.3,3.3,3.33,3.3,79.6,1.0,1.0,0.0,0.0,1.0,2855948
1765221360992,0.0,0.0,1.0,10.0,0.0,0.0,0.0,0.0,0.0,0.0,-0.00976,0.028059999999999998,0.992958,-0.7000000000000001,0.42000000000000004,-0.07,3.32,3.32,3.32,3.31,3.31,3.31,3.3,3.32,3.32,3.32,3.32,3.32,3.3,3.32,3.3,3.31,3.32,3.32,3.32,3.32,3.32,3.33,3.33,3.32,3.33,3.3,79.6,1.0,1.0,0.0,0.0,1.0,2855966
1765221361025,0.0,0.0,1.0,10.0,0.0,0.0,0.0,0.0,0.0,0.0,-0.009882,0.025376,0.990762,-0.7000000000000001,0.42000000000000004,-0.07,3.32,3.32,3.32,3.31,3.31,3.31,3.3,3.32,3.32,3.32,3.32,3.32,3.3,3.32,3.3,3.31,3.32,3.32,3.32,3.32,3.32,3.33,3.33,3.32,3.33,3.3,79.6,1.0,1.0,0.0,0.0,1.0,2855999
1765221361059,0.0,0.0,1.0,10.0,0.0,0.0,0.0,0.0,0.0,0.0,-0.009882,0.025376,0.990762,-0.6300000000000001,0.35000000000000003,0.0,3.32,3.32,3.32,3.31,3.31,3.31,3.3,3.32,3.32,3.32,3.32,3.32,3.3,3.32,3.3,3.31,3.32,3.32,3.32,3.32,3.32,3.33,3.33,3.32,3.33,3.3,79.6,1.0,1.0,0.0,0.0,1.0,2856033
1765221361074,0.0,0.0,1.0,10.0,0.0,0.0,0.0,0.0,0.0,0.0,-0.009882,0.025376,0.990762,-0.6300000000000001,0.35000000000000003,0.0,3.32,3.32,3.32,3.31,3.31,3.31,3.3,3.32,3.32,3.32,3.32,3.32,3.3,3.32,3.3,3.31,3.32,3.32,3.32,3.32,3.32,3.33,3.33,3.32,3.33,3.3,79.6,1.0,1.0,0.0,0.0,1.0,2856048
1765221361092,0.0,0.0,1.0,10.0,0.0,0.0,0.0,0.0,0.0,0.0,-0.009882,0.025376,0.990762,-0.6300000000000001,0.35000000000000003,0.0,3.32,3.32,3.32,3.31,3.31,3.31,3.3,3.32,3.32,3.32,3.32,3.32,3.3,3.32,3.3,3.31,3.32,3.32,3.32,3.32,3.32,3.33,3.33,3.32,3.33,3.3,79.6,1.0,1.0,0.0,0.0,1.0,2856066
1765221361108,0.0,0.0,1.0,10.0,0.0,0.0,0.0,0.0,0.0,0.0,-0.009882,0.025376,0.990762,-0.6300000000000001,0.35000000000000003,0.0,3.32,3.32,3.32,3.31,3.31,3.31,3.3,3.32,3.32,3.32,3.32,3.32,3.3,3.32,3.3,3.31,3.32,3.32,3.32,3.32,3.32,3.33,3.33,3.32,3.33,3.3,79.6,1.0,1.0,0.0,0.0,1.0,2856082
1765221361141,0.0,0.0,1.0,10.0,0.0,0.0,0.0,0.0,0.0,0.0,-0.009882,0.025376,0.990762,-0.6300000000000001,0.35000000000000003,0.0,3.32,3.32,3.32,3.31,3.31,3.31,3.3,3.32,3.32,3.32,3.32,3.32,3.3,3.32,3.3,3.31,3.32,3.32,3.32,3.32,3.32,3.33,3.33,3.32,3.33,3.3,79.6,1.0,1.0,0.0,0.0,1.0,2856115
1765221361191,0.0,0.0,1.0,10.0,0.0,0.0,0.0,0.0,0.0,0.0,-0.009882,0.025376,0.990762,-0.6300000000000001,0.35000000000000003,0.0,3.32,3.32,3.32,3.31,3.31,3.31,3.3,3.32,3.32,3.32,3.32,3.32,3.3,3.32,3.3,3.31,3.32,3.32,3.32,3.32,3.32,3.33,3.33,3.32,3.33,3.3,79.6,1.0,1.0,0.0,0.0,1.0,2856165
1765221361257,0.0,0.0,1.0,10.0,0.0,0.0,0.0,0.0,0.0,0.0,-0.009394,0.028426,0.994178,-0.6300000000000001,0.35000000000000003,0.0,3.32,3.32,3.32,3.31,3.31,3.31,3.3,3.32,3.32,3.32,3.32,3.32,3.3,3.32,3.3,3.31,3.32,3.32,3.32,3.32,3.32,3.33,3.33,3.32,3.33,3.3,79.6,1.0,1.0,0.0,0.0,1.0,2856231
1765221361290,0.0,0.0,1.0,10.0,0.0,0.0,0.0,0.0,0.0,0.0,-0.009394,0.028426,0.994178,-0.7000000000000001,0.42000000000000004,0.07,3.32,3.32,3.32,3.31,3.31,3.31,3.3,3.32,3.32,3.32,3.32,3.32,3.3,3.32,3.3,3.31,3.32,3.32,3.32,3.32,3.32,3.33,3.33,3.32,3.33,3.3,79.6,1.0,1.0,0.0,0.0,1.0,2856264
1765221361391,0.0,0.0,1.0,10.0,0.0,0.0,0.0,0.0,0.0,0.0,-0.00976,0.02623,0.991128,-0.7000000000000001,0.42000000000000004,0.07,3.32,3.32,3.32,3.31,3.31,3.31,3.3,3.32,3.32,3.32,3.32,3.32,3.3,3.32,3.3,3.31,3.32,3.32,3.32,3.32,3.32,3.33,3.33,3.32,3.33,3.3,79.6,1.0,1.0,0.0,0.0,1.0,2856365
1765221361408,0.0,0.0,1.0,10.0,0.0,0.0,0.0,0.0,0.0,0.0,-0.00976,0.02623,0.991128,-0.56,0.35000000000000003,-0.07,3.32,3.32,3.32,3.31,3.31,3.31,3.3,3.32,3.32,3.32,3.32,3.32,3.3,3.32,3.3,3.31,3.32,3.32,3.32,3.32,3.32,3.33,3.33,3.32,3.33,3.3,79.6,1.0,1.0,0.0,0.0,1.0,2856382
1765221361442,0.0,0.0,1.0,10.0,0.0,0.0,0.0,0.0,0.0,0.0,-0.00976,0.02623,0.991128,-0.56,0.35000000000000003,-0.07,3.32,3.32,3.32,3.31,3.31,3.31,3.3,3.32,3.32,3.32,3.32,3.32,3.3,3.32,3.3,3.31,3.32,3.32,3.32,3.32,3.32,3.33,3.33,3.32,3.33,3.3,79.6,1.0,1.0,0.0,0.0,1.0,2856416
1765221361458,0.0,0.0,1.0,10.0,0.0,0.0,0.0,0.0,0.0,0.0,-0.00976,0.02623,0.991128,-0.56,0.35000000000000003,-0.07,3.32,3.32,3.32,3.31,3.31,3.31,3.3,3.32,3.32,3.32,3.32,3.32,3.3,3.32,3.3,3.31,3.32,3.32,3.32,3.32,3.32,3.33,3.33,3.32,3.33,3.3,79.6,1.0,1.0,0.0,0.0,1.0,2856432
1765221361473,0.0,0.0,1.0,10.0,0.0,0.0,0.0,0.0,0.0,0.0,-0.00976,0.02623,0.991128,-0.56,0.35000000000000003,-0.07,3.32,3.32,3.32,3.31,3.31,3.31,3.3,3.32,3.32,3.32,3.32,3.32,3.3,3.32,3.3,3.31,3.32,3.32,3.32,3.32,3.32,3.33,3.33,3.32,3.33,3.3,79.6,1.0,1.0,0.0,0.0,1.0,2856447
1765221361490,0.0,0.0,1.0,10.0,0.0,0.0,0.0,0.0,0.0,0.0,-0.00976,0.02623,0.991128,-0.56,0.35000000000000003,-0.07,3.32,3.32,3.32,3.31,3.31,3.31,3.3,3.32,3.32,3.32,3.32,3.32,3.3,3.32,3.3,3.31,3.32,3.32,3.32,3.32,3.32,3.33,3.33,3.32,3.33,3.3,79.6,1.0,1.0,0.0,0.0,1.0,2856464
1765221361507,0.0,0.0,1.0,10.0,0.0,0.0,0.0,0.0,0.0,0.0,-0.00976,0.02623,0.991128,-0.56,0.35000000000000003,-0.07,3.32,3.32,3.32,3.31,3.31,3.31,3.3,3.32,3.32,3.32,3.32,3.32,3.3,3.32,3.3,3.31,3.32,3.32,3.32,3.32,3.32,3.33,3.33,3.32,3.33,3.3,79.6,1.0,1.0,0.0,0.0,1.0,2856481
1765221361574,0.0,0.0,1.0,10.0,0.0,0.0,0.0,0.0,0.0,0.0,-0.010614,0.024399999999999998,0.991372,-0.56,0.35000000000000003,-0.07,3.32,3.32,3.32,3.31,3.31,3.31,3.3,3.32,3.32,3.32,3.32,3.32,3.3,3.32,3.3,3.31,3.32,3.32,3.32,3.32,3.32,3.33,3.33,3.32,3.33,3.3,79.6,1.0,1.0,0.0,0.0,1.0,2856548
1765221361640,0.0,0.0,1.0,10.0,0.0,0.0,0.0,0.0,0.0,0.0,-0.010614,0.024399999999999998,0.991372,-0.56,0.42000000000000004,-0.07,3.32,3.32,3.32,3.31,3.31,3.31,3.3,3.32,3.32,3.32,3.32,3.32,3.3,3.32,3.3,3.31,3.32,3.32,3.32,3.32,3.32,3.33,3.33,3.32,3.33,3.3,79.6,1.0,1.0,0.0,0.0,1.0,2856614
1765221361691,0.0,0.0,1.0,10.0,0.0,0.0,0.0,0.0,0.0,0.0,-0.009394,0.027572,0.992592,-0.56,0.42000000000000004,-0.07,3.32,3.32,3.32,3.31,3.31,3.31,3.3,3.32,3.32,3.32,3.32,3.32,3.3,3.32,3.3,3.31,3.32,3.32,3.32,3.32,3.32,3.33,3.33,3.32,3.33,3.3,79.6,1.0,1.0,0.0,0.0,1.0,2856665
1765221361724,0.0,0.0,1.0,10.0,0.0,0.0,0.0,0.0,0.0,0.0,-0.009394,0.027572,0.992592,-0.56,0.42000000000000004,-0.07,3.32,3.32,3.32,3.31,3.31,3.31,3.3,3.32,3.32,3.32,3.32,3.32,3.3,3.32,3.3,3.31,3.32,3.32,3.32,3.32,3.32,3.33,3.33,3.32,3.33,3.3,79.6,0.0,1.0,0.0,0.0,1.0,2856698
1765221361756,0.0,0.0,1.0,10.0,0.0,0.0,0.0,0.0,0.0,0.0,-0.009394,0.027572,0.992592,-0.56,0.42000000000000004,-0.07,3.32,3.32,3.32,3.31,3.31,3.31,3.3,3.32,3.32,3.32,3.32,3.32,3.3,3.32,3.3,3.31,3.32,3.32,3.32,3.32,3.32,3.33,3.33,3.32,3.33,3.3,79.6,0.0,1.0,0.0,0.0,1.0,2856730
1765221361775,0.0,0.0,1.0,10.0,0.0,0.0,0.0,0.0,0.0,0.0,-0.009394,0.027572,0.992592,-0.6300000000000001,0.28,0.0,3.32,3.32,3.32,3.31,3.31,3.31,3.3,3.32,3.32,3.32,3.32,3.32,3.3,3.32,3.3,3.31,3.32,3.32,3.32,3.32,3.32,3.33,3.33,3.32,3.33,3.3,79.6,0.0,1.0,0.0,0.0,1.0,2856749
1765221361791,0.0,0.0,1.0,10.0,0.0,0.0,0.0,0.0,0.0,0.0,-0.009394,0.027572,0.992592,-0.6300000000000001,0.28,0.0,3.32,3.32,3.32,3.31,3.31,3.31,3.3,3.32,3.32,3.32,3.32,3.32,3.3,3.32,3.3,3.31,3.32,3.32,3.32,3.32,3.32,3.33,3.33,3.32,3.33,3.3,79.6,0.0,1.0,0.0,0.0,1.0,2856765
1765221361792,0.0,0.0,1.0,10.0,0.0,0.0,0.0,0.0,0.0,0.0,-0.009394,0.027572,0.992592,-0.6300000000000001,0.28,0.0,3.32,3.32,3.32,3.31,3.31,3.31,3.3,3.32,3.32,3.32,3.32,3.32,3.3,3.32,3.3,3.31,3.32,3.32,3.32,3.32,3.32,3.33,3.33,3.32,3.33,3.3,79.6,0.0,1.0,0.0,0.0,1.0,2856766
1765221361841,0.0,0.0,1.0,10.0,0.0,0.0,0.0,0.0,0.0,0.0,-0.009394,0.027572,0.992592,-0.6300000000000001,0.28,0.0,3.32,3.32,3.32,3.31,3.31,3.31,3.3,3.32,3.32,3.32,3.32,3.32,3.3,3.32,3.3,3.31,3.32,3.32,3.32,3.32,3.32,3.33,3.33,3.32,3.33,3.3,79.6,0.0,1.0,0.0,0.0,1.0,2856815
1765221361892,0.0,0.0,1.0,10.0,0.0,0.0,0.0,0.0,0.0,0.0,-0.009394,0.027572,0.992592,-0.6300000000000001,0.28,0.0,3.32,3.32,3.32,3.31,3.31,3.31,3.3,3.32,3.32,3.32,3.32,3.32,3.3,3.32,3.3,3.31,3.32,3.32,3.32,3.32,3.32,3.33,3.33,3.32,3.33,3.3,79.6,0.0,1.0,0.0,0.0,1.0,2856866
1765221361975,0.0,0.0,1.0,10.0,0.0,0.0,0.0,0.0,0.0,0.0,-0.009394,0.027572,0.992592,-0.6300000000000001,0.35000000000000003,0.0,3.32,3.32,3.32,3.31,3.31,3.31,3.3,3.32,3.32,3.32,3.32,3.32,3.3,3.32,3.3,3.31,3.32,3.32,3.32,3.32,3.32,3.33,3.33,3.32,3.33,3.3,79.6,0.0,1.0,0.0,0.0,1.0,2856949
1765221361991,0.0,0.0,1.0,10.0,0.0,0.0,0.0,0.0,0.0,0.0,-0.009394,0.027572,0.992592,-0.6300000000000001,0.35000000000000003,0.0,3.32,3.32,3.32,3.31,3.31,3.31,3.3,3.32,3.32,3.32,3.32,3.32,3.3,3.32,3.3,3.31,3.32,3.32,3.32,3.32,3.32,3.33,3.33,3.32,3.33,3.3,79.6,0.0,1.0,0.0,0.0,1.0,2856965
1765221362075,0.0,0.0,1.0,10.0,0.0,0.0,0.0,0.0,0.0,0.0,-0.0075639999999999995,0.025376,0.99003,-0.6300000000000001,0.35000000000000003,0.0,3.32,3.32,3.32,3.31,3.31,3.31,3.3,3.32,3.32,3.32,3.32,3.32,3.3,3.32,3.3,3.31,3.32,3.32,3.32,3.32,3.32,3.33,3.33,3.32,3.33,3.3,79.6,0.0,1.0,0.0,0.0,1.0,2857049
1765221362108,0.0,0.0,1.0,10.0,0.0,0.0,0.0,0.0,0.0,0.0,-0.0075639999999999995,0.025376,0.99003,-0.56,0.14,0.0,3.32,3.32,3.32,3.31,3.31,3.31,3.3,3.32,3.32,3.32,3.32,3.32,3.3,3.32,3.3,3.31,3.32,3.32,3.32,3.32,3.32,3.33,3.33,3.32,3.33,3.3,79.6,0.0,1.0,0.0,0.0,1.0,2857082
1765221362141,0.0,0.0,1.0,10.0,0.0,0.0,0.0,0.0,0.0,0.0,-0.0075639999999999995,0.025376,0.99003,-0.56,0.14,0.0,3.32,3.32,3.32,3.31,3.31,3.31,3.3,3.32,3.32,3.32,3.32,3.32,3.3,3.32,3.3,3.31,3.32,3.32,3.32,3.32,3.32,3.33,3.33,3.32,3.33,3.3,79.6,0.0,1.0,0.0,0.0,1.0,2857115
1765221362158,0.0,0.0,1.0,10.0,0.0,0.0,0.0,0.0,0.0,0.0,-0.0075639999999999995,0.025376,0.99003,-0.56,0.14,0.0,3.32,3.32,3.32,3.31,3.31,3.31,3.3,3.32,3.32,3.32,3.32,3.32,3.3,3.32,3.3,3.31,3.32,3.32,3.32,3.32,3.32,3.33,3.33,3.32,3.33,3.3,79.6,0.0,1.0,0.0,0.0,1.0,2857132
1765221362175,0.0,0.0,1.0,10.0,0.0,0.0,0.0,0.0,0.0,0.0,-0.0075639999999999995,0.025376,0.99003,-0.56,0.14,0.0,3.32,3.32,3.32,3.31,3.31,3.31,3.3,3.32,3.32,3.32,3.32,3.32,3.3,3.32,3.3,3.31,3.32,3.32,3.32,3.32,3.32,3.33,3.33,3.32,3.33,3.3,79.6,0.0,1.0,0.0,0.0,1.0,2857149
1765221362209,0.0,0.0,1.0,10.0,0.0,0.0,0.0,0.0,0.0,0.0,-0.0075639999999999995,0.025376,0.99003,-0.56,0.14,0.0,3.32,3.32,3.32,3.31,3.31,3.31,3.3,3.32,3.32,3.32,3.32,3.32,3.3,3.32,3.3,3.31,3.32,3.32,3.32,3.32,3.32,3.33,3.33,3.32,3.33,3.3,79.6,0.0,1.0,0.0,0.0,1.0,2857183
1765221362259,0.0,0.0,1.0,10.0,0.0,0.0,0.0,0.0,0.0,0.0,-0.014029999999999999,0.028059999999999998,0.993324,-0.56,0.14,0.0,3.32,3.32,3.32,3.31,3.31,3.31,3.3,3.32,3.32,3.32,3.32,3.32,3.3,3.32,3.3,3.31,3.32,3.32,3.32,3.32,3.32,3.33,3.33,3.32,3.33,3.3,79.6,0.0,1.0,0.0,0.0,1.0,2857233
1765221362275,0.0,0.0,1.0,10.0,0.0,0.0,0.0,0.0,0.0,0.0,-0.014029999999999999,0.028059999999999998,0.993324,-0.56,0.14,0.0,3.32,3.32,3.32,3.31,3.31,3.31,3.3,3.32,3.32,3.32,3.32,3.32,3.3,3.32,3.3,3.31,3.32,3.32,3.32,3.32,3.32,3.33,3.33,3.32,3.33,3.3,79.6,0.0,1.0,0.0,0.0,1.0,2857249
1765221362325,0.0,0.0,1.0,10.0,0.0,0.0,0.0,0.0,0.0,0.0,-0.014029999999999999,0.028059999999999998,0.993324,-0.6300000000000001,0.35000000000000003,0.0,3.32,3.32,3.32,3.31,3.31,3.31,3.3,3.32,3.32,3.32,3.32,3.32,3.3,3.32,3.3,3.31,3.32,3.32,3.32,3.32,3.32,3.33,3.33,3.32,3.33,3.3,79.6,0.0,1.0,0.0,0.0,1.0,2857299
1765221362374,0.0,0.0,1.0,10.0,0.0,0.0,0.0,0.0,0.0,0.0,-0.010735999999999999,0.027327999999999998,0.992348,-0.6300000000000001,0.35000000000000003,0.0,3.32,3.32,3.32,3.31,3.31,3.31,3.3,3.32,3.32,3.32,3.32,3.32,3.3,3.32,3.3,3.31,3.32,3.32,3.32,3.32,3.32,3.33,3.33,3.32,3.33,3.3,79.6,0.0,1.0,0.0,0.0,1.0,2857348
1765221362392,0.0,0.0,1.0,10.0,0.0,0.0,0.0,0.0,0.0,0.0,-0.010735999999999999,0.027327999999999998,0.992348,-0.6300000000000001,0.35000000000000003,0.0,3.32,3.32,3.32,3.31,3.31,3.31,3.3,3.32,3.32,3.32,3.32,3.32,3.3,3.32,3.3,3.31,3.32,3.32,3.32,3.32,3.32,3.33,3.33,3.32,3.33,3.3,79.6,0.0,1.0,0.0,0.0,1.0,2857366
1765221362407,0.0,0.0,1.0,10.0,0.0,0.0,0.0,0.0,0.0,0.0,-0.010735999999999999,0.027327999999999998,0.992348,-0.7000000000000001,0.35000000000000003,0.0,3.32,3.32,3.32,3.31,3.31,3.31,3.3,3.32,3.32,3.32,3.32,3.32,3.3,3.32,3.3,3.31,3.32,3.32,3.32,3.32,3.32,3.33,3.33,3.32,3.33,3.3,79.6,0.0,1.0,0.0,0.0,1.0,2857381
1765221362424,0.0,0.0,1.0,10.0,0.0,0.0,0.0,0.0,0.0,0.0,-0.010735999999999999,0.027327999999999998,0.992348,-0.7000000000000001,0.35000000000000003,0.0,3.32,3.32,3.32,3.31,3.31,3.31,3.3,3.32,3.32,3.32,3.32,3.32,3.3,3.32,3.3,3.31,3.32,3.32,3.32,3.32,3.32,3.33,3.33,3.32,3.33,3.3,79.6,0.0,1.0,0.0,0.0,1.0,2857398
1765221362440,0.0,0.0,1.0,10.0,0.0,0.0,0.0,0.0,0.0,0.0,-0.010735999999999999,0.027327999999999998,0.992348,-0.7000000000000001,0.35000000000000003,0.0,3.32,3.32,3.32,3.31,3.31,3.31,3.3,3.32,3.32,3.32,3.32,3.32,3.3,3.32,3.3,3.31,3.32,3.32,3.32,3.32,3.32,3.33,3.33,3.32,3.33,3.3,79.6,0.0,1.0,0.0,0.0,1.0,2857414
1765221362457,0.0,0.0,1.0,10.0,0.0,0.0,0.0,0.0,0.0,0.0,-0.010735999999999999,0.027327999999999998,0.992348,-0.7000000000000001,0.35000000000000003,0.0,3.32,3.32,3.32,3.31,3.31,3.31,3.3,3.32,3.32,3.32,3.32,3.32,3.3,3.32,3.3,3.31,3.32,3.32,3.32,3.32,3.32,3.33,3.33,3.32,3.33,3.3,79.6,0.0,1.0,0.0,0.0,1.0,2857431
1765221362474,0.0,0.0,1.0,10.0,0.0,0.0,0.0,0.0,0.0,0.0,-0.010735999999999999,0.027327999999999998,0.992348,-0.7000000000000001,0.35000000000000003,0.0,3.32,3.32,3.32,3.31,3.31,3.31,3.3,3.32,3.32,3.32,3.32,3.32,3.3,3.32,3.3,3.31,3.32,3.32,3.32,3.32,3.32,3.33,3.33,3.32,3.33,3.3,79.6,0.0,1.0,0.0,0.0,1.0,2857448
1765221362490,0.0,0.0,1.0,10.0,0.0,0.0,0.0,0.0,0.0,0.0,-0.010735999999999999,0.027327999999999998,0.992348,-0.7000000000000001,0.35000000000000003,0.0,3.32,3.32,3.32,3.31,3.31,3.31,3.3,3.32,3.32,3.32,3.32,3.32,3.3,3.32,3.3,3.31,3.32,3.32,3.32,3.32,3.32,3.33,3.33,3.32,3.33,3.3,79.6,0.0,1.0,0.0,0.0,1.0,2857464
1765221362507,0.0,0.0,1.0,10.0,0.0,0.0,0.0,0.0,0.0,0.0,-0.010735999999999999,0.027327999999999998,0.992348,-0.7000000000000001,0.35000000000000003,0.0,3.32,3.32,3.32,3.31,3.31,3.31,3.3,3.32,3.32,3.32,3.32,3.32,3.3,3.32,3.3,3.31,3.32,3.32,3.32,3.32,3.32,3.33,3.33,3.32,3.33,3.3,79.6,0.0,1.0,0.0,0.0,1.0,2857481
1765221362524,0.0,0.0,1.0,10.0,0.0,0.0,0.0,0.0,0.0,0.0,-0.010735999999999999,0.027327999999999998,0.992348,-0.7000000000000001,0.35000000000000003,0.0,3.32,3.32,3.32,3.31,3.31,3.31,3.3,3.32,3.32,3.32,3.32,3.32,3.3,3.32,3.3,3.31,3.32,3.32,3.32,3.32,3.33,3.33,3.33,3.32,3.33,3.3,79.6,0.0,1.0,0.0,0.0,1.0,2857498
1765221362557,0.0,0.0,1.0,10.0,0.0,0.0,0.0,0.0,0.0,0.0,-0.010735999999999999,0.027327999999999998,0.992348,-0.7000000000000001,0.35000000000000003,0.0,3.32,3.32,3.32,3.31,3.31,3.31,3.3,3.32,3.32,3.32,3.32,3.32,3.3,3.32,3.3,3.31,3.32,3.32,3.32,3.32,3.33,3.33,3.33,3.32,3.33,3.3,79.6,0.0,1.0,0.0,0.0,1.0,2857531
1765221362574,0.0,0.0,1.0,10.0,0.0,0.0,0.0,0.0,0.0,0.0,-0.010735999999999999,0.027327999999999998,0.992348,-0.7000000000000001,0.35000000000000003,0.0,3.32,3.32,3.32,3.31,3.31,3.31,3.3,3.32,3.32,3.32,3.32,3.32,3.3,3.32,3.3,3.31,3.32,3.32,3.32,3.32,3.33,3.33,3.33,3.32,3.33,3.3,79.6,0.0,1.0,0.0,0.0,1.0,2857548
1765221362591,0.0,0.0,1.0,10.0,0.0,0.0,0.0,0.0,0.0,0.0,-0.010735999999999999,0.027327999999999998,0.992348,-0.7000000000000001,0.35000000000000003,0.0,3.32,3.32,3.32,3.31,3.31,3.31,3.3,3.32,3.32,3.32,3.32,3.32,3.3,3.32,3.3,3.31,3.32,3.32,3.32,3.32,3.33,3.33,3.33,3.32,3.33,3.3,79.6,0.0,1.0,0.0,0.0,1.0,2857565
1765221362608,0.0,0.0,1.0,10.0,0.0,0.0,0.0,0.0,0.0,0.0,-0.010735999999999999,0.027327999999999998,0.992348,-0.7000000000000001,0.35000000000000003,0.0,3.32,3.32,3.32,3.31,3.31,3.31,3.3,3.32,3.32,3.32,3.32,3.32,3.3,3.32,3.3,3.31,3.32,3.32,3.32,3.32,3.33,3.33,3.33,3.32,3.33,3.3,79.6,0.0,1.0,0.0,0.0,1.0,2857582
1765221362625,0.0,0.0,1.0,10.0,0.0,0.0,0.0,0.0,0.0,0.0,-0.010735999999999999,0.027327999999999998,0.992348,-0.7000000000000001,0.35000000000000003,0.0,3.32,3.32,3.32,3.31,3.31,3.31,3.3,3.32,3.32,3.32,3.32,3.32,3.3,3.32,3.3,3.31,3.32,3.32,3.32,3.32,3.33,3.33,3.33,3.32,3.33,3.3,79.6,0.0,1.0,0.0,0.0,1.0,2857599
1765221362642,0.0,0.0,1.0,10.0,0.0,0.0,0.0,0.0,0.0,0.0,-0.010735999999999999,0.027327999999999998,0.992348,-0.56,0.35000000000000003,0.0,3.32,3.32,3.32,3.31,3.31,3.31,3.3,3.32,3.32,3.32,3.32,3.32,3.3,3.32,3.3,3.31,3.32,3.32,3.32,3.32,3.33,3.33,3.33,3.32,3.33,3.3,79.6,0.0,1.0,0.0,0.0,1.0,2857616
1765221362658,0.0,0.0,1.0,10.0,0.0,0.0,0.0,0.0,0.0,0.0,-0.010735999999999999,0.027327999999999998,0.992348,-0.56,0.35000000000000003,0.0,3.32,3.32,3.32,3.31,3.31,3.31,3.3,3.32,3.32,3.32,3.32,3.32,3.3,3.32,3.3,3.31,3.32,3.32,3.32,3.32,3.33,3.33,3.33,3.32,3.33,3.3,79.6,0.0,1.0,0.0,0.0,1.0,2857632
1765221362690,0.0,0.0,1.0,10.0,0.0,0.0,0.0,0.0,0.0,0.0,-0.010735999999999999,0.027327999999999998,0.992348,-0.56,0.35000000000000003,0.0,3.32,3.32,3.32,3.31,3.31,3.31,3.3,3.32,3.32,3.32,3.32,3.32,3.3,3.32,3.3,3.31,3.32,3.32,3.32,3.32,3.33,3.33,3.33,3.32,3.33,3.3,79.6,0.0,1.0,0.0,0.0,1.0,2857664
1765221362708,0.0,0.0,1.0,10.0,0.0,0.0,0.0,0.0,0.0,0.0,-0.010735999999999999,0.027327999999999998,0.992348,-0.56,0.35000000000000003,0.0,3.32,3.32,3.32,3.31,3.31,3.31,3.3,3.32,3.32,3.32,3.32,3.32,3.3,3.32,3.3,3.31,3.32,3.32,3.32,3.32,3.33,3.33,3.33,3.32,3.33,3.3,79.6,0.0,1.0,0.0,0.0,1.0,2857682
1765221362741,0.0,0.0,1.0,10.0,0.0,0.0,0.0,0.0,0.0,0.0,-0.010735999999999999,0.027327999999999998,0.992348,-0.56,0.35000000000000003,0.0,3.32,3.32,3.32,3.31,3.31,3.31,3.3,3.32,3.32,3.32,3.32,3.32,3.3,3.32,3.3,3.31,3.32,3.32,3.32,3.32,3.33,3.33,3.33,3.32,3.33,3.3,79.6,0.0,1.0,0.0,0.0,1.0,2857715
1765221362824,0.0,0.0,1.0,10.0,0.0,0.0,0.0,0.0,0.0,0.0,-0.010735999999999999,0.024888,0.9910059999999999,-0.56,0.35000000000000003,0.0,3.32,3.32,3.32,3.31,3.31,3.31,3.3,3.32,3.32,3.32,3.32,3.32,3.3,3.32,3.3,3.31,3.32,3.32,3.32,3.32,3.33,3.33,3.33,3.32,3.33,3.3,79.6,0.0,1.0,0.0,0.0,1.0,2857798
1765221362841,0.0,0.0,1.0,10.0,0.0,0.0,0.0,0.0,0.0,0.0,-0.010735999999999999,0.024888,0.9910059999999999,-0.56,0.35000000000000003,0.0,3.32,3.32,3.32,3.31,3.31,3.31,3.3,3.32,3.32,3.32,3.32,3.32,3.3,3.32,3.3,3.31,3.32,3.32,3.32,3.32,3.33,3.33,3.33,3.32,3.33,3.3,79.6,0.0,1.0,0.0,0.0,1.0,2857815
1765221362875,0.0,0.0,1.0,10.0,0.0,0.0,0.0,0.0,0.0,0.0,-0.010735999999999999,0.024888,0.9910059999999999,-0.56,0.35000000000000003,0.0,3.32,3.32,3.32,3.31,3.31,3.31,3.3,3.32,3.32,3.32,3.32,3.32,3.3,3.32,3.3,3.31,3.32,3.32,3.32,3.32,3.33,3.33,3.33,3.32,3.33,3.3,79.6,0.0,1.0,0.0,0.0,1.0,2857849
1765221362891,0.0,0.0,1.0,10.0,0.0,0.0,0.0,0.0,0.0,0.0,-0.010735999999999999,0.024888,0.9910059999999999,-0.56,0.35000000000000003,0.0,3.32,3.32,3.32,3.31,3.31,3.31,3.3,3.32,3.32,3.32,3.32,3.32,3.3,3.32,3.3,3.31,3.32,3.32,3.32,3.32,3.33,3.33,3.33,3.32,3.33,3.3,79.6,0.0,1.0,0.0,0.0,1.0,2857865
1765221362908,0.0,0.0,1.0,10.0,0.0,0.0,0.0,0.0,0.0,0.0,-0.010735999999999999,0.024888,0.9910059999999999,-0.56,0.35000000000000003,0.0,3.32,3.32,3.32,3.31,3.31,3.31,3.3,3.32,3.32,3.32,3.32,3.32,3.3,3.32,3.3,3.31,3.32,3.32,3.32,3.32,3.33,3.33,3.33,3.32,3.33,3.3,79.6,0.0,1.0,0.0,0.0,1.0,2857882
1765221362924,0.0,0.0,1.0,10.0,0.0,0.0,0.0,0.0,0.0,0.0,-0.010735999999999999,0.024888,0.9910059999999999,-0.56,0.35000000000000003,0.0,3.32,3.32,3.32,3.31,3.31,3.31,3.3,3.32,3.32,3.32,3.32,3.32,3.3,3.32,3.3,3.31,3.32,3.32,3.32,3.32,3.33,3.33,3.33,3.32,3.33,3.3,79.6,0.0,1.0,0.0,0.0,1.0,2857898
1765221362942,0.0,0.0,1.0,10.0,0.0,0.0,0.0,0.0,0.0,0.0,-0.010735999999999999,0.024888,0.9910059999999999,-0.56,0.35000000000000003,0.0,3.32,3.32,3.32,3.31,3.31,3.31,3.3,3.32,3.32,3.32,3.32,3.32,3.3,3.32,3.3,3.31,3.32,3.32,3.32,3.32,3.33,3.33,3.33,3.32,3.33,3.3,79.6,0.0,1.0,0.0,0.0,1.0,2857916
1765221363007,0.0,0.0,1.0,10.0,0.0,0.0,0.0,0.0,0.0,0.0,-0.008418,0.027206,0.99308,-0.56,0.35000000000000003,0.0,3.32,3.32,3.32,3.31,3.31,3.31,3.3,3.32,3.32,3.32,3.32,3.32,3.3,3.32,3.3,3.31,3.32,3.32,3.32,3.32,3.33,3.33,3.33,3.32,3.33,3.3,79.6,0.0,1.0,0.0,0.0,1.0,2857981
1765221363008,0.0,0.0,1.0,10.0,0.0,0.0,0.0,0.0,0.0,0.0,-0.008418,0.027206,0.99308,-0.56,0.35000000000000003,0.0,3.32,3.32,3.32,3.31,3.31,3.31,3.3,3.32,3.32,3.32,3.32,3.32,3.3,3.32,3.3,3.31,3.32,3.32,3.32,3.32,3.33,3.33,3.33,3.32,3.33,3.3,79.6,0.0,1.0,0.0,0.0,1.0,2857982
1765221363058,0.0,0.0,1.0,10.0,0.0,0.0,0.0,0.0,0.0,0.0,-0.008418,0.027206,0.99308,-0.49000000000000005,0.21000000000000002,0.0,3.32,3.32,3.32,3.31,3.31,3.31,3.3,3.32,3.32,3.32,3.32,3.32,3.3,3.32,3.3,3.31,3.32,3.32,3.32,3.32,3.33,3.33,3.33,3.32,3.33,3.3,79.6,0.0,1.0,0.0,0.0,1.0,2858032
1765221363125,0.0,0.0,1.0,10.0,0.0,0.0,0.0,0.0,0.0,0.0,-0.008539999999999999,0.025863999999999998,0.9952759999999999,-0.49000000000000005,0.21000000000000002,0.0,3.32,3.32,3.32,3.31,3.31,3.31,3.3,3.32,3.32,3.32,3.32,3.32,3.3,3.32,3.3,3.31,3.32,3.32,3.32,3.32,3.33,3.33,3.33,3.32,3.33,3.3,79.6,0.0,1.0,0.0,0.0,1.0,2858099
1765221363140,0.0,0.0,1.0,10.0,0.0,0.0,0.0,0.0,0.0,0.0,-0.008539999999999999,0.025863999999999998,0.9952759999999999,-0.56,0.35000000000000003,0.0,3.32,3.32,3.32,3.31,3.31,3.31,3.3,3.32,3.32,3.32,3.32,3.32,3.3,3.32,3.3,3.31,3.32,3.32,3.32,3.32,3.33,3.33,3.33,3.32,3.33,3.3,79.6,0.0,1.0,0.0,0.0,1.0,2858114
1765221363158,0.0,0.0,1.0,10.0,0.0,0.0,0.0,0.0,0.0,0.0,-0.008539999999999999,0.025863999999999998,0.9952759999999999,-0.56,0.35000000000000003,0.0,3.32,3.32,3.32,3.31,3.31,3.31,3.3,3.32,3.32,3.32,3.32,3.32,3.3,3.32,3.3,3.31,3.32,3.32,3.32,3.32,3.33,3.33,3.33,3.32,3.33,3.3,79.6,0.0,1.0,0.0,0.0,1.0,2858132
1765221363191,0.0,0.0,1.0,10.0,0.0,0.0,0.0,0.0,0.0,0.0,-0.008662,0.026962,0.9916159999999999,-0.56,0.35000000000000003,0.0,3.32,3.32,3.32,3.31,3.31,3.31,3.3,3.32,3.32,3.32,3.32,3.32,3.3,3.32,3.3,3.31,3.32,3.32,3.32,3.32,3.33,3.33,3.33,3.32,3.33,3.3,79.6,0.0,1.0,0.0,0.0,1.0,2858165
1765221363224,0.0,0.0,1.0,10.0,0.0,0.0,0.0,0.0,0.0,0.0,-0.008662,0.026962,0.9916159999999999,-0.49000000000000005,0.35000000000000003,0.0,3.32,3.32,3.32,3.31,3.31,3.31,3.3,3.32,3.32,3.32,3.32,3.32,3.3,3.32,3.3,3.31,3.32,3.32,3.32,3.32,3.33,3.33,3.33,3.32,3.33,3.3,79.6,0.0,1.0,0.0,0.0,1.0,2858198
1765221363257,0.0,0.0,1.0,10.0,0.0,0.0,0.0,0.0,0.0,0.0,-0.01098,0.025986,0.991372,-0.49000000000000005,0.35000000000000003,0.0,3.32,3.32,3.32,3.31,3.31,3.31,3.3,3.32,3.32,3.32,3.32,3.32,3.3,3.32,3.3,3.31,3.32,3.32,3.32,3.32,3.33,3.33,3.33,3.32,3.33,3.3,79.6,0.0,1.0,0.0,0.0,1.0,2858231
1765221363290,0.0,0.0,1.0,10.0,0.0,0.0,0.0,0.0,0.0,0.0,-0.01098,0.025986,0.991372,-0.49000000000000005,0.35000000000000003,0.0,3.32,3.32,3.32,3.31,3.31,3.31,3.3,3.32,3.32,3.32,3.32,3.32,3.3,3.32,3.3,3.31,3.32,3.32,3.32,3.32,3.33,3.33,3.33,3.32,3.33,3.3,79.6,0.0,1.0,0.0,0.0,1.0,2858264
1765221363308,0.0,0.0,1.0,10.0,0.0,0.0,0.0,0.0,0.0,0.0,-0.01098,0.025986,0.991372,-0.49000000000000005,0.35000000000000003,0.0,3.32,3.32,3.32,3.31,3.31,3.31,3.3,3.32,3.32,3.32,3.32,3.32,3.3,3.32,3.3,3.31,3.32,3.32,3.32,3.32,3.33,3.33,3.33,3.32,3.33,3.3,79.6,0.0,1.0,0.0,0.0,1.0,2858282
1765221363325,0.0,0.0,1.0,10.0,0.0,0.0,0.0,0.0,0.0,0.0,-0.01098,0.025986,0.991372,-0.56,0.28,0.0,3.32,3.32,3.32,3.31,3.31,3.31,3.3,3.32,3.32,3.32,3.32,3.32,3.3,3.32,3.3,3.31,3.32,3.32,3.32,3.32,3.33,3.33,3.33,3.32,3.33,3.3,79.6,0.0,1.0,0.0,0.0,1.0,2858299
1765221363342,0.0,0.0,1.0,10.0,0.0,0.0,0.0,0.0,0.0,0.0,-0.01098,0.025986,0.991372,-0.56,0.28,0.0,3.32,3.32,3.32,3.31,3.31,3.31,3.3,3.32,3.32,3.32,3.32,3.32,3.3,3.32,3.3,3.31,3.32,3.32,3.32,3.32,3.33,3.33,3.33,3.32,3.33,3.3,79.6,0.0,1.0,0.0,0.0,1.0,2858316
1765221363374,0.0,0.0,1.0,10.0,0.0,0.0,0.0,0.0,0.0,0.0,-0.01098,0.025986,0.991372,-0.56,0.28,0.0,3.32,3.32,3.32,3.31,3.31,3.31,3.3,3.32,3.32,3.32,3.32,3.32,3.3,3.32,3.3,3.31,3.32,3.32,3.32,3.32,3.33,3.33,3.33,3.32,3.33,3.3,79.6,0.0,1.0,0.0,0.0,1.0,2858348
1765221363441,0.0,0.0,1.0,10.0,0.0,0.0,0.0,0.0,0.0,0.0,-0.01098,0.025986,0.991372,-0.56,0.28,0.0,3.32,3.32,3.32,3.31,3.31,3.31,3.3,3.32,3.32,3.32,3.32,3.32,3.3,3.32,3.3,3.31,3.32,3.32,3.32,3.32,3.33,3.33,3.33,3.32,3.33,3.3,79.6,0.0,1.0,0.0,0.0,1.0,2858415
1765221363475,0.0,0.0,1.0,10.0,0.0,0.0,0.0,0.0,0.0,0.0,-0.01098,0.025986,0.991372,-0.56,0.28,0.0,3.32,3.32,3.32,3.31,3.31,3.31,3.3,3.32,3.32,3.32,3.32,3.32,3.3,3.32,3.3,3.31,3.32,3.32,3.32,3.32,3.33,3.33,3.33,3.32,3.33,3.3,79.6,0.0,1.0,0.0,0.0,1.0,2858449
1765221363541,0.0,0.0,1.0,10.0,0.0,0.0,0.0,0.0,0.0,0.0,-0.009271999999999999,0.026595999999999998,0.994544,-0.56,0.28,0.0,3.32,3.32,3.32,3.31,3.31,3.31,3.3,3.32,3.32,3.32,3.32,3.32,3.3,3.32,3.3,3.31,3.32,3.32,3.32,3.32,3.33,3.33,3.33,3.32,3.33,3.3,79.6,0.0,1.0,0.0,1.0,1.0,2858515
1765221363575,0.0,0.0,1.0,10.0,0.0,0.0,0.0,0.0,0.0,0.0,-0.009271999999999999,0.026595999999999998,0.994544,-0.49000000000000005,0.42000000000000004,0.0,3.32,3.32,3.32,3.31,3.31,3.31,3.3,3.32,3.32,3.32,3.32,3.32,3.3,3.32,3.3,3.31,3.32,3.32,3.32,3.32,3.33,3.33,3.33,3.32,3.33,3.3,79.6,0.0,1.0,0.0,1.0,1.0,2858549
1765221363606,0.0,0.0,1.0,10.0,0.0,0.0,0.0,0.0,0.0,0.0,-0.009271999999999999,0.026595999999999998,0.994544,-0.49000000000000005,0.42000000000000004,0.0,3.32,3.32,3.32,3.31,3.31,3.31,3.3,3.32,3.32,3.32,3.32,3.32,3.3,3.32,3.3,3.31,3.32,3.32,3.32,3.32,3.33,3.33,3.33,3.32,3.33,3.3,79.6,0.0,1.0,0.0,1.0,1.0,2858580
1765221363624,0.0,0.0,1.0,10.0,0.0,0.0,0.0,0.0,0.0,0.0,-0.009271999999999999,0.026595999999999998,0.994544,-0.49000000000000005,0.42000000000000004,0.0,3.32,3.32,3.32,3.31,3.31,3.31,3.3,3.32,3.32,3.32,3.32,3.32,3.3,3.32,3.3,3.31,3.32,3.32,3.32,3.32,3.33,3.33,3.33,3.32,3.33,3.3,79.6,0.0,1.0,0.0,1.0,1.0,2858598
1765221363641,0.0,0.0,1.0,10.0,0.0,0.0,0.0,0.0,0.0,0.0,-0.009271999999999999,0.026595999999999998,0.994544,-0.49000000000000005,0.42000000000000004,0.0,3.32,3.32,3.32,3.31,3.31,3.31,3.3,3.32,3.32,3.32,3.32,3.32,3.3,3.32,3.3,3.31,3.32,3.32,3.32,3.32,3.33,3.33,3.33,3.32,3.33,3.3,79.6,0.0,1.0,0.0,1.0,1.0,2858615
1765221363657,0.0,0.0,1.0,10.0,0.0,0.0,0.0,0.0,0.0,0.0,-0.009271999999999999,0.026595999999999998,0.994544,-0.49000000000000005,0.42000000000000004,0.0,3.32,3.32,3.32,3.31,3.31,3.31,3.3,3.32,3.32,3.32,3.32,3.32,3.3,3.32,3.3,3.31,3.32,3.32,3.32,3.32,3.33,3.33,3.33,3.32,3.33,3.3,79.6,0.0,1.0,0.0,1.0,1.0,2858631
1765221363674,0.0,0.0,1.0,10.0,0.0,0.0,0.0,0.0,0.0,0.0,-0.011467999999999999,0.026108,0.99247,-0.49000000000000005,0.42000000000000004,0.0,3.32,3.32,3.32,3.31,3.31,3.31,3.3,3.32,3.32,3.32,3.32,3.32,3.3,3.32,3.3,3.31,3.32,3.32,3.32,3.32,3.33,3.33,3.33,3.32,3.33,3.3,79.6,0.0,1.0,0.0,1.0,1.0,2858648
1765221363690,0.0,0.0,1.0,10.0,0.0,0.0,0.0,0.0,0.0,0.0,-0.011467999999999999,0.026108,0.99247,-0.49000000000000005,0.42000000000000004,0.0,3.32,3.32,3.32,3.31,3.31,3.31,3.3,3.32,3.32,3.32,3.32,3.32,3.3,3.32,3.3,3.31,3.32,3.32,3.32,3.32,3.33,3.33,3.33,3.32,3.33,3.3,79.6,0.0,1.0,0.0,1.0,1.0,2858664
1765221363724,0.0,0.0,1.0,10.0,0.0,0.0,0.0,0.0,0.0,0.0,-0.011467999999999999,0.026108,0.99247,-0.56,0.35000000000000003,0.0,3.32,3.32,3.32,3.31,3.31,3.31,3.3,3.32,3.32,3.32,3.32,3.32,3.3,3.32,3.3,3.31,3.32,3.32,3.32,3.32,3.33,3.33,3.33,3.32,3.33,3.3,79.6,0.0,1.0,0.0,1.0,1.0,2858698
1765221363758,0.0,0.0,1.0,10.0,0.0,0.0,0.0,0.0,0.0,0.0,-0.011467999999999999,0.026108,0.99247,-0.56,0.35000000000000003,0.0,3.32,3.32,3.32,3.31,3.31,3.31,3.3,3.32,3.32,3.32,3.32,3.32,3.3,3.32,3.3,3.31,3.32,3.32,3.32,3.32,3.33,3.33,3.33,3.32,3.33,3.3,79.6,0.0,1.0,0.0,1.0,1.0,2858732
1765221363807,0.0,0.0,1.0,10.0,0.0,0.0,0.0,0.0,0.0,0.0,-0.011467999999999999,0.026108,0.99247,-0.56,0.35000000000000003,0.0,3.32,3.32,3.32,3.31,3.31,3.31,3.3,3.32,3.32,3.32,3.32,3.32,3.3,3.32,3.3,3.31,3.32,3.32,3.32,3.32,3.33,3.33,3.33,3.32,3.33,3.3,79.6,0.0,1.0,0.0,1.0,1.0,2858781
1765221363858,0.0,0.0,1.0,10.0,0.0,0.0,0.0,0.0,0.0,0.0,-0.00976,0.026108,0.993202,-0.56,0.35000000000000003,0.0,3.32,3.32,3.32,3.31,3.31,3.31,3.3,3.32,3.32,3.32,3.32,3.32,3.3,3.32,3.3,3.31,3.32,3.32,3.32,3.32,3.33,3.33,3.33,3.32,3.33,3.3,79.6,0.0,1.0,0.0,1.0,1.0,2858832
1765221363875,0.0,0.0,1.0,10.0,0.0,0.0,0.0,0.0,0.0,0.0,-0.00976,0.026108,0.993202,-0.56,0.35000000000000003,0.0,3.32,3.32,3.32,3.31,3.31,3.31,3.3,3.32,3.32,3.32,3.32,3.32,3.3,3.32,3.3,3.31,3.32,3.32,3.32,3.32,3.33,3.33,3.33,3.32,3.33,3.3,79.6,0.0,1.0,0.0,1.0,1.0,2858849
1765221363909,0.0,0.0,1.0,10.0,0.0,0.0,0.0,0.0,0.0,0.0,-0.00976,0.026108,0.993202,-0.56,0.28,-0.07,3.32,3.32,3.32,3.31,3.31,3.31,3.3,3.32,3.32,3.32,3.32,3.32,3.3,3.32,3.3,3.31,3.32,3.32,3.32,3.32,3.33,3.33,3.33,3.32,3.33,3.3,79.6,0.0,1.0,0.0,1.0,1.0,2858883
1765221364289,0.0,0.0,1.0,10.0,0.0,0.0,0.0,0.0,0.0,0.0,-0.010735999999999999,0.025986,0.992714,-0.56,0.21000000000000002,0.0,3.32,3.32,3.32,3.31,3.31,3.31,3.3,3.32,3.32,3.32,3.32,3.32,3.3,3.32,3.3,3.31,3.32,3.32,3.32,3.32,3.33,3.33,3.33,3.32,3.33,3.3,79.6,0.0,1.0,0.0,1.0,1.0,2859263
1765221364307,0.0,0.0,1.0,10.0,0.0,0.0,0.0,0.0,0.0,0.0,-0.00976,0.026108,0.991982,-0.6300000000000001,0.28,0.0,3.32,3.32,3.32,3.31,3.31,3.31,3.3,3.32,3.32,3.32,3.32,3.32,3.3,3.32,3.3,3.31,3.32,3.32,3.32,3.32,3.33,3.33,3.33,3.32,3.33,3.3,79.6,0.0,1.0,0.0,1.0,1.0,2859281
1765221364359,0.0,0.0,1.0,10.0,0.0,0.0,0.0,0.0,0.0,0.0,-0.00976,0.026108,0.991982,-0.6300000000000001,0.28,0.0,3.32,3.32,3.32,3.31,3.31,3.31,3.3,3.32,3.32,3.32,3.32,3.32,3.3,3.32,3.3,3.31,3.32,3.32,3.32,3.32,3.33,3.33,3.33,3.32,3.33,3.3,79.6,0.0,1.0,0.0,1.0,1.0,2859333
1765221364374,0.0,0.0,1.0,10.0,0.0,0.0,0.0,0.0,0.0,0.0,-0.00976,0.026108,0.991982,-0.6300000000000001,0.28,0.0,3.32,3.32,3.32,3.31,3.31,3.31,3.3,3.32,3.32,3.32,3.32,3.32,3.3,3.32,3.3,3.31,3.32,3.32,3.32,3.32,3.33,3.33,3.33,3.32,3.33,3.3,79.6,0.0,1.0,0.0,1.0,1.0,2859348
1765221364392,0.0,0.0,1.0,10.0,0.0,0.0,0.0,0.0,0.0,0.0,-0.00976,0.026108,0.991982,-0.6300000000000001,0.28,0.0,3.32,3.32,3.32,3.31,3.31,3.31,3.3,3.32,3.32,3.32,3.32,3.32,3.3,3.32,3.3,3.31,3.32,3.32,3.32,3.32,3.33,3.33,3.33,3.32,3.33,3.3,79.6,0.0,1.0,0.0,1.0,1.0,2859366
1765221364425,0.0,0.0,1.0,10.0,0.0,0.0,0.0,0.0,0.0,0.0,-0.00976,0.026108,0.991982,-0.6300000000000001,0.28,0.0,3.32,3.32,3.32,3.31,3.31,3.31,3.3,3.32,3.32,3.32,3.32,3.32,3.3,3.32,3.3,3.31,3.32,3.32,3.32,3.32,3.33,3.33,3.33,3.32,3.33,3.3,79.6,0.0,1.0,0.0,1.0,1.0,2859399
1765221364441,0.0,0.0,1.0,10.0,0.0,0.0,0.0,0.0,0.0,0.0,-0.00976,0.026108,0.991982,-0.6300000000000001,0.35000000000000003,-0.07,3.32,3.32,3.32,3.31,3.31,3.31,3.3,3.32,3.32,3.32,3.32,3.32,3.3,3.32,3.3,3.31,3.32,3.32,3.32,3.32,3.33,3.33,3.33,3.32,3.33,3.3,79.6,0.0,1.0,0.0,1.0,1.0,2859415
1765221364475,0.0,0.0,1.0,10.0,0.0,0.0,0.0,0.0,0.0,0.0,-0.00976,0.026108,0.991982,-0.6300000000000001,0.35000000000000003,-0.07,3.32,3.32,3.32,3.31,3.31,3.31,3.3,3.32,3.32,3.32,3.32,3.32,3.3,3.32,3.3,3.31,3.32,3.32,3.32,3.32,3.33,3.33,3.33,3.32,3.33,3.3,79.6,0.0,1.0,0.0,1.0,1.0,2859449
1765221364492,0.0,0.0,1.0,10.0,0.0,0.0,0.0,0.0,0.0,0.0,-0.00976,0.026108,0.991982,-0.6300000000000001,0.35000000000000003,-0.07,3.32,3.32,3.32,3.31,3.31,3.31,3.3,3.32,3.32,3.32,3.32,3.32,3.3,3.32,3.3,3.31,3.32,3.32,3.32,3.32,3.33,3.33,3.33,3.32,3.33,3.3,79.6,0.0,1.0,0.0,1.0,1.0,2859466
1765221364508,0.0,0.0,1.0,10.0,0.0,0.0,0.0,0.0,0.0,0.0,-0.00976,0.026108,0.991982,-0.6300000000000001,0.35000000000000003,-0.07,3.32,3.32,3.32,3.31,3.31,3.31,3.3,3.32,3.32,3.32,3.32,3.32,3.3,3.32,3.3,3.31,3.32,3.32,3.32,3.32,3.33,3.33,3.33,3.32,3.33,3.3,79.6,0.0,1.0,0.0,1.0,1.0,2859482
1765221364557,0.0,0.0,1.0,10.0,0.0,0.0,0.0,0.0,0.0,0.0,-0.00976,0.026108,0.991982,-0.6300000000000001,0.35000000000000003,-0.07,3.32,3.32,3.32,3.31,3.31,3.31,3.3,3.32,3.32,3.32,3.32,3.32,3.3,3.32,3.3,3.31,3.32,3.32,3.32,3.32,3.33,3.33,3.33,3.32,3.33,3.3,79.6,0.0,1.0,0.0,1.0,1.0,2859531
1765221364608,0.0,0.0,1.0,10.0,0.0,0.0,0.0,0.0,0.0,0.0,-0.00976,0.026108,0.991982,-0.6300000000000001,0.35000000000000003,-0.07,3.32,3.32,3.32,3.31,3.31,3.31,3.3,3.32,3.32,3.32,3.32,3.32,3.3,3.32,3.3,3.31,3.32,3.32,3.32,3.32,3.33,3.33,3.33,3.32,3.33,3.3,79.6,0.0,1.0,0.0,1.0,1.0,2859582
1765221364673,0.0,0.0,1.0,10.0,0.0,0.0,0.0,0.0,0.0,0.0,-0.010735999999999999,0.025863999999999998,0.992714,-0.6300000000000001,0.35000000000000003,-0.07,3.32,3.32,3.32,3.31,3.31,3.31,3.3,3.32,3.32,3.32,3.32,3.32,3.3,3.32,3.3,3.31,3.32,3.32,3.32,3.32,3.33,3.33,3.33,3.32,3.33,3.3,79.6,0.0,1.0,0.0,1.0,1.0,2859647
1765221364690,0.0,0.0,1.0,10.0,0.0,0.0,0.0,0.0,0.0,0.0,-0.010735999999999999,0.025863999999999998,0.992714,-0.6300000000000001,0.35000000000000003,0.0,3.32,3.32,3.32,3.31,3.31,3.31,3.3,3.32,3.32,3.32,3.32,3.32,3.3,3.32,3.3,3.31,3.32,3.32,3.32,3.32,3.33,3.33,3.33,3.32,3.33,3.3,79.6,0.0,1.0,0.0,1.0,1.0,2859664
1765221364740,0.0,0.0,1.0,10.0,0.0,0.0,0.0,0.0,0.0,0.0,-0.009271999999999999,0.027084,0.991738,-0.6300000000000001,0.35000000000000003,0.0,3.32,3.32,3.32,3.31,3.31,3.31,3.3,3.32,3.32,3.32,3.32,3.32,3.3,3.32,3.3,3.31,3.32,3.32,3.32,3.32,3.33,3.33,3.33,3.32,3.33,3.3,79.6,0.0,1.0,0.0,1.0,1.0,2859714
1765221364757,0.0,0.0,1.0,10.0,0.0,0.0,0.0,0.0,0.0,0.0,-0.009271999999999999,0.027084,0.991738,-0.6300000000000001,0.35000000000000003,0.0,3.32,3.32,3.32,3.31,3.31,3.31,3.3,3.32,3.32,3.32,3.32,3.32,3.3,3.32,3.3,3.31,3.32,3.32,3.32,3.32,3.33,3.33,3.33,3.32,3.33,3.3,79.6,0.0,1.0,0.0,1.0,1.0,2859731
1765221364774,0.0,0.0,1.0,10.0,0.0,0.0,0.0,0.0,0.0,0.0,-0.009271999999999999,0.027084,0.991738,-0.6300000000000001,0.35000000000000003,0.0,3.32,3.32,3.32,3.31,3.31,3.31,3.3,3.32,3.32,3.32,3.32,3.32,3.3,3.32,3.3,3.31,3.32,3.32,3.32,3.32,3.33,3.33,3.33,3.32,3.33,3.3,79.6,0.0,1.0,0.0,1.0,1.0,2859748
1765221364792,0.0,0.0,1.0,10.0,0.0,0.0,0.0,0.0,0.0,0.0,-0.009271999999999999,0.027084,0.991738,-0.6300000000000001,0.35000000000000003,0.0,3.32,3.32,3.32,3.31,3.31,3.31,3.3,3.32,3.32,3.32,3.32,3.32,3.3,3.32,3.3,3.31,3.32,3.32,3.32,3.32,3.33,3.33,3.33,3.32,3.33,3.3,79.6,0.0,1.0,0.0,1.0,1.0,2859766
1765221364808,0.0,0.0,1.0,10.0,0.0,0.0,0.0,0.0,0.0,0.0,-0.009271999999999999,0.027084,0.991738,-0.56,0.35000000000000003,0.0,3.32,3.32,3.32,3.31,3.31,3.31,3.3,3.32,3.32,3.32,3.32,3.32,3.3,3.32,3.3,3.31,3.32,3.32,3.32,3.32,3.33,3.33,3.33,3.32,3.33,3.3,79.6,0.0,1.0,0.0,1.0,1.0,2859782
1765221364825,0.0,0.0,1.0,10.0,0.0,0.0,0.0,0.0,0.0,0.0,-0.009271999999999999,0.027084,0.991738,-0.56,0.35000000000000003,0.0,3.32,3.32,3.32,3.31,3.31,3.31,3.3,3.32,3.32,3.32,3.32,3.32,3.3,3.32,3.3,3.31,3.32,3.32,3.32,3.32,3.33,3.33,3.33,3.32,3.33,3.3,79.6,0.0,1.0,0.0,1.0,1.0,2859799
1765221364890,0.0,0.0,1.0,10.0,0.0,0.0,0.0,0.0,0.0,0.0,-0.009271999999999999,0.027084,0.991738,-0.56,0.35000000000000003,0.0,3.32,3.32,3.32,3.31,3.31,3.31,3.3,3.32,3.32,3.32,3.32,3.32,3.3,3.32,3.3,3.31,3.32,3.32,3.32,3.32,3.33,3.33,3.33,3.32,3.33,3.3,79.6,0.0,1.0,0.0,1.0,1.0,2859864
1765221364974,0.0,0.0,1.0,10.0,0.0,0.0,0.0,0.0,0.0,0.0,-0.00915,0.026595999999999998,0.993324,-0.6300000000000001,0.35000000000000003,0.0,3.32,3.32,3.32,3.31,3.31,3.31,3.3,3.32,3.32,3.32,3.32,3.32,3.3,3.32,3.3,3.31,3.32,3.32,3.32,3.32,3.33,3.33,3.33,3.32,3.33,3.3,79.6,0.0,1.0,0.0,1.0,1.0,2859948
1765221365009,0.0,0.0,1.0,10.0,0.0,0.0,0.0,0.0,0.0,0.0,-0.00915,0.026595999999999998,0.993324,-0.6300000000000001,0.35000000000000003,0.0,3.32,3.32,3.32,3.31,3.31,3.31,3.3,3.32,3.32,3.32,3.32,3.32,3.3,3.32,3.3,3.31,3.32,3.32,3.32,3.32,3.33,3.33,3.33,3.32,3.33,3.3,79.6,0.0,1.0,0.0,1.0,1.0,2859983
1765221365025,0.0,0.0,1.0,10.0,0.0,0.0,0.0,0.0,0.0,0.0,-0.00915,0.026595999999999998,0.993324,-0.6300000000000001,0.35000000000000003,0.0,3.32,3.32,3.32,3.31,3.31,3.31,3.3,3.32,3.32,3.32,3.32,3.32,3.3,3.32,3.3,3.31,3.32,3.32,3.32,3.32,3.33,3.33,3.33,3.32,3.33,3.3,79.6,0.0,1.0,0.0,1.0,1.0,2859999
1765221365092,0.0,0.0,1.0,10.0,0.0,0.0,0.0,0.0,0.0,0.0,-0.00976,0.02623,0.992104,-0.6300000000000001,0.35000000000000003,0.0,3.32,3.32,3.32,3.31,3.31,3.31,3.3,3.32,3.32,3.32,3.32,3.32,3.3,3.32,3.3,3.31,3.32,3.32,3.32,3.32,3.33,3.33,3.33,3.32,3.33,3.3,79.6,0.0,1.0,0.0,1.0,1.0,2860066
1765221365125,0.0,0.0,1.0,10.0,0.0,0.0,0.0,0.0,0.0,0.0,-0.00976,0.02623,0.992104,-0.6300000000000001,0.28,0.0,3.32,3.32,3.32,3.31,3.31,3.31,3.3,3.32,3.32,3.32,3.32,3.32,3.3,3.32,3.3,3.31,3.32,3.32,3.32,3.32,3.33,3.33,3.33,3.32,3.33,3.3,79.6,0.0,1.0,0.0,1.0,1.0,2860099
1765221365159,0.0,0.0,1.0,10.0,0.0,0.0,0.0,0.0,0.0,0.0,-0.00976,0.02623,0.992104,-0.6300000000000001,0.28,0.0,3.32,3.32,3.32,3.31,3.31,3.31,3.3,3.32,3.32,3.32,3.32,3.32,3.3,3.32,3.3,3.31,3.32,3.32,3.32,3.32,3.33,3.33,3.33,3.32,3.33,3.3,79.6,0.0,1.0,0.0,1.0,1.0,2860133
1765221365174,0.0,0.0,1.0,10.0,0.0,0.0,0.0,0.0,0.0,0.0,-0.00976,0.02623,0.992104,-0.6300000000000001,0.28,0.0,3.32,3.32,3.32,3.31,3.31,3.31,3.3,3.32,3.32,3.32,3.32,3.32,3.3,3.32,3.3,3.31,3.32,3.32,3.32,3.32,3.33,3.33,3.33,3.32,3.33,3.3,79.6,0.0,1.0,0.0,1.0,1.0,2860148
1765221365191,0.0,0.0,1.0,10.0,0.0,0.0,0.0,0.0,0.0,0.0,-0.00976,0.02623,0.992104,-0.6300000000000001,0.28,0.0,3.32,3.32,3.32,3.31,3.31,3.31,3.3,3.32,3.32,3.32,3.32,3.32,3.3,3.32,3.3,3.31,3.32,3.32,3.32,3.32,3.33,3.33,3.33,3.32,3.33,3.3,79.6,0.0,1.0,0.0,1.0,1.0,2860165
1765221365208,0.0,0.0,1.0,10.0,0.0,0.0,0.0,0.0,0.0,0.0,-0.00976,0.02623,0.992104,-0.6300000000000001,0.28,0.0,3.32,3.32,3.32,3.31,3.31,3.31,3.3,3.32,3.32,3.32,3.32,3.32,3.3,3.32,3.3,3.31,3.32,3.32,3.32,3.32,3.33,3.33,3.33,3.32,3.33,3.3,79.6,0.0,1.0,0.0,1.0,1.0,2860182
1765221365225,0.0,0.0,1.0,10.0,0.0,0.0,0.0,0.0,0.0,0.0,-0.00976,0.02623,0.992104,-0.6300000000000001,0.28,0.0,3.32,3.32,3.32,3.31,3.31,3.31,3.3,3.32,3.32,3.32,3.32,3.32,3.3,3.32,3.3,3.31,3.32,3.32,3.32,3.32,3.33,3.33,3.33,3.32,3.33,3.3,79.6,0.0,1.0,0.0,1.0,1.0,2860199
1765221365258,0.0,0.0,1.0,10.0,0.0,0.0,0.0,0.0,0.0,0.0,-0.00976,0.02623,0.992104,-0.6300000000000001,0.28,0.0,3.32,3.32,3.32,3.31,3.31,3.31,3.3,3.32,3.32,3.32,3.32,3.32,3.3,3.32,3.3,3.31,3.32,3.32,3.32,3.32,3.33,3.33,3.33,3.32,3.33,3.3,79.6,0.0,1.0,0.0,1.0,1.0,2860232
1765221365309,0.0,0.0,1.0,10.0,0.0,0.0,0.0,0.0,0.0,0.0,-0.009271999999999999,0.02684,0.9922259999999999,-0.6300000000000001,0.28,0.0,3.32,3.32,3.32,3.31,3.31,3.31,3.3,3.32,3.32,3.32,3.32,3.32,3.3,3.32,3.3,3.31,3.32,3.32,3.32,3.32,3.33,3.33,3.33,3.32,3.33,3.3,79.6,0.0,1.0,0.0,1.0,1.0,2860283
1765221365373,0.0,0.0,1.0,10.0,0.0,0.0,0.0,0.0,0.0,0.0,-0.009271999999999999,0.02684,0.9922259999999999,-0.56,0.42000000000000004,0.0,3.32,3.32,3.32,3.31,3.31,3.31,3.3,3.32,3.32,3.32,3.32,3.32,3.3,3.32,3.3,3.31,3.32,3.32,3.32,3.32,3.33,3.33,3.33,3.32,3.33,3.3,79.6,0.0,1.0,0.0,1.0,1.0,2860347
1765221365424,0.0,0.0,1.0,10.0,0.0,0.0,0.0,0.0,0.0,0.0,-0.010248,0.026108,0.993812,-0.56,0.42000000000000004,0.0,3.32,3.32,3.32,3.31,3.31,3.31,3.3,3.32,3.32,3.32,3.32,3.32,3.3,3.32,3.3,3.31,3.32,3.32,3.32,3.32,3.33,3.33,3.33,3.32,3.33,3.3,79.6,0.0,1.0,0.0,1.0,1.0,2860398
1765221365441,0.0,0.0,1.0,10.0,0.0,0.0,0.0,0.0,0.0,0.0,-0.010248,0.026108,0.993812,-0.56,0.35000000000000003,0.0,3.32,3.32,3.32,3.31,3.31,3.31,3.3,3.32,3.32,3.32,3.32,3.32,3.3,3.32,3.3,3.31,3.32,3.32,3.32,3.32,3.33,3.33,3.33,3.32,3.33,3.3,79.6,0.0,1.0,0.0,1.0,1.0,2860415
1765221365473,0.0,0.0,1.0,10.0,0.0,0.0,0.0,0.0,0.0,0.0,-0.010248,0.026108,0.993812,-0.56,0.35000000000000003,0.0,3.32,3.32,3.32,3.31,3.31,3.31,3.3,3.32,3.32,3.32,3.32,3.32,3.3,3.32,3.3,3.31,3.32,3.32,3.32,3.32,3.33,3.33,3.33,3.32,3.33,3.3,79.6,0.0,1.0,0.0,1.0,1.0,2860447
1765221365509,0.0,0.0,1.0,10.0,0.0,0.0,0.0,0.0,0.0,0.0,-0.010248,0.026108,0.993812,-0.56,0.35000000000000003,0.0,3.32,3.32,3.32,3.31,3.31,3.31,3.3,3.32,3.32,3.32,3.32,3.32,3.3,3.32,3.3,3.31,3.32,3.32,3.32,3.32,3.33,3.33,3.33,3.32,3.33,3.3,79.6,0.0,1.0,0.0,1.0,1.0,2860483
1765221365523,0.0,0.0,1.0,10.0,0.0,0.0,0.0,0.0,0.0,0.0,-0.010248,0.026108,0.993812,-0.56,0.35000000000000003,0.0,3.32,3.32,3.32,3.31,3.31,3.31,3.3,3.32,3.32,3.32,3.32,3.32,3.3,3.32,3.3,3.31,3.32,3.32,3.32,3.32,3.33,3.33,3.33,3.32,3.33,3.3,79.6,0.0,1.0,0.0,1.0,1.0,2860497
1765221365540,0.0,0.0,1.0,10.0,0.0,0.0,0.0,0.0,0.0,0.0,-0.010248,0.026108,0.993812,-0.56,0.35000000000000003,0.0,3.32,3.32,3.32,3.31,3.31,3.31,3.3,3.32,3.32,3.32,3.32,3.32,3.3,3.32,3.3,3.31,3.32,3.32,3.32,3.32,3.33,3.33,3.33,3.32,3.33,3.3,79.6,0.0,1.0,0.0,1.0,1.0,2860514
1765221365607,0.0,0.0,1.0,10.0,0.0,0.0,0.0,0.0,0.0,0.0,-0.010248,0.026108,0.993812,-0.56,0.35000000000000003,0.0,3.32,3.32,3.32,3.31,3.31,3.31,3.3,3.32,3.32,3.32,3.32,3.32,3.3,3.32,3.3,3.31,3.32,3.32,3.32,3.32,3.33,3.33,3.33,3.32,3.33,3.3,79.6,0.0,1.0,0.0,1.0,1.0,2860581
1765221365640,0.0,0.0,1.0,10.0,0.0,0.0,0.0,0.0,0.0,0.0,-0.011712,0.02623,0.991128,-0.56,0.35000000000000003,0.0,3.32,3.32,3.32,3.31,3.31,3.31,3.3,3.32,3.32,3.32,3.32,3.32,3.3,3.32,3.3,3.31,3.32,3.32,3.32,3.32,3.33,3.33,3.33,3.32,3.33,3.3,79.6,0.0,1.0,0.0,1.0,1.0,2860614
1765221365675,0.0,0.0,1.0,10.0,0.0,0.0,0.0,0.0,0.0,0.0,-0.011712,0.02623,0.991128,-0.56,0.28,0.07,3.32,3.32,3.32,3.31,3.31,3.31,3.3,3.32,3.32,3.32,3.32,3.32,3.3,3.32,3.3,3.31,3.32,3.32,3.32,3.32,3.33,3.33,3.33,3.32,3.33,3.3,79.6,0.0,1.0,0.0,1.0,1.0,2860649
1765221365724,0.0,0.0,1.0,10.0,0.0,0.0,0.0,0.0,0.0,0.0,-0.011712,0.02623,0.991128,-0.56,0.28,0.07,3.32,3.32,3.32,3.31,3.31,3.31,3.3,3.32,3.32,3.32,3.32,3.32,3.3,3.32,3.3,3.31,3.32,3.32,3.32,3.32,3.33,3.33,3.33,3.32,3.33,3.3,79.6,0.0,1.0,0.0,1.0,1.0,2860698
1765221365791,0.0,0.0,1.0,10.0,0.0,0.0,0.0,0.0,0.0,0.0,-0.009394,0.026352,0.992592,-0.56,0.28,0.07,3.32,3.32,3.32,3.31,3.31,3.31,3.3,3.32,3.32,3.32,3.32,3.32,3.3,3.32,3.3,3.31,3.32,3.32,3.32,3.32,3.33,3.33,3.33,3.32,3.33,3.3,79.6,0.0,1.0,0.0,1.0,1.0,2860765
1765221365824,0.0,0.0,1.0,10.0,0.0,0.0,0.0,0.0,0.0,0.0,-0.009394,0.026352,0.992592,-0.7000000000000001,0.35000000000000003,-0.07,3.32,3.32,3.32,3.31,3.31,3.31,3.3,3.32,3.32,3.32,3.32,3.32,3.3,3.32,3.3,3.31,3.32,3.32,3.32,3.32,3.33,3.33,3.33,3.32,3.33,3.3,79.6,0.0,1.0,0.0,1.0,1.0,2860798
1765221365857,0.0,0.0,1.0,10.0,0.0,0.0,0.0,0.0,0.0,0.0,-0.009394,0.026352,0.992592,-0.7000000000000001,0.35000000000000003,-0.07,3.32,3.32,3.32,3.31,3.31,3.31,3.3,3.32,3.32,3.32,3.32,3.32,3.3,3.32,3.3,3.31,3.32,3.32,3.32,3.32,3.33,3.33,3.33,3.32,3.33,3.3,79.6,0.0,1.0,0.0,1.0,1.0,2860831
1765221365874,0.0,0.0,1.0,10.0,0.0,0.0,0.0,0.0,0.0,0.0,-0.009394,0.026352,0.992592,-0.7000000000000001,0.35000000000000003,-0.07,3.32,3.32,3.32,3.31,3.31,3.31,3.3,3.32,3.32,3.32,3.32,3.32,3.3,3.32,3.3,3.31,3.32,3.32,3.32,3.32,3.33,3.33,3.33,3.32,3.33,3.3,79.6,0.0,1.0,0.0,1.0,1.0,2860848
1765221365890,0.0,0.0,1.0,10.0,0.0,0.0,0.0,0.0,0.0,0.0,-0.009394,0.026352,0.992592,-0.7000000000000001,0.35000000000000003,-0.07,3.32,3.32,3.32,3.31,3.31,3.31,3.3,3.32,3.32,3.32,3.32,3.32,3.3,3.32,3.3,3.31,3.32,3.32,3.32,3.32,3.33,3.33,3.33,3.32,3.33,3.3,79.6,0.0,1.0,0.0,1.0,1.0,2860864
1765221365907,0.0,0.0,1.0,10.0,0.0,0.0,0.0,0.0,0.0,0.0,-0.010735999999999999,0.02562,0.99247,-0.7000000000000001,0.35000000000000003,-0.07,3.32,3.32,3.32,3.31,3.31,3.31,3.3,3.32,3.32,3.32,3.32,3.32,3.3,3.32,3.3,3.31,3.32,3.32,3.32,3.32,3.33,3.33,3.33,3.32,3.33,3.3,79.6,0.0,1.0,0.0,1.0,1.0,2860881
1765221365924,0.0,0.0,1.0,10.0,0.0,0.0,0.0,0.0,0.0,0.0,-0.010735999999999999,0.02562,0.99247,-0.7000000000000001,0.35000000000000003,-0.07,3.32,3.32,3.32,3.31,3.31,3.31,3.3,3.32,3.32,3.32,3.32,3.32,3.3,3.32,3.3,3.31,3.32,3.32,3.32,3.32,3.33,3.33,3.33,3.32,3.33,3.3,79.6,0.0,1.0,0.0,1.0,1.0,2860898
1765221365942,0.0,0.0,1.0,10.0,0.0,0.0,0.0,0.0,0.0,0.0,-0.010735999999999999,0.02562,0.99247,-0.7000000000000001,0.35000000000000003,-0.07,3.32,3.32,3.32,3.31,3.31,3.31,3.3,3.32,3.32,3.32,3.32,3.32,3.3,3.32,3.3,3.31,3.32,3.32,3.32,3.32,3.33,3.33,3.33,3.32,3.33,3.3,79.6,0.0,1.0,0.0,1.0,1.0,2860916
1765221365958,0.0,0.0,1.0,10.0,0.0,0.0,0.0,0.0,0.0,0.0,-0.010735999999999999,0.02562,0.99247,-0.7000000000000001,0.35000000000000003,-0.07,3.32,3.32,3.32,3.31,3.31,3.31,3.3,3.32,3.32,3.32,3.32,3.32,3.3,3.32,3.3,3.31,3.32,3.32,3.32,3.32,3.33,3.33,3.33,3.32,3.33,3.3,79.6,0.0,1.0,0.0,1.0,1.0,2860932
1765221365974,0.0,0.0,1.0,10.0,0.0,0.0,0.0,0.0,0.0,0.0,-0.010735999999999999,0.02562,0.99247,-0.7000000000000001,0.35000000000000003,-0.07,3.32,3.32,3.32,3.31,3.31,3.31,3.3,3.32,3.32,3.32,3.32,3.32,3.3,3.32,3.3,3.31,3.32,3.32,3.32,3.32,3.33,3.33,3.33,3.32,3.33,3.3,79.6,0.0,1.0,0.0,1.0,1.0,2860948
1765221365991,0.0,0.0,1.0,10.0,0.0,0.0,0.0,0.0,0.0,0.0,-0.010735999999999999,0.02562,0.99247,-0.7000000000000001,0.35000000000000003,-0.07,3.32,3.32,3.32,3.31,3.31,3.31,3.3,3.32,3.32,3.32,3.32,3.32,3.3,3.32,3.3,3.31,3.32,3.32,3.32,3.32,3.33,3.33,3.33,3.32,3.33,3.3,79.6,0.0,1.0,0.0,1.0,1.0,2860965
1765221366024,0.0,0.0,1.0,10.0,0.0,0.0,0.0,0.0,0.0,0.0,-0.010735999999999999,0.02562,0.99247,-0.7000000000000001,0.35000000000000003,-0.07,3.32,3.32,3.32,3.31,3.31,3.31,3.3,3.32,3.32,3.32,3.32,3.32,3.3,3.32,3.3,3.31,3.32,3.32,3.32,3.32,3.33,3.33,3.33,3.32,3.33,3.3,79.6,0.0,1.0,0.0,1.0,1.0,2860998
1765221366041,0.0,0.0,1.0,10.0,0.0,0.0,0.0,0.0,0.0,0.0,-0.010735999999999999,0.02562,0.99247,-0.7000000000000001,0.35000000000000003,-0.07,3.32,3.32,3.32,3.31,3.31,3.31,3.3,3.32,3.32,3.32,3.32,3.32,3.3,3.32,3.3,3.31,3.32,3.32,3.32,3.32,3.33,3.33,3.33,3.32,3.33,3.3,79.6,0.0,1.0,0.0,1.0,1.0,2861015
1765221366058,0.0,0.0,1.0,10.0,0.0,0.0,0.0,0.0,0.0,0.0,-0.010735999999999999,0.02562,0.99247,-0.7000000000000001,0.35000000000000003,-0.07,3.32,3.32,3.32,3.31,3.31,3.31,3.3,3.32,3.32,3.32,3.32,3.32,3.3,3.32,3.3,3.31,3.32,3.32,3.32,3.32,3.33,3.33,3.33,3.32,3.33,3.3,79.6,0.0,1.0,0.0,1.0,1.0,2861032
1765221366108,0.0,0.0,1.0,10.0,0.0,0.0,0.0,0.0,0.0,0.0,-0.010735999999999999,0.02562,0.99247,-0.6300000000000001,0.21000000000000002,0.0,3.32,3.32,3.32,3.31,3.31,3.31,3.3,3.32,3.32,3.32,3.32,3.32,3.3,3.32,3.3,3.31,3.32,3.32,3.32,3.32,3.33,3.33,3.33,3.32,3.33,3.3,79.6,0.0,1.0,0.0,1.0,1.0,2861082
1765221366174,0.0,0.0,1.0,10.0,0.0,0.0,0.0,0.0,0.0,0.0,-0.010492,0.02684,0.9928359999999999,-0.49000000000000005,0.35000000000000003,-0.07,3.32,3.32,3.32,3.31,3.31,3.31,3.3,3.32,3.32,3.32,3.32,3.32,3.3,3.32,3.3,3.31,3.32,3.32,3.32,3.32,3.33,3.33,3.33,3.32,3.33,3.3,79.6,0.0,1.0,0.0,1.0,1.0,2861148
1765221366208,0.0,0.0,1.0,10.0,0.0,0.0,0.0,0.0,0.0,0.0,-0.010492,0.02684,0.9928359999999999,-0.49000000000000005,0.35000000000000003,-0.07,3.32,3.32,3.32,3.31,3.31,3.31,3.3,3.32,3.32,3.32,3.32,3.32,3.3,3.32,3.3,3.31,3.32,3.32,3.32,3.32,3.33,3.33,3.33,3.32,3.33,3.3,79.6,0.0,1.0,0.0,1.0,1.0,2861182
1765221366224,0.0,0.0,1.0,10.0,0.0,0.0,0.0,0.0,0.0,0.0,-0.010492,0.02684,0.9928359999999999,-0.49000000000000005,0.35000000000000003,-0.07,3.32,3.32,3.32,3.31,3.31,3.31,3.3,3.32,3.32,3.32,3.32,3.32,3.3,3.32,3.3,3.31,3.32,3.32,3.32,3.32,3.33,3.33,3.33,3.32,3.33,3.3,79.6,0.0,1.0,0.0,1.0,1.0,2861198
1765221366240,0.0,0.0,1.0,10.0,0.0,0.0,0.0,0.0,0.0,0.0,-0.010492,0.02684,0.9928359999999999,-0.49000000000000005,0.35000000000000003,-0.07,3.32,3.32,3.32,3.31,3.31,3.31,3.3,3.32,3.32,3.32,3.32,3.32,3.3,3.32,3.3,3.31,3.32,3.32,3.32,3.32,3.33,3.33,3.33,3.32,3.33,3.3,79.6,0.0,1.0,0.0,1.0,1.0,2861214
1765221366274,0.0,0.0,1.0,10.0,0.0,0.0,0.0,0.0,0.0,0.0,-0.010492,0.02684,0.9928359999999999,-0.7000000000000001,0.35000000000000003,-0.07,3.32,3.32,3.32,3.31,3.31,3.31,3.3,3.32,3.32,3.32,3.32,3.32,3.3,3.32,3.3,3.31,3.32,3.32,3.32,3.32,3.33,3.33,3.33,3.32,3.33,3.3,79.6,0.0,1.0,0.0,1.0,1.0,2861248
1765221366307,0.0,0.0,1.0,10.0,0.0,0.0,0.0,0.0,0.0,0.0,-0.008662,0.026595999999999998,0.991372,-0.7000000000000001,0.35000000000000003,-0.07,3.32,3.32,3.32,3.31,3.31,3.31,3.3,3.32,3.32,3.32,3.32,3.32,3.3,3.32,3.3,3.31,3.32,3.32,3.32,3.32,3.33,3.33,3.33,3.32,3.33,3.3,79.6,0.0,1.0,0.0,1.0,1.0,2861281
1765221366341,0.0,0.0,1.0,10.0,0.0,0.0,0.0,0.0,0.0,0.0,-0.008662,0.026595999999999998,0.991372,-0.7000000000000001,0.35000000000000003,-0.07,3.32,3.32,3.32,3.31,3.31,3.31,3.3,3.32,3.32,3.32,3.32,3.32,3.3,3.32,3.3,3.31,3.32,3.32,3.32,3.32,3.33,3.33,3.33,3.32,3.33,3.3,79.6,0.0,1.0,0.0,1.0,1.0,2861315
1765221366357,0.0,0.0,1.0,10.0,0.0,0.0,0.0,0.0,0.0,0.0,-0.008662,0.026595999999999998,0.991372,-0.56,0.28,0.0,3.32,3.32,3.32,3.31,3.31,3.31,3.3,3.32,3.32,3.32,3.32,3.32,3.3,3.32,3.3,3.31,3.32,3.32,3.32,3.32,3.33,3.33,3.33,3.32,3.33,3.3,79.6,0.0,1.0,0.0,1.0,1.0,2861331
1765221366374,0.0,0.0,1.0,10.0,0.0,0.0,0.0,0.0,0.0,0.0,-0.008662,0.026595999999999998,0.991372,-0.56,0.28,0.0,3.32,3.32,3.32,3.31,3.31,3.31,3.3,3.32,3.32,3.32,3.32,3.32,3.3,3.32,3.3,3.31,3.32,3.32,3.32,3.32,3.33,3.33,3.33,3.32,3.33,3.3,79.6,0.0,1.0,0.0,1.0,1.0,2861348
1765221366391,0.0,0.0,1.0,10.0,0.0,0.0,0.0,0.0,0.0,0.0,-0.008662,0.026595999999999998,0.991372,-0.56,0.28,0.0,3.32,3.32,3.32,3.31,3.31,3.31,3.3,3.32,3.32,3.32,3.32,3.32,3.3,3.32,3.3,3.31,3.32,3.32,3.32,3.32,3.33,3.33,3.33,3.32,3.33,3.3,79.6,0.0,1.0,0.0,1.0,1.0,2861365
1765221366424,0.0,0.0,1.0,10.0,0.0,0.0,0.0,0.0,0.0,0.0,-0.008662,0.026595999999999998,0.991372,-0.56,0.28,0.0,3.32,3.32,3.32,3.31,3.31,3.31,3.3,3.32,3.32,3.32,3.32,3.32,3.3,3.32,3.3,3.31,3.32,3.32,3.32,3.32,3.33,3.33,3.33,3.32,3.33,3.3,79.6,0.0,1.0,0.0,1.0,1.0,2861398
1765221366475,0.0,0.0,1.0,10.0,0.0,0.0,0.0,0.0,0.0,0.0,-0.008662,0.026595999999999998,0.991372,-0.56,0.28,0.0,3.32,3.32,3.32,3.31,3.31,3.31,3.3,3.32,3.32,3.32,3.32,3.32,3.3,3.32,3.3,3.31,3.32,3.32,3.32,3.32,3.33,3.33,3.33,3.32,3.33,3.3,79.6,0.0,1.0,0.0,1.0,1.0,2861449
1765221366542,0.0,0.0,1.0,10.0,0.0,0.0,0.0,0.0,0.0,0.0,-0.009516,0.025376,0.99308,-0.56,0.28,0.0,3.32,3.32,3.32,3.31,3.31,3.31,3.3,3.32,3.32,3.32,3.32,3.32,3.3,3.32,3.3,3.31,3.32,3.32,3.32,3.32,3.33,3.33,3.33,3.32,3.33,3.3,79.6,0.0,1.0,0.0,1.0,1.0,2861516
1765221366558,0.0,0.0,1.0,10.0,0.0,0.0,0.0,0.0,0.0,0.0,-0.009516,0.025376,0.99308,-0.6300000000000001,0.21000000000000002,0.0,3.32,3.32,3.32,3.31,3.31,3.31,3.3,3.32,3.32,3.32,3.32,3.32,3.3,3.32,3.3,3.31,3.32,3.32,3.32,3.32,3.33,3.33,3.33,3.32,3.33,3.3,79.6,0.0,1.0,0.0,1.0,1.0,2861532
1765221366609,0.0,0.0,1.0,10.0,0.0,0.0,0.0,0.0,0.0,0.0,-0.009516,0.025376,0.99308,-0.6300000000000001,0.21000000000000002,0.0,3.32,3.32,3.32,3.31,3.31,3.31,3.3,3.32,3.32,3.32,3.32,3.32,3.3,3.32,3.3,3.31,3.32,3.32,3.32,3.32,3.33,3.33,3.33,3.32,3.33,3.3,79.6,0.0,1.0,0.0,1.0,1.0,2861583
1765221366625,0.0,0.0,1.0,10.0,0.0,0.0,0.0,0.0,0.0,0.0,-0.008173999999999999,0.02684,0.9922259999999999,-0.6300000000000001,0.21000000000000002,0.0,3.32,3.32,3.32,3.31,3.31,3.31,3.3,3.32,3.32,3.32,3.32,3.32,3.3,3.32,3.3,3.31,3.32,3.32,3.32,3.32,3.33,3.33,3.33,3.32,3.33,3.3,79.6,0.0,1.0,0.0,1.0,1.0,2861599
1765221366642,0.0,0.0,1.0,10.0,0.0,0.0,0.0,0.0,0.0,0.0,-0.008173999999999999,0.02684,0.9922259999999999,-0.6300000000000001,0.21000000000000002,0.0,3.32,3.32,3.32,3.31,3.31,3.31,3.3,3.32,3.32,3.32,3.32,3.32,3.3,3.32,3.3,3.31,3.32,3.32,3.32,3.32,3.33,3.33,3.33,3.32,3.33,3.3,79.6,0.0,1.0,0.0,1.0,1.0,2861616
1765221366675,0.0,0.0,1.0,10.0,0.0,0.0,0.0,0.0,0.0,0.0,-0.008173999999999999,0.02684,0.9922259999999999,-0.6300000000000001,0.21000000000000002,0.0,3.32,3.32,3.32,3.31,3.31,3.31,3.3,3.32,3.32,3.32,3.32,3.32,3.3,3.32,3.3,3.31,3.32,3.32,3.32,3.32,3.33,3.33,3.33,3.32,3.33,3.3,79.6,0.0,1.0,0.0,1.0,1.0,2861649
1765221366690,0.0,0.0,1.0,10.0,0.0,0.0,0.0,0.0,0.0,0.0,-0.008173999999999999,0.02684,0.9922259999999999,-0.6300000000000001,0.28,0.0,3.32,3.32,3.32,3.31,3.31,3.31,3.3,3.32,3.32,3.32,3.32,3.32,3.3,3.32,3.3,3.31,3.32,3.32,3.32,3.32,3.33,3.33,3.33,3.32,3.33,3.3,79.6,0.0,1.0,0.0,1.0,1.0,2861664
1765221366708,0.0,0.0,1.0,10.0,0.0,0.0,0.0,0.0,0.0,0.0,-0.008173999999999999,0.02684,0.9922259999999999,-0.6300000000000001,0.28,0.0,3.32,3.32,3.32,3.31,3.31,3.31,3.3,3.32,3.32,3.32,3.32,3.32,3.3,3.32,3.3,3.31,3.32,3.32,3.32,3.32,3.33,3.33,3.33,3.32,3.33,3.3,79.6,0.0,1.0,0.0,1.0,1.0,2861682
1765221366775,0.0,0.0,1.0,10.0,0.0,0.0,0.0,0.0,0.0,0.0,-0.008173999999999999,0.02684,0.9922259999999999,-0.6300000000000001,0.28,0.0,3.32,3.32,3.32,3.31,3.31,3.31,3.3,3.32,3.32,3.32,3.32,3.32,3.3,3.32,3.3,3.31,3.32,3.32,3.32,3.32,3.33,3.33,3.33,3.32,3.33,3.3,79.6,0.0,1.0,0.0,1.0,1.0,2861749
