timestamp,THROTTLE,BRAKE,ECU_MODE_ID,TORQUE_GAIN,TORQUE_REF_LEFT_MOTOR,TORQUE_REF_RIGHT_MOTOR,LEFT_MOTOR_SPEED,RIGHT_MOTOR_SPEED,REAR_LEFT_WHEEL_SPEED,REAR_RIGHT_WHEEL_SPEED,ACCEL_LONGITUDINAL,ACCEL_LATERAL,ACCEL_NORMAL,VEL_ANGULAR_YAW,VEL_ANGULAR_PITCH,VEL_ANGULAR_ROLL,STACK_1_CELL_1,STACK_1_CELL_2,STACK_1_CELL_3,STACK_1_CELL_4,STACK_2_CELL_1,STACK_2_CELL_2,STACK_2_CELL_3,STACK_2_CELL_4,STACK_3_CELL_1,STACK_3_CELL_2,STACK_3_CELL_3,STACK_3_CELL_4,STACK_4_CELL_1,STACK_4_CELL_2,STACK_4_CELL_3,STACK_4_CELL_4,STACK_5_CELL_1,STACK_5_CELL_2,STACK_5_CELL_3,STACK_5_CELL_4,STACK_6_CELL_1,STACK_6_CELL_2,STACK_6_CELL_3,STACK_6_CELL_4,MAX_VOLTAGE,MIN_VOLTAGE,TOTAL_VOLTAGE,SHUNT_CURRENT,BMS_MODE_ID,BMS_ERROR_ID,AIR_P,AIR_N,t,LEFT_MOTOR_RPM,RIGHT_MOTOR_RPM
1765218505026,0.0,0.0,0.0,0.0,0.0,0.0,0.0,0.0,0.0,0.0,0.0,0.0,0.0,-34.720000000000006,4.2,1.7500000000000002,0.0,0.0,0.0,0.0,0.0,0.0,0.0,0.0,0.0,0.0,0.0,0.0,0.0,0.0,0.0,0.0,0.0,0.0,0.0,0.0,0.0,0.0,0.0,0.0,0.0,0.0,0.0,-45.0,0.0,0.0,0.0,0.0,0,0.0,0.0
1765218505077,0.0,0.0,0.0,0.0,0.0,0.0,0.0,0.0,0.0,0.0,-0.021716,-0.24888,0.98149,-34.720000000000006,4.2,1.7500000000000002,0.0,0.0,0.0,0.0,0.0,0.0,0.0,0.0,0.0,0.0,0.0,0.0,0.0,0.0,0.0,0.0,0.0,0.0,0.0,0.0,0.0,0.0,0.0,0.0,0.0,0.0,0.0,-45.0,0.0,0.0,0.0,0.0,51,0.0,0.0
1765218505109,569.0,0.0,0.0,0.0,0.0,0.0,0.0,0.0,0.0,0.0,-0.021716,-0.24888,0.98149,-34.720000000000006,4.2,1.7500000000000002,0.0,0.0,0.0,0.0,0.0,0.0,0.0,0.0,0.0,0.0,0.0,0.0,0.0,0.0,0.0,0.0,0.0,0.0,0.0,0.0,0.0,0.0,0.0,0.0,0.0,0.0,0.0,-45.0,0.0,0.0,0.0,0.0,83,0.0,0.0
1765218505126,569.0,0.0,1.0,10.0,0.0,0.0,0.0,0.0,0.0,0.0,-0.021716,-0.24888,0.98149,-35.35,4.760000000000001,4.130000000000001,0.0,0.0,0.0,0.0,0.0,0.0,0.0,0.0,0.0,0.0,0.0,0.0,0.0,0.0,0.0,0.0,0.0,0.0,0.0,0.0,0.0,0.0,0.0,0.0,0.0,0.0,0.0,-45.0,0.0,0.0,0.0,0.0,100,0.0,0.0
1765218505143,569.0,0.0,1.0,10.0,567.0,567.0,0.0,0.0,0.0,0.0,-0.021716,-0.24888,0.98149,-35.35,4.760000000000001,4.130000000000001,0.0,0.0,0.0,0.0,0.0,0.0,0.0,0.0,0.0,0.0,0.0,0.0,0.0,0.0,0.0,0.0,0.0,0.0,0.0,0.0,0.0,0.0,0.0,0.0,0.0,0.0,0.0,-45.0,0.0,0.0,0.0,0.0,117,0.0,0.0
1765218505159,569.0,0.0,1.0,10.0,567.0,567.0,0.0,0.0,10.178998542857144,7.474167042857143,-0.021716,-0.24888,0.98149,-35.35,4.760000000000001,4.130000000000001,0.0,0.0,0.0,0.0,0.0,0.0,0.0,0.0,0.0,0.0,0.0,0.0,0.0,0.0,0.0,0.0,0.0,0.0,0.0,0.0,0.0,0.0,0.0,0.0,0.0,0.0,0.0,-45.0,0.0,0.0,0.0,0.0,133,0.0,0.0
1765218505194,569.0,0.0,1.0,10.0,567.0,567.0,10.178998542857144,0.0,10.178998542857144,7.474167042857143,-0.021716,-0.24888,0.98149,-35.35,4.760000000000001,4.130000000000001,0.0,0.0,0.0,0.0,0.0,0.0,0.0,0.0,0.0,0.0,0.0,0.0,0.0,0.0,0.0,0.0,0.0,0.0,0.0,0.0,0.0,0.0,0.0,0.0,0.0,0.0,0.0,-45.0,0.0,0.0,0.0,0.0,168,922.0,0.0
1765218505243,569.0,0.0,1.0,10.0,567.0,567.0,10.178998542857144,7.474167042857143,10.178998542857144,7.474167042857143,-0.021716,-0.24888,0.98149,-35.35,4.760000000000001,4.130000000000001,0.0,0.0,0.0,0.0,0.0,0.0,0.0,0.0,0.0,0.0,0.0,0.0,0.0,0.0,0.0,0.0,0.0,0.0,0.0,0.0,0.0,0.0,0.0,0.0,0.0,0.0,0.0,-45.0,0.0,0.0,0.0,0.0,217,922.0,677.0
1765218505310,569.0,0.0,1.0,10.0,567.0,567.0,10.178998542857144,7.474167042857143,10.178998542857144,7.474167042857143,-0.027084,-0.131882,0.8805959999999999,-35.35,4.760000000000001,4.130000000000001,0.0,0.0,0.0,0.0,0.0,0.0,0.0,0.0,0.0,0.0,0.0,0.0,0.0,0.0,0.0,0.0,0.0,0.0,0.0,0.0,0.0,0.0,0.0,0.0,0.0,0.0,0.0,-45.0,0.0,0.0,0.0,0.0,284,922.0,677.0
1765218505326,569.0,0.0,1.0,10.0,567.0,567.0,10.178998542857144,7.474167042857143,10.178998542857144,7.474167042857143,-0.027084,-0.131882,0.8805959999999999,-32.410000000000004,1.4000000000000001,3.8500000000000005,0.0,0.0,0.0,0.0,0.0,0.0,0.0,0.0,0.0,0.0,0.0,0.0,0.0,0.0,0.0,0.0,0.0,0.0,0.0,0.0,0.0,0.0,0.0,0.0,0.0,0.0,0.0,-45.0,0.0,0.0,0.0,0.0,300,922.0,677.0
1765218505376,564.0,0.0,1.0,10.0,567.0,567.0,10.178998542857144,7.474167042857143,10.178998542857144,7.474167042857143,-0.027084,-0.131882,0.8805959999999999,-32.410000000000004,1.4000000000000001,3.8500000000000005,0.0,0.0,0.0,0.0,0.0,0.0,0.0,0.0,0.0,0.0,0.0,0.0,0.0,0.0,0.0,0.0,0.0,0.0,0.0,0.0,0.0,0.0,0.0,0.0,0.0,0.0,0.0,-45.0,0.0,0.0,0.0,0.0,350,922.0,677.0
1765218505393,564.0,0.0,1.0,10.0,567.0,567.0,10.178998542857144,7.474167042857143,10.178998542857144,7.474167042857143,-0.019642,-0.165066,0.983686,-32.410000000000004,1.4000000000000001,3.8500000000000005,0.0,0.0,0.0,0.0,0.0,0.0,0.0,0.0,0.0,0.0,0.0,0.0,0.0,0.0,0.0,0.0,0.0,0.0,0.0,0.0,0.0,0.0,0.0,0.0,0.0,0.0,0.0,-45.0,0.0,0.0,0.0,0.0,367,922.0,677.0
1765218505410,564.0,0.0,1.0,10.0,567.0,567.0,10.178998542857144,7.474167042857143,10.178998542857144,7.474167042857143,-0.019642,-0.165066,0.983686,-32.410000000000004,1.4000000000000001,3.8500000000000005,0.0,0.0,0.0,0.0,0.0,0.0,0.0,0.0,0.0,0.0,0.0,0.0,0.0,0.0,0.0,0.0,0.0,0.0,0.0,0.0,0.0,0.0,0.0,0.0,0.0,0.0,0.0,-45.0,0.0,0.0,0.0,0.0,384,922.0,677.0
1765218505460,564.0,0.0,1.0,10.0,567.0,567.0,10.178998542857144,7.474167042857143,10.178998542857144,7.474167042857143,-0.019642,-0.165066,0.983686,-30.730000000000004,2.7300000000000004,1.05,0.0,0.0,0.0,0.0,0.0,0.0,0.0,0.0,0.0,0.0,0.0,0.0,0.0,0.0,0.0,0.0,0.0,0.0,0.0,0.0,0.0,0.0,0.0,0.0,0.0,0.0,0.0,-45.0,0.0,0.0,0.0,0.0,434,922.0,677.0
1765218505509,330.0,0.0,1.0,10.0,567.0,567.0,10.178998542857144,7.474167042857143,10.178998542857144,7.474167042857143,-0.019642,-0.165066,0.983686,-30.730000000000004,2.7300000000000004,1.05,0.0,0.0,0.0,0.0,0.0,0.0,0.0,0.0,0.0,0.0,0.0,0.0,0.0,0.0,0.0,0.0,0.0,0.0,0.0,0.0,0.0,0.0,0.0,0.0,0.0,0.0,0.0,-45.0,0.0,0.0,0.0,0.0,483,922.0,677.0
1765218505544,330.0,0.0,1.0,10.0,329.0,329.0,10.178998542857144,7.474167042857143,9.516590828571431,6.955281000000001,-0.019642,-0.165066,0.983686,-30.730000000000004,2.7300000000000004,1.05,0.0,0.0,0.0,0.0,0.0,0.0,0.0,0.0,0.0,0.0,0.0,0.0,0.0,0.0,0.0,0.0,0.0,0.0,0.0,0.0,0.0,0.0,0.0,0.0,0.0,0.0,0.0,-45.0,0.0,0.0,0.0,0.0,518,922.0,677.0
1765218505576,330.0,0.0,1.0,10.0,329.0,329.0,9.516590828571431,7.474167042857143,9.516590828571431,6.955281000000001,-0.019642,-0.165066,0.983686,-30.730000000000004,2.7300000000000004,1.05,0.0,0.0,0.0,0.0,0.0,0.0,0.0,0.0,0.0,0.0,0.0,0.0,0.0,0.0,0.0,0.0,0.0,0.0,0.0,0.0,0.0,0.0,0.0,0.0,0.0,0.0,0.0,-45.0,0.0,0.0,0.0,0.0,550,862.0,677.0
1765218505593,330.0,0.0,1.0,10.0,329.0,329.0,9.516590828571431,7.474167042857143,9.516590828571431,6.955281000000001,-0.094428,-0.137128,0.992104,-30.730000000000004,2.7300000000000004,1.05,0.0,0.0,0.0,0.0,0.0,0.0,0.0,0.0,0.0,0.0,0.0,0.0,0.0,0.0,0.0,0.0,0.0,0.0,0.0,0.0,0.0,0.0,0.0,0.0,0.0,0.0,0.0,-45.0,0.0,0.0,0.0,0.0,567,862.0,677.0
1765218505643,330.0,0.0,1.0,10.0,329.0,329.0,9.516590828571431,6.955281000000001,9.516590828571431,6.955281000000001,-0.094428,-0.137128,0.992104,-30.730000000000004,2.7300000000000004,1.05,0.0,0.0,0.0,0.0,0.0,0.0,0.0,0.0,0.0,0.0,0.0,0.0,0.0,0.0,0.0,0.0,0.0,0.0,0.0,0.0,0.0,0.0,0.0,0.0,0.0,0.0,0.0,-45.0,0.0,0.0,0.0,0.0,617,862.0,630.0
1765218505660,330.0,0.0,1.0,10.0,329.0,329.0,9.516590828571431,6.955281000000001,9.516590828571431,6.955281000000001,-0.094428,-0.137128,0.992104,-32.690000000000005,3.3600000000000003,2.87,0.0,0.0,0.0,0.0,0.0,0.0,0.0,0.0,0.0,0.0,0.0,0.0,0.0,0.0,0.0,0.0,0.0,0.0,0.0,0.0,0.0,0.0,0.0,0.0,0.0,0.0,0.0,-45.0,0.0,0.0,0.0,0.0,634,862.0,630.0
1765218505727,330.0,0.0,1.0,10.0,329.0,329.0,9.516590828571431,6.955281000000001,9.516590828571431,6.955281000000001,-0.094428,-0.137128,0.992104,-32.690000000000005,3.3600000000000003,2.87,0.0,0.0,0.0,0.0,0.0,0.0,0.0,0.0,0.0,0.0,0.0,0.0,0.0,0.0,0.0,0.0,0.0,0.0,0.0,0.0,0.0,0.0,0.0,0.0,3.34,3.17,78.9,31.0,0.0,0.0,0.0,0.0,701,862.0,630.0
1765218505743,330.0,0.0,1.0,10.0,329.0,329.0,9.516590828571431,6.955281000000001,9.516590828571431,6.955281000000001,-0.094428,-0.137128,0.992104,-32.690000000000005,3.3600000000000003,2.87,0.0,0.0,0.0,0.0,0.0,0.0,0.0,0.0,0.0,0.0,0.0,0.0,0.0,0.0,0.0,0.0,0.0,0.0,0.0,0.0,0.0,0.0,0.0,0.0,3.34,3.17,78.9,31.0,1.0,0.0,1.0,1.0,717,862.0,630.0
1765218505776,330.0,0.0,1.0,10.0,329.0,329.0,9.516590828571431,6.955281000000001,9.516590828571431,6.955281000000001,-0.091012,-0.141764,1.004304,-32.690000000000005,3.3600000000000003,2.87,0.0,0.0,0.0,0.0,0.0,0.0,0.0,0.0,0.0,0.0,0.0,0.0,0.0,0.0,0.0,0.0,0.0,0.0,0.0,0.0,0.0,0.0,0.0,0.0,3.34,3.17,78.9,31.0,1.0,0.0,1.0,1.0,750,862.0,630.0
1765218505793,330.0,0.0,1.0,10.0,329.0,329.0,9.516590828571431,6.955281000000001,9.516590828571431,6.955281000000001,-0.091012,-0.141764,1.004304,-29.050000000000004,0.56,2.45,0.0,0.0,0.0,0.0,0.0,0.0,0.0,0.0,0.0,0.0,0.0,0.0,0.0,0.0,0.0,0.0,0.0,0.0,0.0,0.0,0.0,0.0,0.0,0.0,3.34,3.17,78.9,31.0,1.0,0.0,1.0,1.0,767,862.0,630.0
1765218505827,331.0,0.0,1.0,10.0,329.0,329.0,9.516590828571431,6.955281000000001,9.516590828571431,6.955281000000001,-0.091012,-0.141764,1.004304,-29.050000000000004,0.56,2.45,0.0,0.0,0.0,0.0,0.0,0.0,0.0,0.0,0.0,0.0,0.0,0.0,0.0,0.0,0.0,0.0,0.0,0.0,0.0,0.0,0.0,0.0,0.0,0.0,3.34,3.17,78.9,31.0,1.0,0.0,1.0,1.0,801,862.0,630.0
1765218505843,331.0,0.0,1.0,10.0,329.0,329.0,9.516590828571431,6.955281000000001,9.516590828571431,6.955281000000001,-0.091012,-0.141764,1.004304,-29.050000000000004,0.56,2.45,0.0,0.0,0.0,0.0,0.0,0.0,0.0,0.0,0.0,0.0,0.0,0.0,0.0,0.0,0.0,0.0,0.0,0.0,0.0,0.0,0.0,0.0,0.0,0.0,3.34,3.17,78.9,31.0,1.0,0.0,1.0,1.0,817,862.0,630.0
1765218505860,331.0,0.0,1.0,10.0,331.0,331.0,9.516590828571431,6.955281000000001,9.339948771428572,6.822799457142858,-0.091012,-0.141764,1.004304,-29.050000000000004,0.56,2.45,0.0,0.0,0.0,0.0,0.0,0.0,0.0,0.0,0.0,0.0,0.0,0.0,0.0,0.0,0.0,0.0,0.0,0.0,0.0,0.0,0.0,0.0,0.0,0.0,3.34,3.17,78.9,31.0,1.0,0.0,1.0,1.0,834,862.0,630.0
1765218505894,331.0,0.0,1.0,10.0,331.0,331.0,9.339948771428572,6.955281000000001,9.339948771428572,6.822799457142858,-0.091012,-0.141764,1.004304,-29.050000000000004,0.56,2.45,0.0,0.0,0.0,0.0,0.0,0.0,0.0,0.0,0.0,0.0,0.0,0.0,0.0,0.0,0.0,0.0,0.0,0.0,0.0,0.0,0.0,0.0,0.0,0.0,3.34,3.17,78.9,31.0,1.0,0.0,1.0,1.0,868,846.0,630.0
1765218505944,331.0,0.0,1.0,10.0,331.0,331.0,9.339948771428572,6.822799457142858,9.339948771428572,6.822799457142858,-0.091012,-0.141764,1.004304,-29.050000000000004,0.56,2.45,0.0,0.0,0.0,0.0,0.0,0.0,0.0,0.0,0.0,0.0,0.0,0.0,0.0,0.0,0.0,0.0,0.0,0.0,0.0,0.0,0.0,0.0,0.0,0.0,3.34,3.17,78.9,31.0,1.0,0.0,1.0,1.0,918,846.0,618.0
1765218505993,331.0,0.0,1.0,10.0,331.0,331.0,9.339948771428572,6.822799457142858,9.339948771428572,6.822799457142858,-0.063196,-0.131028,1.0389519999999999,-29.050000000000004,0.56,2.45,0.0,0.0,0.0,0.0,0.0,0.0,0.0,0.0,0.0,0.0,0.0,0.0,0.0,0.0,0.0,0.0,0.0,0.0,0.0,0.0,0.0,0.0,0.0,0.0,3.34,3.17,78.9,31.0,1.0,0.0,1.0,1.0,967,846.0,618.0
1765218506026,331.0,0.0,1.0,10.0,331.0,331.0,9.339948771428572,6.822799457142858,9.339948771428572,6.822799457142858,-0.063196,-0.131028,1.0389519999999999,-29.540000000000003,3.43,1.2600000000000002,0.0,0.0,0.0,0.0,0.0,0.0,0.0,0.0,0.0,0.0,0.0,0.0,0.0,0.0,0.0,0.0,0.0,0.0,0.0,0.0,0.0,0.0,0.0,0.0,3.34,3.17,78.9,31.0,1.0,0.0,1.0,1.0,1000,846.0,618.0
1765218506060,331.0,0.0,1.0,10.0,331.0,331.0,9.339948771428572,6.171431871428572,9.339948771428572,6.822799457142858,-0.063196,-0.131028,1.0389519999999999,-29.540000000000003,3.43,1.2600000000000002,0.0,0.0,0.0,0.0,0.0,0.0,0.0,0.0,0.0,0.0,0.0,0.0,0.0,0.0,0.0,0.0,0.0,0.0,0.0,0.0,0.0,0.0,0.0,0.0,3.34,3.17,78.9,31.0,1.0,0.0,1.0,1.0,1034,846.0,559.0
1765218506143,331.0,0.0,1.0,10.0,331.0,331.0,9.339948771428572,6.171431871428572,9.339948771428572,6.822799457142858,-0.005246,-0.095038,0.99064,-29.540000000000003,3.43,1.2600000000000002,0.0,0.0,0.0,0.0,0.0,0.0,0.0,0.0,0.0,0.0,0.0,0.0,0.0,0.0,0.0,0.0,0.0,0.0,0.0,0.0,0.0,0.0,0.0,0.0,3.34,3.17,78.9,31.0,1.0,0.0,1.0,1.0,1117,846.0,559.0
1765218506160,331.0,0.0,1.0,10.0,331.0,331.0,9.339948771428572,6.171431871428572,9.339948771428572,6.822799457142858,-0.005246,-0.095038,0.99064,-27.300000000000004,0.9800000000000001,-0.21000000000000002,0.0,0.0,0.0,0.0,0.0,0.0,0.0,0.0,0.0,0.0,0.0,0.0,0.0,0.0,0.0,0.0,0.0,0.0,0.0,0.0,0.0,0.0,0.0,0.0,3.34,3.17,78.9,31.0,1.0,0.0,1.0,1.0,1134,846.0,559.0
1765218506210,544.0,0.0,1.0,10.0,331.0,331.0,9.339948771428572,6.171431871428572,9.339948771428572,6.822799457142858,-0.005246,-0.095038,0.99064,-27.300000000000004,0.9800000000000001,-0.21000000000000002,0.0,0.0,0.0,0.0,0.0,0.0,0.0,0.0,0.0,0.0,0.0,0.0,0.0,0.0,0.0,0.0,0.0,0.0,0.0,0.0,0.0,0.0,0.0,0.0,3.34,3.17,78.9,31.0,1.0,0.0,1.0,1.0,1184,846.0,559.0
1765218506226,544.0,0.0,1.0,10.0,331.0,331.0,9.339948771428572,6.171431871428572,9.339948771428572,6.822799457142858,-0.005246,-0.095038,0.99064,-27.300000000000004,0.9800000000000001,-0.21000000000000002,0.0,0.0,0.0,0.0,0.0,0.0,0.0,0.0,0.0,0.0,0.0,0.0,0.0,0.0,0.0,0.0,0.0,0.0,0.0,0.0,0.0,0.0,0.0,0.0,3.34,3.17,78.9,31.0,1.0,0.0,1.0,1.0,1200,846.0,559.0
1765218506243,544.0,0.0,1.0,10.0,544.0,544.0,9.339948771428572,6.171431871428572,8.202815528571431,6.038950328571429,-0.005246,-0.095038,0.99064,-27.300000000000004,0.9800000000000001,-0.21000000000000002,0.0,0.0,0.0,0.0,0.0,0.0,0.0,0.0,0.0,0.0,0.0,0.0,0.0,0.0,0.0,0.0,0.0,0.0,0.0,0.0,0.0,0.0,0.0,0.0,3.34,3.17,78.9,31.0,1.0,0.0,1.0,1.0,1217,846.0,559.0
1765218506276,544.0,0.0,1.0,10.0,544.0,544.0,8.280096428571428,6.171431871428572,8.202815528571431,6.038950328571429,-0.005246,-0.095038,0.99064,-27.300000000000004,0.9800000000000001,-0.21000000000000002,0.0,0.0,0.0,0.0,0.0,0.0,0.0,0.0,0.0,0.0,0.0,0.0,0.0,0.0,0.0,0.0,0.0,0.0,0.0,0.0,0.0,0.0,0.0,0.0,3.34,3.17,78.9,31.0,1.0,0.0,1.0,1.0,1250,750.0,559.0
1765218506310,544.0,0.0,1.0,10.0,544.0,544.0,8.280096428571428,6.171431871428572,8.202815528571431,6.038950328571429,-0.021228,-0.137616,0.94184,-27.300000000000004,0.9800000000000001,-0.21000000000000002,0.0,0.0,0.0,0.0,0.0,0.0,0.0,0.0,0.0,0.0,0.0,0.0,0.0,0.0,0.0,0.0,0.0,0.0,0.0,0.0,0.0,0.0,0.0,0.0,3.34,3.17,78.9,31.0,1.0,0.0,1.0,1.0,1284,750.0,559.0
1765218506343,544.0,0.0,1.0,10.0,544.0,544.0,8.280096428571428,6.038950328571429,8.202815528571431,6.038950328571429,-0.021228,-0.137616,0.94184,-27.300000000000004,0.9800000000000001,-0.21000000000000002,0.0,0.0,0.0,0.0,0.0,0.0,0.0,0.0,0.0,0.0,0.0,0.0,0.0,0.0,0.0,0.0,0.0,0.0,0.0,0.0,0.0,0.0,0.0,0.0,3.34,3.17,78.9,31.0,1.0,0.0,1.0,1.0,1317,750.0,547.0
1765218506376,544.0,0.0,1.0,10.0,544.0,544.0,8.280096428571428,6.038950328571429,8.202815528571431,6.038950328571429,-0.021228,-0.137616,0.94184,-26.6,1.8900000000000001,0.28,0.0,0.0,0.0,0.0,0.0,0.0,0.0,0.0,0.0,0.0,0.0,0.0,0.0,0.0,0.0,0.0,0.0,0.0,0.0,0.0,0.0,0.0,0.0,0.0,3.34,3.17,78.9,31.0,1.0,0.0,1.0,1.0,1350,750.0,547.0
1765218506427,544.0,0.0,1.0,10.0,544.0,544.0,8.280096428571428,6.038950328571429,8.202815528571431,6.038950328571429,-0.021228,-0.137616,0.94184,-26.6,1.8900000000000001,0.28,3.31,3.32,3.23,3.28,0.0,0.0,0.0,0.0,0.0,0.0,0.0,0.0,0.0,0.0,0.0,0.0,0.0,0.0,0.0,0.0,0.0,0.0,0.0,0.0,3.34,3.17,78.9,31.0,1.0,0.0,1.0,1.0,1401,750.0,547.0
1765218506443,544.0,0.0,1.0,10.0,544.0,544.0,8.280096428571428,6.038950328571429,8.202815528571431,6.038950328571429,-0.021228,-0.137616,0.94184,-26.6,1.8900000000000001,0.28,3.31,3.32,3.23,3.28,3.3,3.3,3.19,3.25,0.0,0.0,0.0,0.0,0.0,0.0,0.0,0.0,0.0,0.0,0.0,0.0,0.0,0.0,0.0,0.0,3.34,3.17,78.9,31.0,1.0,0.0,1.0,1.0,1417,750.0,547.0
1765218506460,544.0,0.0,1.0,10.0,544.0,544.0,8.280096428571428,6.038950328571429,8.202815528571431,6.038950328571429,-0.021228,-0.137616,0.94184,-26.6,1.8900000000000001,0.28,3.31,3.32,3.23,3.28,3.3,3.3,3.19,3.25,3.34,3.35,3.33,3.32,0.0,0.0,0.0,0.0,0.0,0.0,0.0,0.0,0.0,0.0,0.0,0.0,3.34,3.17,78.9,31.0,1.0,0.0,1.0,1.0,1434,750.0,547.0
1765218506477,544.0,0.0,1.0,10.0,544.0,544.0,8.280096428571428,6.038950328571429,8.202815528571431,6.038950328571429,-0.021228,-0.137616,0.94184,-26.6,1.8900000000000001,0.28,3.31,3.32,3.23,3.28,3.3,3.3,3.19,3.25,3.34,3.35,3.33,3.32,3.31,3.29,3.22,3.33,0.0,0.0,0.0,0.0,0.0,0.0,0.0,0.0,3.34,3.17,78.9,31.0,1.0,0.0,1.0,1.0,1451,750.0,547.0
1765218506494,544.0,0.0,1.0,10.0,544.0,544.0,8.280096428571428,6.038950328571429,8.202815528571431,6.038950328571429,-0.021228,-0.137616,0.94184,-26.6,1.8900000000000001,0.28,3.31,3.32,3.23,3.28,3.3,3.3,3.19,3.25,3.34,3.35,3.33,3.32,3.31,3.29,3.22,3.33,3.32,3.28,3.27,3.31,3.34,3.34,3.29,3.31,3.34,3.17,78.9,31.0,1.0,0.0,1.0,1.0,1468,750.0,547.0
1765218506526,544.0,0.0,1.0,10.0,544.0,544.0,8.280096428571428,6.038950328571429,8.202815528571431,6.038950328571429,-0.036356,-0.162382,0.979904,-26.6,1.8900000000000001,0.28,3.31,3.32,3.23,3.28,3.3,3.3,3.19,3.25,3.34,3.35,3.33,3.32,3.31,3.29,3.22,3.33,3.32,3.28,3.27,3.31,3.34,3.34,3.29,3.31,3.34,3.17,78.9,31.0,1.0,0.0,1.0,1.0,1500,750.0,547.0
1765218506543,527.0,0.0,1.0,10.0,544.0,544.0,8.280096428571428,6.038950328571429,8.202815528571431,6.038950328571429,-0.036356,-0.162382,0.979904,-26.6,1.8900000000000001,0.28,3.31,3.32,3.23,3.28,3.3,3.3,3.19,3.25,3.34,3.35,3.33,3.32,3.31,3.29,3.22,3.33,3.32,3.28,3.27,3.31,3.34,3.34,3.29,3.31,3.34,3.17,78.9,31.0,1.0,0.0,1.0,1.0,1517,750.0,547.0
1765218506560,527.0,0.0,1.0,10.0,542.0,542.0,8.280096428571428,6.038950328571429,8.202815528571431,6.038950328571429,-0.036356,-0.162382,0.979904,-26.6,1.8900000000000001,0.28,3.31,3.32,3.23,3.28,3.3,3.3,3.19,3.25,3.34,3.35,3.33,3.32,3.31,3.29,3.22,3.33,3.32,3.28,3.27,3.31,3.34,3.34,3.29,3.31,3.34,3.17,78.9,31.0,1.0,0.0,1.0,1.0,1534,750.0,547.0
1765218506593,527.0,0.0,1.0,10.0,542.0,542.0,8.280096428571428,6.038950328571429,8.037213600000001,5.9175089142857145,-0.036356,-0.162382,0.979904,-26.6,1.8900000000000001,0.28,3.31,3.32,3.23,3.28,3.3,3.3,3.19,3.25,3.34,3.35,3.33,3.32,3.31,3.29,3.22,3.33,3.32,3.28,3.27,3.31,3.34,3.34,3.29,3.31,3.34,3.17,78.9,31.0,1.0,0.0,1.0,1.0,1567,750.0,547.0
1765218506610,527.0,0.0,1.0,10.0,542.0,542.0,8.280096428571428,6.038950328571429,8.037213600000001,5.9175089142857145,-0.036356,-0.162382,0.979904,-27.020000000000003,3.8500000000000005,2.66,3.31,3.32,3.23,3.28,3.3,3.3,3.19,3.25,3.34,3.35,3.33,3.32,3.31,3.29,3.22,3.33,3.32,3.28,3.27,3.31,3.34,3.34,3.29,3.31,3.34,3.17,78.9,31.0,1.0,0.0,1.0,1.0,1584,750.0,547.0
1765218506627,527.0,0.0,1.0,10.0,542.0,542.0,8.103454371428573,6.038950328571429,8.037213600000001,5.9175089142857145,-0.036356,-0.162382,0.979904,-27.020000000000003,3.8500000000000005,2.66,3.31,3.32,3.23,3.28,3.3,3.3,3.19,3.25,3.34,3.35,3.33,3.32,3.31,3.29,3.22,3.33,3.32,3.28,3.27,3.31,3.34,3.34,3.29,3.31,3.34,3.17,78.9,31.0,1.0,0.0,1.0,1.0,1601,734.0,547.0
1765218506676,527.0,0.0,1.0,10.0,542.0,542.0,8.103454371428573,5.9175089142857145,8.037213600000001,5.9175089142857145,-0.036356,-0.162382,0.979904,-27.020000000000003,3.8500000000000005,2.66,3.31,3.32,3.23,3.28,3.3,3.3,3.19,3.25,3.34,3.35,3.33,3.32,3.31,3.29,3.22,3.33,3.32,3.28,3.27,3.31,3.34,3.34,3.29,3.31,3.34,3.17,78.9,31.0,1.0,0.0,1.0,1.0,1650,734.0,536.0
1765218506693,527.0,0.0,1.0,10.0,299.0,299.0,8.103454371428573,5.9175089142857145,8.037213600000001,5.9175089142857145,-0.036356,-0.162382,0.979904,-27.020000000000003,3.8500000000000005,2.66,3.31,3.32,3.23,3.28,3.3,3.3,3.19,3.25,3.34,3.35,3.33,3.32,3.31,3.29,3.22,3.33,3.32,3.28,3.27,3.31,3.34,3.34,3.29,3.31,3.34,3.17,78.9,31.0,1.0,0.0,1.0,1.0,1667,734.0,536.0
1765218506710,527.0,0.0,1.0,10.0,299.0,299.0,8.103454371428573,5.9175089142857145,7.363765757142857,5.34342222857143,-0.036356,-0.162382,0.979904,-27.020000000000003,3.8500000000000005,2.66,3.31,3.32,3.23,3.28,3.3,3.3,3.19,3.25,3.34,3.35,3.33,3.32,3.31,3.29,3.22,3.33,3.32,3.28,3.27,3.31,3.34,3.34,3.29,3.31,3.34,3.17,78.9,31.0,1.0,0.0,1.0,1.0,1684,734.0,536.0
1765218506743,527.0,0.0,1.0,10.0,299.0,299.0,7.363765757142857,5.9175089142857145,7.363765757142857,5.34342222857143,-0.036356,-0.162382,0.979904,-27.020000000000003,3.8500000000000005,2.66,3.31,3.32,3.23,3.28,3.3,3.3,3.19,3.25,3.34,3.35,3.33,3.32,3.31,3.29,3.22,3.33,3.32,3.28,3.27,3.31,3.34,3.34,3.29,3.31,3.34,3.17,78.9,31.0,1.0,0.0,1.0,1.0,1717,667.0,536.0
1765218506793,527.0,0.0,1.0,10.0,299.0,299.0,7.363765757142857,5.34342222857143,7.363765757142857,5.34342222857143,-0.036356,-0.162382,0.979904,-27.020000000000003,3.8500000000000005,2.66,3.31,3.32,3.23,3.28,3.3,3.3,3.19,3.25,3.34,3.35,3.33,3.32,3.31,3.29,3.22,3.33,3.32,3.28,3.27,3.31,3.34,3.34,3.29,3.31,3.34,3.17,78.9,31.0,1.0,0.0,1.0,1.0,1767,667.0,484.0
1765218506810,527.0,0.0,1.0,10.0,299.0,299.0,7.363765757142857,5.34342222857143,7.363765757142857,5.34342222857143,-0.075152,-0.07076,0.945744,-27.020000000000003,3.8500000000000005,2.66,3.31,3.32,3.23,3.28,3.3,3.3,3.19,3.25,3.34,3.35,3.33,3.32,3.31,3.29,3.22,3.33,3.32,3.28,3.27,3.31,3.34,3.34,3.29,3.31,3.34,3.17,78.9,31.0,1.0,0.0,1.0,1.0,1784,667.0,484.0
1765218506877,527.0,0.0,1.0,10.0,299.0,299.0,7.363765757142857,5.34342222857143,7.363765757142857,5.34342222857143,-0.075152,-0.07076,0.945744,-22.470000000000002,-2.7300000000000004,2.45,3.31,3.32,3.23,3.28,3.3,3.3,3.19,3.25,3.34,3.35,3.33,3.32,3.31,3.29,3.22,3.33,3.32,3.28,3.27,3.31,3.34,3.34,3.29,3.31,3.34,3.17,78.9,31.0,1.0,0.0,1.0,1.0,1851,667.0,484.0
1765218506910,527.0,0.0,1.0,10.0,299.0,299.0,7.363765757142857,5.34342222857143,7.363765757142857,5.34342222857143,-0.104188,-0.065148,1.048712,-22.470000000000002,-2.7300000000000004,2.45,3.31,3.32,3.23,3.28,3.3,3.3,3.19,3.25,3.34,3.35,3.33,3.32,3.31,3.29,3.22,3.33,3.32,3.28,3.27,3.31,3.34,3.34,3.29,3.31,3.34,3.17,78.9,31.0,1.0,0.0,1.0,1.0,1884,667.0,484.0
1765218506943,212.0,0.0,1.0,10.0,299.0,299.0,7.363765757142857,5.34342222857143,7.363765757142857,5.34342222857143,-0.104188,-0.065148,1.048712,-22.330000000000002,3.5000000000000004,2.7300000000000004,3.31,3.32,3.23,3.28,3.3,3.3,3.19,3.25,3.34,3.35,3.33,3.32,3.31,3.29,3.22,3.33,3.32,3.28,3.27,3.31,3.34,3.34,3.29,3.31,3.34,3.17,78.9,31.0,1.0,0.0,1.0,1.0,1917,667.0,484.0
1765218506976,212.0,0.0,1.0,10.0,233.0,233.0,7.363765757142857,5.34342222857143,7.363765757142857,5.34342222857143,-0.104188,-0.065148,1.048712,-22.330000000000002,3.5000000000000004,2.7300000000000004,3.31,3.32,3.23,3.28,3.3,3.3,3.19,3.25,3.34,3.35,3.33,3.32,3.31,3.29,3.22,3.33,3.32,3.28,3.27,3.31,3.34,3.34,3.29,3.31,3.34,3.17,78.9,31.0,1.0,0.0,1.0,1.0,1950,667.0,484.0
1765218507010,212.0,0.0,1.0,10.0,233.0,233.0,7.363765757142857,5.34342222857143,7.021521771428572,5.133659785714285,-0.104188,-0.065148,1.048712,-22.330000000000002,3.5000000000000004,2.7300000000000004,3.31,3.32,3.23,3.28,3.3,3.3,3.19,3.25,3.34,3.35,3.33,3.32,3.31,3.29,3.22,3.33,3.32,3.28,3.27,3.31,3.34,3.34,3.29,3.31,3.34,3.17,78.9,31.0,1.0,0.0,1.0,1.0,1984,667.0,484.0
1765218507027,212.0,0.0,1.0,10.0,233.0,233.0,7.165043442857143,5.34342222857143,7.021521771428572,5.133659785714285,-0.104188,-0.065148,1.048712,-22.330000000000002,3.5000000000000004,2.7300000000000004,3.31,3.32,3.23,3.28,3.3,3.3,3.19,3.25,3.34,3.35,3.33,3.32,3.31,3.29,3.22,3.33,3.32,3.28,3.27,3.31,3.34,3.34,3.29,3.31,3.34,3.17,78.9,31.0,1.0,0.0,1.0,1.0,2001,649.0,484.0
1765218507077,212.0,0.0,1.0,10.0,233.0,233.0,7.165043442857143,5.199900557142858,7.021521771428572,5.133659785714285,-0.104188,-0.065148,1.048712,-22.330000000000002,3.5000000000000004,2.7300000000000004,3.31,3.32,3.23,3.28,3.3,3.3,3.19,3.25,3.34,3.35,3.33,3.32,3.31,3.29,3.22,3.33,3.32,3.28,3.27,3.31,3.34,3.34,3.29,3.31,3.34,3.17,78.9,31.0,1.0,0.0,1.0,1.0,2051,649.0,471.0
1765218507143,212.0,0.0,1.0,10.0,233.0,233.0,7.165043442857143,5.199900557142858,7.021521771428572,5.133659785714285,-0.078324,-0.06039,0.935008,-22.330000000000002,3.5000000000000004,2.7300000000000004,3.31,3.32,3.23,3.28,3.3,3.3,3.19,3.25,3.34,3.35,3.33,3.32,3.31,3.29,3.22,3.33,3.32,3.28,3.27,3.31,3.34,3.34,3.29,3.31,3.34,3.17,78.9,31.0,1.0,0.0,1.0,1.0,2117,649.0,471.0
1765218507160,212.0,0.0,1.0,10.0,233.0,233.0,7.165043442857143,5.199900557142858,7.021521771428572,5.133659785714285,-0.078324,-0.06039,0.935008,-20.37,-0.9800000000000001,1.9600000000000002,3.31,3.32,3.23,3.28,3.3,3.3,3.19,3.25,3.34,3.35,3.33,3.32,3.31,3.29,3.22,3.33,3.32,3.28,3.27,3.31,3.34,3.34,3.29,3.31,3.34,3.17,78.9,31.0,1.0,0.0,1.0,1.0,2134,649.0,471.0
1765218507226,212.0,0.0,1.0,10.0,233.0,233.0,7.165043442857143,5.199900557142858,7.021521771428572,5.133659785714285,-0.078324,-0.06039,0.935008,-20.37,-0.9800000000000001,1.9600000000000002,3.31,3.32,3.23,3.28,3.3,3.3,3.19,3.25,3.34,3.35,3.33,3.32,3.31,3.29,3.22,3.33,3.32,3.28,3.27,3.31,3.34,3.34,3.29,3.31,3.35,3.22,79.2,20.0,1.0,0.0,1.0,1.0,2200,649.0,471.0
1765218507260,143.0,0.0,1.0,10.0,233.0,233.0,7.165043442857143,5.199900557142858,7.021521771428572,5.133659785714285,-0.078324,-0.06039,0.935008,-20.37,-0.9800000000000001,1.9600000000000002,3.31,3.32,3.23,3.28,3.3,3.3,3.19,3.25,3.34,3.35,3.33,3.32,3.31,3.29,3.22,3.33,3.32,3.28,3.27,3.31,3.34,3.34,3.29,3.31,3.35,3.22,79.2,20.0,1.0,0.0,1.0,1.0,2234,649.0,471.0
1765218507276,143.0,0.0,1.0,10.0,233.0,233.0,7.165043442857143,5.199900557142858,7.021521771428572,5.133659785714285,-0.078324,-0.06039,0.935008,-20.37,-0.9800000000000001,1.9600000000000002,3.31,3.32,3.23,3.28,3.3,3.3,3.19,3.25,3.34,3.35,3.33,3.32,3.31,3.29,3.22,3.33,3.32,3.28,3.27,3.31,3.34,3.34,3.29,3.31,3.35,3.22,79.2,20.0,1.0,0.0,1.0,1.0,2250,649.0,471.0
1765218507293,143.0,0.0,1.0,10.0,153.0,153.0,7.165043442857143,5.199900557142858,7.021521771428572,5.133659785714285,-0.101992,-0.071004,1.035536,-20.37,-0.9800000000000001,1.9600000000000002,3.31,3.32,3.23,3.28,3.3,3.3,3.19,3.25,3.34,3.35,3.33,3.32,3.31,3.29,3.22,3.33,3.32,3.28,3.27,3.31,3.34,3.34,3.29,3.31,3.35,3.22,79.2,20.0,1.0,0.0,1.0,1.0,2267,649.0,471.0
1765218507310,143.0,0.0,1.0,10.0,153.0,153.0,7.165043442857143,5.199900557142858,6.778638942857144,4.934937471428572,-0.101992,-0.071004,1.035536,-20.37,-0.9800000000000001,1.9600000000000002,3.31,3.32,3.23,3.28,3.3,3.3,3.19,3.25,3.34,3.35,3.33,3.32,3.31,3.29,3.22,3.33,3.32,3.28,3.27,3.31,3.34,3.34,3.29,3.31,3.35,3.22,79.2,20.0,1.0,0.0,1.0,1.0,2284,649.0,471.0
1765218507360,0.0,0.0,1.0,10.0,153.0,153.0,7.165043442857143,5.199900557142858,6.778638942857144,4.934937471428572,-0.101992,-0.071004,1.035536,-20.37,-0.9800000000000001,1.9600000000000002,3.31,3.32,3.23,3.28,3.3,3.3,3.19,3.25,3.34,3.35,3.33,3.32,3.31,3.29,3.22,3.33,3.32,3.28,3.27,3.31,3.34,3.34,3.29,3.31,3.35,3.22,79.2,20.0,1.0,0.0,1.0,1.0,2334,649.0,471.0
1765218507377,0.0,0.0,1.0,10.0,0.0,0.0,7.165043442857143,5.199900557142858,6.778638942857144,4.934937471428572,-0.101992,-0.071004,1.035536,-20.37,-0.9800000000000001,1.9600000000000002,3.31,3.32,3.23,3.28,3.3,3.3,3.19,3.25,3.34,3.35,3.33,3.32,3.31,3.29,3.22,3.33,3.32,3.28,3.27,3.31,3.34,3.34,3.29,3.31,3.35,3.22,79.2,20.0,1.0,0.0,1.0,1.0,2351,649.0,471.0
1765218507394,0.0,0.0,1.0,10.0,0.0,0.0,7.165043442857143,5.199900557142858,0.0,0.0,-0.101992,-0.071004,1.035536,-20.37,-0.9800000000000001,1.9600000000000002,3.31,3.32,3.23,3.28,3.3,3.3,3.19,3.25,3.34,3.35,3.33,3.32,3.31,3.29,3.22,3.33,3.32,3.28,3.27,3.31,3.34,3.34,3.29,3.31,3.35,3.22,79.2,20.0,1.0,0.0,1.0,1.0,2368,649.0,471.0
1765218507409,0.0,0.0,1.0,10.0,0.0,0.0,7.165043442857143,5.199900557142858,0.0,0.0,-0.101992,-0.071004,1.035536,-20.37,-0.9800000000000001,1.9600000000000002,3.31,3.32,3.23,3.28,3.3,3.3,3.19,3.25,3.34,3.35,3.33,3.32,3.31,3.29,3.22,3.33,3.32,3.28,3.27,3.31,3.34,3.34,3.29,3.31,3.35,3.22,79.2,20.0,1.0,0.0,1.0,1.0,2383,649.0,471.0
1765218507426,0.0,0.0,1.0,10.0,0.0,0.0,7.165043442857143,5.199900557142858,0.0,0.0,-0.101992,-0.071004,1.035536,-20.37,-0.9800000000000001,1.9600000000000002,3.31,3.32,3.23,3.28,3.3,3.3,3.19,3.25,3.34,3.35,3.33,3.32,3.31,3.29,3.22,3.33,3.32,3.28,3.27,3.31,3.34,3.34,3.29,3.31,3.36,3.27,79.5,9.0,1.0,0.0,1.0,1.0,2400,649.0,471.0
1765218507460,0.0,0.0,1.0,10.0,0.0,0.0,0.0,5.199900557142858,0.0,0.0,-0.101992,-0.071004,1.035536,-20.37,-0.9800000000000001,1.9600000000000002,3.31,3.32,3.23,3.28,3.3,3.3,3.19,3.25,3.34,3.35,3.33,3.32,3.31,3.29,3.22,3.33,3.32,3.28,3.27,3.31,3.34,3.34,3.29,3.31,3.36,3.27,79.5,9.0,1.0,0.0,1.0,1.0,2434,0.0,471.0
1765218507476,0.0,0.0,1.0,10.0,0.0,0.0,0.0,5.199900557142858,0.0,0.0,-0.164944,-0.06831999999999999,0.976366,-20.37,-0.9800000000000001,1.9600000000000002,3.31,3.32,3.23,3.28,3.3,3.3,3.19,3.25,3.34,3.35,3.33,3.32,3.31,3.29,3.22,3.33,3.32,3.28,3.27,3.31,3.34,3.34,3.29,3.31,3.36,3.27,79.5,9.0,1.0,0.0,1.0,1.0,2450,0.0,471.0
1765218507510,0.0,0.0,1.0,10.0,0.0,0.0,0.0,0.0,0.0,0.0,-0.164944,-0.06831999999999999,0.976366,-20.37,-0.9800000000000001,1.9600000000000002,3.31,3.32,3.23,3.28,3.3,3.3,3.19,3.25,3.34,3.35,3.33,3.32,3.31,3.29,3.22,3.33,3.32,3.28,3.27,3.31,3.34,3.34,3.29,3.31,3.36,3.27,79.5,9.0,1.0,0.0,1.0,1.0,2484,0.0,0.0
1765218507526,0.0,0.0,1.0,10.0,0.0,0.0,0.0,0.0,0.0,0.0,-0.164944,-0.06831999999999999,0.976366,-13.090000000000002,1.61,0.28,3.31,3.32,3.23,3.28,3.3,3.3,3.19,3.25,3.34,3.35,3.33,3.32,3.31,3.29,3.22,3.33,3.32,3.28,3.27,3.31,3.34,3.34,3.29,3.31,3.36,3.27,79.5,9.0,1.0,0.0,1.0,1.0,2500,0.0,0.0
1765218507643,0.0,0.0,1.0,10.0,0.0,0.0,0.0,0.0,0.0,0.0,-0.164944,-0.06831999999999999,0.976366,-11.270000000000001,1.4700000000000002,-0.14,3.31,3.32,3.23,3.28,3.3,3.3,3.19,3.25,3.34,3.35,3.33,3.32,3.31,3.29,3.22,3.33,3.32,3.28,3.27,3.31,3.34,3.34,3.29,3.31,3.36,3.27,79.5,9.0,1.0,0.0,1.0,1.0,2617,0.0,0.0
1765218507677,0.0,0.0,1.0,10.0,0.0,0.0,0.0,0.0,0.0,0.0,-0.164944,-0.06831999999999999,0.976366,-11.270000000000001,1.4700000000000002,-0.14,3.31,3.32,3.23,3.28,3.3,3.3,3.19,3.25,3.34,3.35,3.33,3.32,3.31,3.29,3.22,3.33,3.32,3.28,3.27,3.31,3.34,3.34,3.29,3.31,3.36,3.27,79.5,9.0,1.0,0.0,1.0,1.0,2651,0.0,0.0
1765218507694,0.0,0.0,1.0,10.0,0.0,0.0,0.0,0.0,0.0,0.0,-0.164944,-0.06831999999999999,0.976366,-11.270000000000001,1.4700000000000002,-0.14,3.31,3.32,3.23,3.28,3.3,3.3,3.19,3.25,3.34,3.35,3.33,3.32,3.31,3.29,3.22,3.33,3.32,3.28,3.27,3.31,3.34,3.34,3.29,3.31,3.36,3.27,79.5,9.0,1.0,0.0,1.0,1.0,2668,0.0,0.0
1765218507726,0.0,0.0,1.0,10.0,0.0,0.0,0.0,0.0,0.0,0.0,-0.164944,-0.06831999999999999,0.976366,-11.270000000000001,1.4700000000000002,-0.14,3.31,3.32,3.23,3.28,3.3,3.3,3.19,3.25,3.34,3.35,3.33,3.32,3.31,3.29,3.22,3.33,3.32,3.28,3.27,3.31,3.34,3.34,3.29,3.31,3.36,3.27,79.5,9.0,1.0,0.0,1.0,1.0,2700,0.0,0.0
1765218507743,0.0,0.0,1.0,10.0,0.0,0.0,0.0,0.0,0.0,0.0,-0.164944,-0.06831999999999999,0.976366,-11.270000000000001,1.4700000000000002,-0.14,3.31,3.32,3.23,3.28,3.3,3.3,3.19,3.25,3.34,3.35,3.33,3.32,3.31,3.29,3.22,3.33,3.32,3.28,3.27,3.31,3.34,3.34,3.29,3.31,3.36,3.27,79.5,9.0,1.0,0.0,1.0,1.0,2717,0.0,0.0
1765218507809,0.0,0.0,1.0,10.0,0.0,0.0,0.0,0.0,0.0,0.0,-0.08662,-0.01342,1.011014,-11.270000000000001,1.4700000000000002,-0.14,3.31,3.32,3.23,3.28,3.3,3.3,3.19,3.25,3.34,3.35,3.33,3.32,3.31,3.29,3.22,3.33,3.32,3.28,3.27,3.31,3.34,3.34,3.29,3.31,3.36,3.27,79.5,9.0,1.0,0.0,1.0,1.0,2783,0.0,0.0
1765218507876,0.0,0.0,1.0,10.0,0.0,0.0,0.0,0.0,0.0,0.0,-0.08662,-0.01342,1.011014,-8.89,0.6300000000000001,0.42000000000000004,3.31,3.32,3.23,3.28,3.3,3.3,3.19,3.25,3.34,3.35,3.33,3.32,3.31,3.29,3.22,3.33,3.32,3.28,3.27,3.31,3.34,3.34,3.29,3.31,3.36,3.27,79.5,9.0,1.0,0.0,1.0,1.0,2850,0.0,0.0
1765218507926,0.0,0.0,1.0,10.0,0.0,0.0,0.0,0.0,0.0,0.0,-0.067344,-0.015616,0.9767319999999999,-8.89,0.6300000000000001,0.42000000000000004,3.31,3.32,3.23,3.28,3.3,3.3,3.19,3.25,3.34,3.35,3.33,3.32,3.31,3.29,3.22,3.33,3.32,3.28,3.27,3.31,3.34,3.34,3.29,3.31,3.36,3.27,79.5,9.0,1.0,0.0,1.0,1.0,2900,0.0,0.0
1765218507960,0.0,0.0,1.0,10.0,0.0,0.0,0.0,0.0,0.0,0.0,-0.131516,-0.0046359999999999995,0.993202,-8.89,0.6300000000000001,0.42000000000000004,3.31,3.32,3.23,3.28,3.3,3.3,3.19,3.25,3.34,3.35,3.33,3.32,3.31,3.29,3.22,3.33,3.32,3.28,3.27,3.31,3.34,3.34,3.29,3.31,3.36,3.27,79.5,9.0,1.0,0.0,1.0,1.0,2934,0.0,0.0
1765218508010,0.0,0.0,1.0,10.0,0.0,0.0,0.0,0.0,0.0,0.0,-0.131516,-0.0046359999999999995,0.993202,-1.1900000000000002,0.77,-0.42000000000000004,3.31,3.32,3.23,3.28,3.3,3.3,3.19,3.25,3.34,3.35,3.33,3.32,3.31,3.29,3.22,3.33,3.32,3.28,3.27,3.31,3.34,3.34,3.29,3.31,3.36,3.27,79.5,9.0,1.0,0.0,1.0,1.0,2984,0.0,0.0
1765218508060,0.0,0.0,1.0,10.0,0.0,0.0,0.0,0.0,0.0,0.0,-0.118828,0.011833999999999999,0.990518,-1.1900000000000002,0.77,-0.42000000000000004,3.31,3.32,3.23,3.28,3.3,3.3,3.19,3.25,3.34,3.35,3.33,3.32,3.31,3.29,3.22,3.33,3.32,3.28,3.27,3.31,3.34,3.34,3.29,3.31,3.36,3.27,79.5,9.0,1.0,0.0,1.0,1.0,3034,0.0,0.0
1765218508076,0.0,0.0,1.0,10.0,0.0,0.0,0.0,0.0,0.0,0.0,-0.118828,0.011833999999999999,0.990518,-1.05,0.49000000000000005,0.07,3.31,3.32,3.23,3.28,3.3,3.3,3.19,3.25,3.34,3.35,3.33,3.32,3.31,3.29,3.22,3.33,3.32,3.28,3.27,3.31,3.34,3.34,3.29,3.31,3.36,3.27,79.5,9.0,1.0,0.0,1.0,1.0,3050,0.0,0.0
1765218508093,0.0,0.0,1.0,10.0,0.0,0.0,0.0,0.0,0.0,0.0,-0.118828,0.011833999999999999,0.990518,-1.05,0.49000000000000005,0.07,3.31,3.32,3.23,3.28,3.3,3.3,3.19,3.25,3.34,3.35,3.33,3.32,3.31,3.29,3.22,3.33,3.32,3.28,3.27,3.31,3.34,3.34,3.29,3.31,3.36,3.27,79.5,9.0,1.0,0.0,1.0,1.0,3067,0.0,0.0
1765218508110,0.0,0.0,1.0,10.0,0.0,0.0,0.0,0.0,0.0,0.0,-0.118828,0.011833999999999999,0.990518,-1.05,0.49000000000000005,0.07,3.31,3.32,3.23,3.28,3.3,3.3,3.19,3.25,3.34,3.35,3.33,3.32,3.31,3.29,3.22,3.33,3.32,3.28,3.27,3.31,3.34,3.34,3.29,3.31,3.36,3.27,79.5,9.0,1.0,0.0,1.0,1.0,3084,0.0,0.0
1765218508143,0.0,0.0,1.0,10.0,0.0,0.0,0.0,0.0,0.0,0.0,-0.118828,0.011833999999999999,0.990518,-1.05,0.49000000000000005,0.07,3.31,3.32,3.23,3.28,3.3,3.3,3.19,3.25,3.34,3.35,3.33,3.32,3.31,3.29,3.22,3.33,3.32,3.28,3.27,3.31,3.34,3.34,3.29,3.31,3.36,3.27,79.5,9.0,1.0,0.0,1.0,1.0,3117,0.0,0.0
1765218508160,0.0,0.0,1.0,10.0,0.0,0.0,0.0,0.0,0.0,0.0,-0.118828,0.011833999999999999,0.990518,-1.05,0.49000000000000005,0.07,3.32,3.33,3.31,3.28,3.3,3.3,3.19,3.25,3.34,3.35,3.33,3.32,3.31,3.29,3.22,3.33,3.32,3.28,3.27,3.31,3.34,3.34,3.29,3.31,3.36,3.27,79.5,9.0,1.0,0.0,1.0,1.0,3134,0.0,0.0
1765218508177,0.0,0.0,1.0,10.0,0.0,0.0,0.0,0.0,0.0,0.0,-0.118828,0.011833999999999999,0.990518,-1.05,0.49000000000000005,0.07,3.32,3.33,3.31,3.28,3.31,3.32,3.31,3.3,3.34,3.35,3.33,3.32,3.31,3.29,3.22,3.33,3.32,3.28,3.27,3.31,3.34,3.34,3.29,3.31,3.36,3.27,79.5,9.0,1.0,0.0,1.0,1.0,3151,0.0,0.0
1765218508209,0.0,0.0,1.0,10.0,0.0,0.0,0.0,0.0,0.0,0.0,-0.118828,0.011833999999999999,0.990518,-1.05,0.49000000000000005,0.07,3.32,3.33,3.31,3.28,3.31,3.32,3.31,3.3,3.35,3.36,3.36,3.33,3.31,3.29,3.22,3.33,3.32,3.28,3.27,3.31,3.34,3.34,3.29,3.31,3.36,3.27,79.5,9.0,1.0,0.0,1.0,1.0,3183,0.0,0.0
1765218508243,0.0,0.0,1.0,10.0,0.0,0.0,0.0,0.0,0.0,0.0,-0.118828,0.011833999999999999,0.990518,-1.05,0.49000000000000005,0.07,3.32,3.33,3.31,3.28,3.31,3.32,3.31,3.3,3.35,3.36,3.36,3.33,3.32,3.32,3.32,3.33,3.32,3.28,3.27,3.31,3.34,3.34,3.29,3.31,3.36,3.27,79.5,9.0,1.0,0.0,1.0,1.0,3217,0.0,0.0
1765218508260,0.0,0.0,1.0,10.0,0.0,0.0,0.0,0.0,0.0,0.0,-0.118828,0.011833999999999999,0.990518,-1.05,0.49000000000000005,0.07,3.32,3.33,3.31,3.28,3.31,3.32,3.31,3.3,3.35,3.36,3.36,3.33,3.32,3.32,3.32,3.33,3.32,3.28,3.27,3.31,3.34,3.34,3.29,3.31,3.36,3.27,79.5,9.0,1.0,0.0,1.0,1.0,3234,0.0,0.0
1765218508276,0.0,0.0,1.0,10.0,0.0,0.0,0.0,0.0,0.0,0.0,-0.118828,0.011833999999999999,0.990518,-1.05,0.49000000000000005,0.07,3.32,3.33,3.31,3.28,3.31,3.32,3.31,3.3,3.35,3.36,3.36,3.33,3.32,3.32,3.32,3.33,3.32,3.32,3.32,3.32,3.34,3.34,3.29,3.31,3.36,3.27,79.5,9.0,1.0,0.0,1.0,1.0,3250,0.0,0.0
1765218508293,0.0,0.0,1.0,10.0,0.0,0.0,0.0,0.0,0.0,0.0,-0.118828,0.011833999999999999,0.990518,-1.05,0.49000000000000005,0.07,3.32,3.33,3.31,3.28,3.31,3.32,3.31,3.3,3.35,3.36,3.36,3.33,3.32,3.32,3.32,3.33,3.32,3.32,3.32,3.32,3.34,3.35,3.33,3.33,3.36,3.27,79.5,9.0,1.0,0.0,1.0,1.0,3267,0.0,0.0
1765218508360,0.0,0.0,1.0,10.0,0.0,0.0,0.0,0.0,0.0,0.0,-0.010248,-0.024399999999999998,1.016016,-1.05,0.49000000000000005,0.07,3.32,3.33,3.31,3.28,3.31,3.32,3.31,3.3,3.35,3.36,3.36,3.33,3.32,3.32,3.32,3.33,3.32,3.32,3.32,3.32,3.34,3.35,3.33,3.33,3.36,3.27,79.5,9.0,1.0,0.0,1.0,1.0,3334,0.0,0.0
1765218508377,0.0,0.0,1.0,10.0,0.0,0.0,0.0,0.0,0.0,0.0,-0.010248,-0.024399999999999998,1.016016,0.07,1.2600000000000002,0.6300000000000001,3.32,3.33,3.31,3.28,3.31,3.32,3.31,3.3,3.35,3.36,3.36,3.33,3.32,3.32,3.32,3.33,3.32,3.32,3.32,3.32,3.34,3.35,3.33,3.33,3.36,3.27,79.5,9.0,1.0,0.0,1.0,1.0,3351,0.0,0.0
1765218508427,0.0,0.0,1.0,10.0,0.0,0.0,0.0,0.0,0.0,0.0,-0.010248,-0.024399999999999998,1.016016,0.07,1.2600000000000002,0.6300000000000001,3.32,3.33,3.31,3.28,3.31,3.32,3.31,3.3,3.35,3.36,3.36,3.33,3.32,3.32,3.32,3.33,3.32,3.32,3.32,3.32,3.34,3.35,3.33,3.33,3.36,3.27,79.5,9.0,1.0,0.0,1.0,1.0,3401,0.0,0.0
1765218508444,0.0,0.0,1.0,10.0,0.0,0.0,0.0,0.0,0.0,0.0,-0.010248,-0.024399999999999998,1.016016,0.07,1.2600000000000002,0.6300000000000001,3.32,3.33,3.31,3.28,3.31,3.32,3.31,3.3,3.35,3.36,3.36,3.33,3.32,3.32,3.32,3.33,3.32,3.32,3.32,3.32,3.34,3.35,3.33,3.33,3.36,3.27,79.5,9.0,1.0,0.0,1.0,1.0,3418,0.0,0.0
1765218508461,0.0,0.0,1.0,10.0,0.0,0.0,0.0,0.0,0.0,0.0,-0.010248,-0.024399999999999998,1.016016,0.07,1.2600000000000002,0.6300000000000001,3.32,3.33,3.31,3.28,3.31,3.32,3.31,3.3,3.35,3.36,3.36,3.33,3.32,3.32,3.32,3.33,3.32,3.32,3.32,3.32,3.34,3.35,3.33,3.33,3.36,3.27,79.5,9.0,1.0,0.0,1.0,1.0,3435,0.0,0.0
1765218508494,0.0,0.0,1.0,10.0,0.0,0.0,0.0,0.0,0.0,0.0,0.030378,-0.009394,0.99064,0.07,1.2600000000000002,0.6300000000000001,3.32,3.33,3.31,3.28,3.31,3.32,3.31,3.3,3.35,3.36,3.36,3.33,3.32,3.32,3.32,3.33,3.32,3.32,3.32,3.32,3.34,3.35,3.33,3.33,3.36,3.27,79.5,9.0,1.0,0.0,1.0,1.0,3468,0.0,0.0
1765218508511,0.0,0.0,1.0,10.0,0.0,0.0,0.0,0.0,0.0,0.0,0.030378,-0.009394,0.99064,0.07,1.2600000000000002,0.6300000000000001,3.32,3.33,3.31,3.28,3.31,3.32,3.31,3.3,3.35,3.36,3.36,3.33,3.32,3.32,3.32,3.33,3.32,3.32,3.32,3.32,3.34,3.35,3.33,3.33,3.36,3.27,79.5,9.0,1.0,0.0,1.0,1.0,3485,0.0,0.0
1765218508528,0.0,0.0,1.0,10.0,0.0,0.0,0.0,0.0,0.0,0.0,0.030378,-0.009394,0.99064,-0.07,0.14,-0.28,3.32,3.33,3.31,3.28,3.31,3.32,3.31,3.3,3.35,3.36,3.36,3.33,3.32,3.32,3.32,3.33,3.32,3.32,3.32,3.32,3.34,3.35,3.33,3.33,3.36,3.27,79.5,9.0,1.0,0.0,1.0,1.0,3502,0.0,0.0
1765218508561,0.0,0.0,1.0,10.0,0.0,0.0,0.0,0.0,0.0,0.0,0.030378,-0.009394,0.99064,-0.07,0.14,-0.28,3.32,3.33,3.31,3.28,3.31,3.32,3.31,3.3,3.35,3.36,3.36,3.33,3.32,3.32,3.32,3.33,3.32,3.32,3.32,3.32,3.34,3.35,3.33,3.33,3.36,3.27,79.5,9.0,1.0,0.0,1.0,1.0,3535,0.0,0.0
1765218508577,0.0,0.0,1.0,10.0,0.0,0.0,0.0,0.0,0.0,0.0,0.030378,-0.009394,0.99064,-0.07,0.14,-0.28,3.32,3.33,3.31,3.28,3.31,3.32,3.31,3.3,3.35,3.36,3.36,3.33,3.32,3.32,3.32,3.33,3.32,3.32,3.32,3.32,3.34,3.35,3.33,3.33,3.36,3.27,79.5,9.0,1.0,0.0,1.0,1.0,3551,0.0,0.0
1765218508611,0.0,0.0,1.0,10.0,0.0,0.0,0.0,0.0,0.0,0.0,0.030378,-0.009394,0.99064,-0.07,0.14,-0.28,3.32,3.33,3.31,3.28,3.31,3.32,3.31,3.3,3.35,3.36,3.36,3.33,3.32,3.32,3.32,3.33,3.32,3.32,3.32,3.32,3.34,3.35,3.33,3.33,3.36,3.27,79.5,9.0,1.0,0.0,1.0,1.0,3585,0.0,0.0
1765218508661,0.0,0.0,1.0,10.0,0.0,0.0,0.0,0.0,0.0,0.0,0.030378,-0.009394,0.99064,-0.07,0.14,-0.28,3.32,3.33,3.31,3.28,3.31,3.32,3.31,3.3,3.35,3.36,3.36,3.33,3.32,3.32,3.32,3.33,3.32,3.32,3.32,3.32,3.34,3.35,3.33,3.33,3.36,3.27,79.5,9.0,1.0,0.0,1.0,1.0,3635,0.0,0.0
1765218508694,0.0,0.0,1.0,10.0,0.0,0.0,0.0,0.0,0.0,0.0,0.016347999999999998,-0.010492,0.996374,-0.07,0.14,-0.28,3.32,3.33,3.31,3.28,3.31,3.32,3.31,3.3,3.35,3.36,3.36,3.33,3.32,3.32,3.32,3.33,3.32,3.32,3.32,3.32,3.34,3.35,3.33,3.33,3.36,3.27,79.5,9.0,1.0,0.0,1.0,1.0,3668,0.0,0.0
1765218508727,0.0,0.0,1.0,10.0,0.0,0.0,0.0,0.0,0.0,0.0,0.016347999999999998,-0.010492,0.996374,-0.6300000000000001,0.21000000000000002,-0.14,3.32,3.33,3.31,3.28,3.31,3.32,3.31,3.3,3.35,3.36,3.36,3.33,3.32,3.32,3.32,3.33,3.32,3.32,3.32,3.32,3.34,3.35,3.33,3.33,3.36,3.27,79.5,9.0,1.0,0.0,1.0,1.0,3701,0.0,0.0
1765218508777,0.0,0.0,1.0,10.0,0.0,0.0,0.0,0.0,0.0,0.0,0.023302,-0.017811999999999998,0.9983259999999999,-0.6300000000000001,0.21000000000000002,-0.14,3.32,3.33,3.31,3.28,3.31,3.32,3.31,3.3,3.35,3.36,3.36,3.33,3.32,3.32,3.32,3.33,3.32,3.32,3.32,3.32,3.34,3.35,3.33,3.33,3.36,3.27,79.5,9.0,1.0,0.0,1.0,1.0,3751,0.0,0.0
1765218508794,0.0,0.0,1.0,10.0,0.0,0.0,0.0,0.0,0.0,0.0,0.023302,-0.017811999999999998,0.9983259999999999,-0.77,0.56,-0.07,3.32,3.33,3.31,3.28,3.31,3.32,3.31,3.3,3.35,3.36,3.36,3.33,3.32,3.32,3.32,3.33,3.32,3.32,3.32,3.32,3.34,3.35,3.33,3.33,3.36,3.27,79.5,9.0,1.0,0.0,1.0,1.0,3768,0.0,0.0
1765218508811,0.0,0.0,1.0,10.0,0.0,0.0,0.0,0.0,0.0,0.0,0.023302,-0.017811999999999998,0.9983259999999999,-0.77,0.56,-0.07,3.32,3.33,3.31,3.28,3.31,3.32,3.31,3.3,3.35,3.36,3.36,3.33,3.32,3.32,3.32,3.33,3.32,3.32,3.32,3.32,3.34,3.35,3.33,3.33,3.36,3.27,79.5,9.0,1.0,0.0,1.0,1.0,3785,0.0,0.0
1765218508827,0.0,0.0,1.0,10.0,0.0,0.0,0.0,0.0,0.0,0.0,0.023302,-0.017811999999999998,0.9983259999999999,-0.77,0.56,-0.07,3.32,3.33,3.31,3.28,3.31,3.32,3.31,3.3,3.35,3.36,3.36,3.33,3.32,3.32,3.32,3.33,3.32,3.32,3.32,3.32,3.34,3.35,3.33,3.33,3.36,3.27,79.5,9.0,1.0,0.0,1.0,1.0,3801,0.0,0.0
1765218508844,0.0,0.0,1.0,10.0,0.0,0.0,0.0,0.0,0.0,0.0,0.023302,-0.017811999999999998,0.9983259999999999,-0.77,0.56,-0.07,3.32,3.33,3.31,3.28,3.31,3.32,3.31,3.3,3.35,3.36,3.36,3.33,3.32,3.32,3.32,3.33,3.32,3.32,3.32,3.32,3.34,3.35,3.33,3.33,3.36,3.27,79.5,9.0,1.0,0.0,1.0,1.0,3818,0.0,0.0
1765218508878,0.0,0.0,1.0,10.0,0.0,0.0,0.0,0.0,0.0,0.0,0.023302,-0.017811999999999998,0.9983259999999999,-0.77,0.56,-0.07,3.32,3.33,3.31,3.28,3.31,3.32,3.31,3.3,3.35,3.36,3.36,3.33,3.32,3.32,3.32,3.33,3.32,3.32,3.32,3.32,3.34,3.35,3.33,3.33,3.36,3.27,79.5,9.0,1.0,0.0,1.0,1.0,3852,0.0,0.0
1765218508894,0.0,0.0,1.0,10.0,0.0,0.0,0.0,0.0,0.0,0.0,0.023302,-0.017811999999999998,0.9983259999999999,-0.77,0.56,-0.07,3.32,3.33,3.31,3.28,3.31,3.32,3.31,3.3,3.35,3.36,3.36,3.33,3.32,3.32,3.32,3.33,3.32,3.32,3.32,3.32,3.34,3.35,3.33,3.33,3.36,3.27,79.5,9.0,1.0,0.0,1.0,1.0,3868,0.0,0.0
1765218508943,0.0,0.0,1.0,10.0,0.0,0.0,0.0,0.0,0.0,0.0,0.023302,-0.017811999999999998,0.9983259999999999,-0.77,0.56,-0.07,3.32,3.33,3.31,3.28,3.31,3.32,3.31,3.3,3.35,3.36,3.36,3.33,3.32,3.32,3.32,3.33,3.32,3.32,3.32,3.32,3.34,3.35,3.33,3.33,3.36,3.27,79.5,9.0,1.0,0.0,1.0,1.0,3917,0.0,0.0
1765218509010,0.0,0.0,1.0,10.0,0.0,0.0,0.0,0.0,0.0,0.0,0.008418,-0.014884,0.9946659999999999,-0.77,0.56,-0.07,3.32,3.33,3.31,3.28,3.31,3.32,3.31,3.3,3.35,3.36,3.36,3.33,3.32,3.32,3.32,3.33,3.32,3.32,3.32,3.32,3.34,3.35,3.33,3.33,3.36,3.27,79.5,9.0,1.0,0.0,1.0,1.0,3984,0.0,0.0
1765218509026,0.0,0.0,1.0,10.0,0.0,0.0,0.0,0.0,0.0,0.0,0.008418,-0.014884,0.9946659999999999,-0.77,0.56,-0.07,3.32,3.33,3.31,3.28,3.31,3.32,3.31,3.3,3.35,3.36,3.36,3.33,3.32,3.32,3.32,3.33,3.32,3.32,3.32,3.32,3.34,3.35,3.33,3.33,3.36,3.28,79.8,0.0,1.0,0.0,1.0,1.0,4000,0.0,0.0
1765218509044,0.0,0.0,1.0,10.0,0.0,0.0,0.0,0.0,0.0,0.0,0.008418,-0.014884,0.9946659999999999,-0.77,0.56,-0.07,3.32,3.33,3.31,3.28,3.31,3.32,3.31,3.3,3.35,3.36,3.36,3.33,3.32,3.32,3.32,3.33,3.32,3.32,3.32,3.32,3.34,3.35,3.33,3.33,3.36,3.28,79.8,0.0,1.0,0.0,1.0,1.0,4018,0.0,0.0
1765218509061,0.0,0.0,1.0,10.0,0.0,0.0,0.0,0.0,0.0,0.0,0.008418,-0.014884,0.9946659999999999,-0.7000000000000001,0.6300000000000001,-0.07,3.32,3.33,3.31,3.28,3.31,3.32,3.31,3.3,3.35,3.36,3.36,3.33,3.32,3.32,3.32,3.33,3.32,3.32,3.32,3.32,3.34,3.35,3.33,3.33,3.36,3.28,79.8,0.0,1.0,0.0,1.0,1.0,4035,0.0,0.0
1765218509127,0.0,0.0,1.0,10.0,0.0,0.0,0.0,0.0,0.0,0.0,0.008418,-0.014884,0.9946659999999999,-0.7000000000000001,0.6300000000000001,-0.07,3.32,3.33,3.31,3.28,3.31,3.32,3.31,3.3,3.35,3.36,3.36,3.33,3.32,3.32,3.32,3.33,3.32,3.32,3.32,3.32,3.34,3.35,3.33,3.33,3.36,3.28,79.8,0.0,1.0,0.0,1.0,1.0,4101,0.0,0.0
1765218509144,0.0,0.0,1.0,10.0,0.0,0.0,0.0,0.0,0.0,0.0,0.011101999999999999,-0.015006,0.992348,-0.7000000000000001,0.6300000000000001,-0.07,3.32,3.33,3.31,3.28,3.31,3.32,3.31,3.3,3.35,3.36,3.36,3.33,3.32,3.32,3.32,3.33,3.32,3.32,3.32,3.32,3.34,3.35,3.33,3.33,3.36,3.28,79.8,0.0,1.0,0.0,1.0,1.0,4118,0.0,0.0
1765218509161,0.0,0.0,1.0,10.0,0.0,0.0,0.0,0.0,0.0,0.0,0.011101999999999999,-0.015006,0.992348,-0.7000000000000001,0.6300000000000001,-0.07,3.32,3.33,3.31,3.28,3.31,3.32,3.31,3.3,3.35,3.36,3.36,3.33,3.32,3.32,3.32,3.33,3.32,3.32,3.32,3.32,3.34,3.35,3.33,3.33,3.36,3.28,79.8,0.0,1.0,0.0,1.0,1.0,4135,0.0,0.0
1765218509194,0.0,0.0,1.0,10.0,0.0,0.0,0.0,0.0,0.0,0.0,0.011101999999999999,-0.015006,0.992348,-0.7000000000000001,0.49000000000000005,-0.07,3.32,3.33,3.31,3.28,3.31,3.32,3.31,3.3,3.35,3.36,3.36,3.33,3.32,3.32,3.32,3.33,3.32,3.32,3.32,3.32,3.34,3.35,3.33,3.33,3.36,3.28,79.8,0.0,1.0,0.0,1.0,1.0,4168,0.0,0.0
1765218509243,0.0,0.0,1.0,10.0,0.0,0.0,0.0,0.0,0.0,0.0,0.011101999999999999,-0.015006,0.992348,-0.7000000000000001,0.49000000000000005,-0.07,3.32,3.33,3.31,3.28,3.31,3.32,3.31,3.3,3.35,3.36,3.36,3.33,3.32,3.32,3.32,3.33,3.32,3.32,3.32,3.32,3.34,3.35,3.33,3.33,3.36,3.28,79.8,0.0,1.0,0.0,1.0,1.0,4217,0.0,0.0
1765218509260,0.0,0.0,1.0,10.0,0.0,0.0,0.0,0.0,0.0,0.0,0.011101999999999999,-0.015006,0.992348,-0.7000000000000001,0.49000000000000005,-0.07,3.32,3.33,3.31,3.28,3.31,3.32,3.31,3.3,3.35,3.36,3.36,3.33,3.32,3.32,3.32,3.33,3.32,3.32,3.32,3.32,3.34,3.35,3.33,3.33,3.36,3.28,79.8,0.0,1.0,0.0,1.0,1.0,4234,0.0,0.0
1765218509277,0.0,0.0,1.0,10.0,0.0,0.0,0.0,0.0,0.0,0.0,0.011101999999999999,-0.015006,0.992348,-0.7000000000000001,0.49000000000000005,-0.07,3.32,3.33,3.31,3.28,3.31,3.32,3.31,3.3,3.35,3.36,3.36,3.33,3.32,3.32,3.32,3.33,3.32,3.32,3.32,3.32,3.34,3.35,3.33,3.33,3.36,3.28,79.8,0.0,1.0,0.0,1.0,1.0,4251,0.0,0.0
1765218509295,0.0,0.0,1.0,10.0,0.0,0.0,0.0,0.0,0.0,0.0,0.011101999999999999,-0.015006,0.992348,-0.7000000000000001,0.49000000000000005,-0.07,3.32,3.33,3.31,3.28,3.31,3.32,3.31,3.3,3.35,3.36,3.36,3.33,3.32,3.32,3.32,3.33,3.32,3.32,3.32,3.32,3.34,3.35,3.33,3.33,3.36,3.28,79.8,0.0,1.0,0.0,1.0,1.0,4269,0.0,0.0
1765218509312,0.0,0.0,1.0,10.0,0.0,0.0,0.0,0.0,0.0,0.0,0.011101999999999999,-0.015006,0.992348,-0.7000000000000001,0.49000000000000005,-0.07,3.32,3.33,3.31,3.28,3.31,3.32,3.31,3.3,3.35,3.36,3.36,3.33,3.32,3.32,3.32,3.33,3.32,3.32,3.32,3.32,3.34,3.35,3.33,3.33,3.36,3.28,79.8,0.0,1.0,0.0,1.0,1.0,4286,0.0,0.0
1765218509361,0.0,0.0,1.0,10.0,0.0,0.0,0.0,0.0,0.0,0.0,0.019154,-0.013663999999999999,0.9989359999999999,-0.7000000000000001,0.49000000000000005,-0.07,3.32,3.33,3.31,3.28,3.31,3.32,3.31,3.3,3.35,3.36,3.36,3.33,3.32,3.32,3.32,3.33,3.32,3.32,3.32,3.32,3.34,3.35,3.33,3.33,3.36,3.28,79.8,0.0,1.0,0.0,1.0,1.0,4335,0.0,0.0
1765218509377,0.0,0.0,1.0,10.0,0.0,0.0,0.0,0.0,0.0,0.0,0.019154,-0.013663999999999999,0.9989359999999999,-0.7000000000000001,0.49000000000000005,-0.07,3.32,3.33,3.31,3.28,3.31,3.32,3.31,3.3,3.35,3.36,3.36,3.33,3.32,3.32,3.32,3.33,3.32,3.32,3.32,3.32,3.34,3.35,3.33,3.33,3.36,3.28,79.8,0.0,1.0,0.0,1.0,1.0,4351,0.0,0.0
1765218509427,0.0,0.0,1.0,10.0,0.0,0.0,0.0,0.0,0.0,0.0,0.019154,-0.013663999999999999,0.9989359999999999,-0.7000000000000001,0.56,-0.07,3.32,3.33,3.31,3.28,3.31,3.32,3.31,3.3,3.35,3.36,3.36,3.33,3.32,3.32,3.32,3.33,3.32,3.32,3.32,3.32,3.34,3.35,3.33,3.33,3.36,3.28,79.8,0.0,1.0,0.0,1.0,1.0,4401,0.0,0.0
1765218509493,0.0,0.0,1.0,10.0,0.0,0.0,0.0,0.0,0.0,0.0,0.010126,-0.014152,0.992104,-0.6300000000000001,0.6300000000000001,-0.14,3.32,3.33,3.31,3.28,3.31,3.32,3.31,3.3,3.35,3.36,3.36,3.33,3.32,3.32,3.32,3.33,3.32,3.32,3.32,3.32,3.34,3.35,3.33,3.33,3.36,3.28,79.8,0.0,1.0,0.0,1.0,1.0,4467,0.0,0.0
1765218509527,0.0,0.0,1.0,10.0,0.0,0.0,0.0,0.0,0.0,0.0,0.010126,-0.014152,0.992104,-0.6300000000000001,0.6300000000000001,-0.14,3.32,3.33,3.31,3.28,3.31,3.32,3.31,3.3,3.35,3.36,3.36,3.33,3.32,3.32,3.32,3.33,3.32,3.32,3.32,3.32,3.34,3.35,3.33,3.33,3.36,3.28,79.8,0.0,1.0,0.0,1.0,1.0,4501,0.0,0.0
1765218509543,0.0,0.0,1.0,10.0,0.0,0.0,0.0,0.0,0.0,0.0,0.010126,-0.014152,0.992104,-0.6300000000000001,0.6300000000000001,-0.14,3.32,3.33,3.31,3.28,3.31,3.32,3.31,3.3,3.35,3.36,3.36,3.33,3.32,3.32,3.32,3.33,3.32,3.32,3.32,3.32,3.34,3.35,3.33,3.33,3.36,3.28,79.8,0.0,1.0,0.0,1.0,1.0,4517,0.0,0.0
1765218509560,0.0,0.0,1.0,10.0,0.0,0.0,0.0,0.0,0.0,0.0,0.010126,-0.014152,0.992104,-0.6300000000000001,0.6300000000000001,-0.14,3.32,3.33,3.31,3.28,3.31,3.32,3.31,3.3,3.35,3.36,3.36,3.33,3.32,3.32,3.32,3.33,3.32,3.32,3.32,3.32,3.34,3.35,3.33,3.33,3.36,3.28,79.8,0.0,1.0,0.0,1.0,1.0,4534,0.0,0.0
1765218509577,0.0,0.0,1.0,10.0,0.0,0.0,0.0,0.0,0.0,0.0,0.010126,-0.014152,0.992104,-0.6300000000000001,0.6300000000000001,-0.14,3.32,3.33,3.31,3.28,3.31,3.32,3.31,3.3,3.35,3.36,3.36,3.33,3.32,3.32,3.32,3.33,3.32,3.32,3.32,3.32,3.34,3.35,3.33,3.33,3.36,3.28,79.8,0.0,1.0,0.0,1.0,1.0,4551,0.0,0.0
1765218509610,0.0,0.0,1.0,10.0,0.0,0.0,0.0,0.0,0.0,0.0,0.010126,-0.014152,0.992104,-0.6300000000000001,0.6300000000000001,-0.14,3.32,3.33,3.31,3.28,3.31,3.32,3.31,3.3,3.35,3.36,3.36,3.33,3.32,3.32,3.32,3.33,3.32,3.32,3.32,3.32,3.34,3.35,3.33,3.33,3.36,3.28,79.8,0.0,1.0,0.0,1.0,1.0,4584,0.0,0.0
1765218509660,0.0,0.0,1.0,10.0,0.0,0.0,0.0,0.0,0.0,0.0,0.010126,-0.014152,0.992104,-0.6300000000000001,0.6300000000000001,-0.14,3.32,3.33,3.31,3.28,3.31,3.32,3.31,3.3,3.35,3.36,3.36,3.33,3.32,3.32,3.32,3.33,3.32,3.32,3.32,3.32,3.34,3.35,3.33,3.33,3.36,3.28,79.8,0.0,1.0,0.0,1.0,1.0,4634,0.0,0.0
1765218509694,0.0,0.0,1.0,10.0,0.0,0.0,0.0,0.0,0.0,0.0,0.015616,-0.016347999999999998,0.99674,-0.6300000000000001,0.6300000000000001,-0.14,3.32,3.33,3.31,3.28,3.31,3.32,3.31,3.3,3.35,3.36,3.36,3.33,3.32,3.32,3.32,3.33,3.32,3.32,3.32,3.32,3.34,3.35,3.33,3.33,3.36,3.28,79.8,0.0,1.0,0.0,1.0,1.0,4668,0.0,0.0
1765218509744,0.0,0.0,1.0,10.0,0.0,0.0,0.0,0.0,0.0,0.0,0.015616,-0.016347999999999998,0.99674,-0.77,0.49000000000000005,-0.07,3.32,3.33,3.31,3.28,3.31,3.32,3.31,3.3,3.35,3.36,3.36,3.33,3.32,3.32,3.32,3.33,3.32,3.32,3.32,3.32,3.34,3.35,3.33,3.33,3.36,3.28,79.8,0.0,1.0,0.0,1.0,1.0,4718,0.0,0.0
1765218509777,0.0,0.0,1.0,10.0,0.0,0.0,0.0,0.0,0.0,0.0,0.015616,-0.016347999999999998,0.99674,-0.77,0.49000000000000005,-0.07,3.32,3.33,3.31,3.28,3.31,3.32,3.31,3.3,3.35,3.36,3.36,3.33,3.32,3.32,3.32,3.33,3.32,3.32,3.32,3.32,3.34,3.35,3.33,3.33,3.36,3.28,79.8,0.0,1.0,0.0,1.0,1.0,4751,0.0,0.0
1765218509794,0.0,0.0,1.0,10.0,0.0,0.0,0.0,0.0,0.0,0.0,0.015616,-0.016347999999999998,0.99674,-0.77,0.49000000000000005,-0.07,3.32,3.33,3.31,3.28,3.31,3.32,3.31,3.3,3.35,3.36,3.36,3.34,3.32,3.32,3.32,3.33,3.32,3.32,3.32,3.32,3.34,3.35,3.33,3.33,3.36,3.28,79.8,0.0,1.0,0.0,1.0,1.0,4768,0.0,0.0
1765218509811,0.0,0.0,1.0,10.0,0.0,0.0,0.0,0.0,0.0,0.0,0.015616,-0.016347999999999998,0.99674,-0.77,0.49000000000000005,-0.07,3.32,3.33,3.31,3.28,3.31,3.32,3.31,3.3,3.35,3.36,3.36,3.34,3.32,3.32,3.32,3.33,3.32,3.32,3.32,3.32,3.34,3.35,3.33,3.33,3.36,3.28,79.8,0.0,1.0,0.0,1.0,1.0,4785,0.0,0.0
1765218509860,0.0,0.0,1.0,10.0,0.0,0.0,0.0,0.0,0.0,0.0,-0.000488,-0.009394,0.99979,-0.77,0.49000000000000005,-0.07,3.32,3.33,3.31,3.28,3.31,3.32,3.31,3.3,3.35,3.36,3.36,3.34,3.32,3.32,3.32,3.33,3.32,3.32,3.32,3.32,3.34,3.35,3.33,3.33,3.36,3.28,79.8,0.0,1.0,0.0,1.0,1.0,4834,0.0,0.0
1765218509880,0.0,0.0,1.0,10.0,0.0,0.0,0.0,0.0,0.0,0.0,-0.000488,-0.009394,0.99979,-0.77,0.56,-0.14,3.32,3.33,3.31,3.28,3.31,3.32,3.31,3.3,3.35,3.36,3.36,3.34,3.32,3.32,3.32,3.33,3.32,3.32,3.32,3.32,3.34,3.35,3.33,3.33,3.36,3.28,79.8,0.0,1.0,0.0,1.0,1.0,4854,0.0,0.0
1765218509910,0.0,0.0,1.0,10.0,0.0,0.0,0.0,0.0,0.0,0.0,-0.000488,-0.009394,0.99979,-0.77,0.56,-0.14,3.32,3.33,3.31,3.28,3.31,3.32,3.31,3.3,3.35,3.36,3.36,3.34,3.32,3.32,3.32,3.33,3.32,3.32,3.32,3.32,3.34,3.35,3.33,3.33,3.36,3.28,79.8,0.0,1.0,0.0,1.0,1.0,4884,0.0,0.0
1765218509927,0.0,0.0,1.0,10.0,0.0,0.0,0.0,0.0,0.0,0.0,-0.000488,-0.009394,0.99979,-0.77,0.56,-0.14,3.32,3.33,3.31,3.28,3.31,3.32,3.31,3.3,3.35,3.36,3.36,3.34,3.32,3.32,3.32,3.33,3.32,3.32,3.32,3.32,3.34,3.35,3.33,3.33,3.36,3.28,79.8,0.0,1.0,0.0,1.0,1.0,4901,0.0,0.0
1765218509960,0.0,0.0,1.0,10.0,0.0,0.0,0.0,0.0,0.0,0.0,-0.000488,-0.009394,0.99979,-0.77,0.56,-0.14,3.32,3.33,3.31,3.28,3.31,3.32,3.31,3.3,3.35,3.36,3.36,3.34,3.32,3.32,3.32,3.33,3.32,3.32,3.32,3.32,3.34,3.35,3.33,3.34,3.36,3.28,79.8,0.0,1.0,0.0,1.0,1.0,4934,0.0,0.0
1765218509993,0.0,0.0,1.0,10.0,0.0,0.0,0.0,0.0,0.0,0.0,-0.000488,-0.009394,0.99979,-0.77,0.56,-0.14,3.32,3.33,3.31,3.28,3.31,3.32,3.31,3.3,3.35,3.36,3.36,3.34,3.32,3.32,3.32,3.33,3.32,3.32,3.32,3.32,3.34,3.35,3.33,3.34,3.36,3.28,79.8,0.0,1.0,0.0,1.0,1.0,4967,0.0,0.0
1765218510011,0.0,0.0,1.0,10.0,0.0,0.0,0.0,0.0,0.0,0.0,-0.000488,-0.009394,0.99979,-0.77,0.56,-0.14,3.32,3.33,3.31,3.28,3.31,3.32,3.31,3.3,3.35,3.36,3.36,3.34,3.32,3.32,3.32,3.33,3.32,3.32,3.32,3.32,3.34,3.35,3.33,3.34,3.36,3.28,79.8,0.0,1.0,0.0,1.0,1.0,4985,0.0,0.0
1765218510027,0.0,0.0,1.0,10.0,0.0,0.0,0.0,0.0,0.0,0.0,-0.000488,-0.009394,0.99979,-0.77,0.56,-0.14,3.32,3.33,3.31,3.28,3.31,3.32,3.31,3.3,3.35,3.36,3.36,3.34,3.32,3.32,3.32,3.33,3.32,3.32,3.32,3.32,3.34,3.35,3.33,3.34,3.36,3.28,79.8,0.0,1.0,0.0,1.0,1.0,5001,0.0,0.0
1765218510060,0.0,0.0,1.0,10.0,0.0,0.0,0.0,0.0,0.0,0.0,-0.000488,-0.009394,0.99979,-0.77,0.56,-0.14,3.32,3.33,3.31,3.28,3.31,3.32,3.31,3.3,3.35,3.36,3.36,3.34,3.32,3.32,3.32,3.33,3.32,3.32,3.32,3.32,3.34,3.35,3.33,3.34,3.36,3.28,79.8,0.0,1.0,0.0,1.0,1.0,5034,0.0,0.0
1765218510110,0.0,0.0,1.0,10.0,0.0,0.0,0.0,0.0,0.0,0.0,-0.000488,-0.009394,0.99979,-0.77,0.56,-0.14,3.32,3.33,3.31,3.28,3.31,3.32,3.31,3.3,3.35,3.36,3.36,3.34,3.32,3.32,3.32,3.33,3.32,3.32,3.32,3.32,3.34,3.35,3.33,3.34,3.36,3.28,79.8,0.0,1.0,0.0,1.0,1.0,5084,0.0,0.0
1765218510126,0.0,0.0,1.0,10.0,0.0,0.0,0.0,0.0,0.0,0.0,0.015127999999999999,-0.026595999999999998,0.995398,-0.77,0.56,-0.14,3.32,3.33,3.31,3.28,3.31,3.32,3.31,3.3,3.35,3.36,3.36,3.34,3.32,3.32,3.32,3.33,3.32,3.32,3.32,3.32,3.34,3.35,3.33,3.34,3.36,3.28,79.8,0.0,1.0,0.0,1.0,1.0,5100,0.0,0.0
1765218510177,0.0,0.0,1.0,10.0,0.0,0.0,0.0,0.0,0.0,0.0,0.015127999999999999,-0.026595999999999998,0.995398,-0.6300000000000001,0.42000000000000004,-0.07,3.32,3.33,3.31,3.28,3.31,3.32,3.31,3.3,3.35,3.36,3.36,3.34,3.32,3.32,3.32,3.33,3.32,3.32,3.32,3.32,3.34,3.35,3.33,3.34,3.36,3.28,79.8,0.0,1.0,0.0,1.0,1.0,5151,0.0,0.0
1765218510228,0.0,0.0,1.0,10.0,0.0,0.0,0.0,0.0,0.0,0.0,0.016226,-0.010735999999999999,1.008818,-0.6300000000000001,0.42000000000000004,-0.07,3.32,3.33,3.31,3.28,3.31,3.32,3.31,3.3,3.35,3.36,3.36,3.34,3.32,3.32,3.32,3.33,3.32,3.32,3.32,3.32,3.34,3.35,3.33,3.34,3.36,3.28,79.8,0.0,1.0,0.0,1.0,1.0,5202,0.0,0.0
1765218510244,0.0,0.0,1.0,10.0,0.0,0.0,0.0,0.0,0.0,0.0,0.016226,-0.010735999999999999,1.008818,-0.9100000000000001,0.77,0.14,3.32,3.33,3.31,3.28,3.31,3.32,3.31,3.3,3.35,3.36,3.36,3.34,3.32,3.32,3.32,3.33,3.32,3.32,3.32,3.32,3.34,3.35,3.33,3.34,3.36,3.28,79.8,0.0,1.0,0.0,1.0,1.0,5218,0.0,0.0
1765218510278,0.0,0.0,1.0,10.0,0.0,0.0,0.0,0.0,0.0,0.0,0.016226,-0.010735999999999999,1.008818,-0.9100000000000001,0.77,0.14,3.32,3.33,3.31,3.28,3.31,3.32,3.31,3.3,3.35,3.36,3.36,3.34,3.32,3.32,3.32,3.33,3.32,3.32,3.32,3.32,3.34,3.35,3.33,3.34,3.36,3.28,79.8,0.0,1.0,0.0,1.0,1.0,5252,0.0,0.0
1765218510312,0.0,0.0,1.0,10.0,0.0,0.0,0.0,0.0,0.0,0.0,0.016226,-0.010735999999999999,1.008818,-0.9100000000000001,0.77,0.14,3.32,3.33,3.31,3.28,3.31,3.32,3.31,3.3,3.35,3.36,3.36,3.34,3.32,3.32,3.32,3.33,3.32,3.32,3.32,3.32,3.34,3.35,3.33,3.34,3.36,3.28,79.8,0.0,1.0,0.0,1.0,1.0,5286,0.0,0.0
1765218510344,0.0,0.0,1.0,10.0,0.0,0.0,0.0,0.0,0.0,0.0,0.016226,-0.010735999999999999,1.008818,-0.9100000000000001,0.77,0.14,3.32,3.33,3.31,3.28,3.31,3.32,3.31,3.3,3.35,3.36,3.36,3.34,3.32,3.32,3.32,3.33,3.32,3.32,3.32,3.32,3.34,3.35,3.33,3.34,3.36,3.28,79.8,0.0,1.0,0.0,1.0,1.0,5318,0.0,0.0
1765218510393,0.0,0.0,1.0,10.0,0.0,0.0,0.0,0.0,0.0,0.0,0.016226,-0.010735999999999999,1.008818,-0.9100000000000001,0.77,0.14,3.32,3.33,3.31,3.28,3.31,3.32,3.31,3.3,3.35,3.36,3.36,3.34,3.32,3.32,3.32,3.33,3.32,3.32,3.32,3.32,3.34,3.35,3.33,3.34,3.36,3.28,79.8,0.0,1.0,0.0,1.0,1.0,5367,0.0,0.0
1765218510444,0.0,0.0,1.0,10.0,0.0,0.0,0.0,0.0,0.0,0.0,0.016226,-0.010735999999999999,1.008818,-0.9100000000000001,0.77,0.14,3.32,3.33,3.31,3.28,3.31,3.32,3.31,3.3,3.35,3.36,3.36,3.34,3.32,3.32,3.32,3.33,3.32,3.32,3.32,3.32,3.34,3.35,3.33,3.34,3.36,3.28,79.8,0.0,1.0,0.0,1.0,1.0,5418,0.0,0.0
1765218510511,0.0,0.0,1.0,10.0,0.0,0.0,0.0,0.0,0.0,0.0,0.016226,-0.010735999999999999,1.008818,-0.9100000000000001,0.77,0.14,3.32,3.33,3.31,3.28,3.31,3.32,3.31,3.3,3.35,3.36,3.36,3.34,3.32,3.32,3.32,3.33,3.32,3.32,3.32,3.32,3.34,3.35,3.33,3.34,3.36,3.28,79.8,0.0,1.0,0.0,1.0,1.0,5485,0.0,0.0
1765218510613,0.0,0.0,1.0,10.0,0.0,0.0,0.0,0.0,0.0,0.0,0.0060999999999999995,-0.01586,1.006866,-0.56,0.7000000000000001,-0.07,3.32,3.33,3.31,3.28,3.31,3.32,3.31,3.3,3.35,3.36,3.36,3.34,3.32,3.32,3.32,3.33,3.32,3.32,3.32,3.32,3.34,3.35,3.33,3.34,3.36,3.28,79.8,0.0,1.0,0.0,1.0,1.0,5587,0.0,0.0
1765218510661,0.0,0.0,1.0,10.0,0.0,0.0,0.0,0.0,0.0,0.0,0.0060999999999999995,-0.01586,1.006866,-0.56,0.7000000000000001,-0.07,3.32,3.33,3.31,3.28,3.31,3.32,3.31,3.3,3.35,3.36,3.36,3.34,3.32,3.32,3.32,3.33,3.32,3.32,3.32,3.32,3.34,3.35,3.33,3.34,3.36,3.28,79.8,0.0,1.0,0.0,1.0,1.0,5635,0.0,0.0
1765218510676,0.0,0.0,1.0,10.0,0.0,0.0,0.0,0.0,0.0,0.0,0.028791999999999998,-0.017934,0.975024,-0.56,0.7000000000000001,-0.07,3.32,3.33,3.31,3.28,3.31,3.32,3.31,3.3,3.35,3.36,3.36,3.34,3.32,3.32,3.32,3.33,3.32,3.32,3.32,3.32,3.34,3.35,3.33,3.34,3.36,3.28,79.8,0.0,1.0,0.0,1.0,1.0,5650,0.0,0.0
1765218510694,0.0,0.0,1.0,10.0,0.0,0.0,0.0,0.0,0.0,0.0,0.028791999999999998,-0.017934,0.975024,-0.56,0.7000000000000001,-0.07,3.32,3.33,3.31,3.28,3.31,3.32,3.31,3.3,3.35,3.36,3.36,3.34,3.32,3.32,3.32,3.33,3.32,3.32,3.32,3.32,3.34,3.35,3.33,3.34,3.36,3.28,79.8,0.0,1.0,0.0,1.0,1.0,5668,0.0,0.0
1765218510711,0.0,0.0,1.0,10.0,0.0,0.0,0.0,0.0,0.0,0.0,0.028791999999999998,-0.017934,0.975024,-0.56,0.7000000000000001,-0.07,3.32,3.33,3.31,3.28,3.31,3.32,3.31,3.3,3.35,3.36,3.36,3.34,3.32,3.32,3.32,3.33,3.32,3.32,3.32,3.32,3.34,3.35,3.33,3.34,3.36,3.28,79.8,0.0,1.0,0.0,1.0,1.0,5685,0.0,0.0
1765218510726,0.0,0.0,1.0,10.0,0.0,0.0,0.0,0.0,0.0,0.0,0.028791999999999998,-0.017934,0.975024,-0.56,0.7000000000000001,-0.07,3.32,3.33,3.31,3.28,3.31,3.32,3.31,3.3,3.35,3.36,3.36,3.34,3.32,3.32,3.32,3.33,3.32,3.32,3.32,3.32,3.34,3.35,3.33,3.34,3.36,3.28,79.8,0.0,1.0,0.0,1.0,1.0,5700,0.0,0.0
1765218510743,0.0,0.0,1.0,10.0,0.0,0.0,0.0,0.0,0.0,0.0,0.028791999999999998,-0.017934,0.975024,-0.56,0.7000000000000001,-0.07,3.32,3.33,3.31,3.28,3.31,3.32,3.31,3.3,3.35,3.36,3.36,3.34,3.32,3.32,3.32,3.33,3.32,3.32,3.32,3.32,3.34,3.35,3.33,3.34,3.36,3.28,79.8,0.0,1.0,0.0,1.0,1.0,5717,0.0,0.0
1765218510760,0.0,0.0,1.0,10.0,0.0,0.0,0.0,0.0,0.0,0.0,0.028791999999999998,-0.017934,0.975024,-0.56,0.7000000000000001,-0.07,3.32,3.33,3.31,3.28,3.31,3.32,3.31,3.3,3.35,3.36,3.36,3.34,3.32,3.32,3.32,3.33,3.32,3.32,3.32,3.32,3.34,3.35,3.33,3.34,3.36,3.28,79.8,0.0,1.0,0.0,1.0,1.0,5734,0.0,0.0
1765218510777,0.0,0.0,1.0,10.0,0.0,0.0,0.0,0.0,0.0,0.0,0.028791999999999998,-0.017934,0.975024,-0.9800000000000001,0.56,-0.14,3.32,3.33,3.31,3.28,3.31,3.32,3.31,3.3,3.35,3.36,3.36,3.34,3.32,3.32,3.32,3.33,3.32,3.32,3.32,3.32,3.34,3.35,3.33,3.34,3.36,3.28,79.8,0.0,1.0,0.0,1.0,1.0,5751,0.0,0.0
1765218510826,0.0,0.0,1.0,10.0,0.0,0.0,0.0,0.0,0.0,0.0,0.028791999999999998,-0.017934,0.975024,-0.9800000000000001,0.56,-0.14,3.32,3.33,3.31,3.28,3.31,3.32,3.31,3.3,3.35,3.36,3.36,3.34,3.32,3.32,3.32,3.33,3.32,3.32,3.32,3.32,3.34,3.35,3.33,3.34,3.36,3.28,79.8,0.0,1.0,0.0,1.0,1.0,5800,0.0,0.0
1765218510912,0.0,0.0,1.0,10.0,0.0,0.0,0.0,0.0,0.0,0.0,0.0305,-0.017568,1.005768,-0.35000000000000003,0.6300000000000001,0.0,3.32,3.33,3.31,3.28,3.31,3.32,3.31,3.3,3.35,3.36,3.36,3.34,3.32,3.32,3.32,3.33,3.32,3.32,3.32,3.32,3.34,3.35,3.33,3.34,3.36,3.28,79.8,0.0,1.0,0.0,1.0,1.0,5886,0.0,0.0
1765218510960,0.0,0.0,1.0,10.0,0.0,0.0,0.0,0.0,0.0,0.0,0.0305,-0.017568,1.005768,-0.35000000000000003,0.6300000000000001,0.0,3.32,3.33,3.31,3.28,3.31,3.32,3.31,3.3,3.35,3.36,3.36,3.34,3.32,3.32,3.32,3.33,3.32,3.32,3.32,3.32,3.34,3.35,3.33,3.34,3.36,3.28,79.8,0.0,1.0,0.0,1.0,1.0,5934,0.0,0.0
1765218510978,0.0,0.0,1.0,10.0,0.0,0.0,0.0,0.0,0.0,0.0,0.0305,-0.017568,1.005768,-0.35000000000000003,0.6300000000000001,0.0,3.32,3.33,3.31,3.28,3.31,3.32,3.31,3.3,3.35,3.36,3.36,3.34,3.32,3.32,3.32,3.33,3.32,3.32,3.32,3.32,3.34,3.35,3.33,3.34,3.36,3.28,79.8,0.0,1.0,0.0,1.0,1.0,5952,0.0,0.0
1765218510993,0.0,0.0,1.0,10.0,0.0,0.0,0.0,0.0,0.0,0.0,0.0305,-0.017568,1.005768,-0.35000000000000003,0.6300000000000001,0.0,3.32,3.33,3.31,3.28,3.31,3.32,3.31,3.3,3.35,3.36,3.36,3.34,3.32,3.32,3.32,3.33,3.32,3.32,3.32,3.32,3.34,3.35,3.33,3.34,3.36,3.28,79.8,0.0,1.0,0.0,1.0,1.0,5967,0.0,0.0
1765218511010,0.0,0.0,1.0,10.0,0.0,0.0,0.0,0.0,0.0,0.0,0.0305,-0.017568,1.005768,-0.35000000000000003,0.6300000000000001,0.0,3.32,3.33,3.31,3.28,3.31,3.32,3.31,3.3,3.35,3.36,3.36,3.34,3.32,3.32,3.32,3.33,3.32,3.32,3.32,3.32,3.34,3.35,3.33,3.34,3.36,3.28,79.8,0.0,1.0,0.0,1.0,1.0,5984,0.0,0.0
1765218511027,0.0,0.0,1.0,10.0,0.0,0.0,0.0,0.0,0.0,0.0,0.0305,-0.017568,1.005768,-0.35000000000000003,0.6300000000000001,0.0,3.32,3.33,3.31,3.28,3.31,3.32,3.31,3.3,3.35,3.36,3.36,3.34,3.32,3.32,3.32,3.33,3.32,3.32,3.32,3.32,3.34,3.35,3.33,3.34,3.36,3.28,79.8,0.0,1.0,0.0,1.0,1.0,6001,0.0,0.0
