timestamp,THROTTLE,BRAKE,ECU_MODE_ID,TORQUE_GAIN,TORQUE_REF_LEFT_MOTOR,TORQUE_REF_RIGHT_MOTOR,LEFT_MOTOR_RPM,LEFT_MOTOR_TORQUE,LEFT_MOTOR_POWER,LEFT_MOTOR_CURRENT,RIGHT_MOTOR_RPM,RIGHT_MOTOR_TORQUE,RIGHT_MOTOR_POWER,RIGHT_MOTOR_CURRENT,REAR_LEFT_WHEEL_SPEED,REAR_RIGHT_WHEEL_SPEED,FRONT_LEFT_WHEEL_SPEED,FRONT_RIGHT_WHEEL_SPEED,ACCEL_LONGITUDINAL,ACCEL_LATERAL,ACCEL_NORMAL,VEL_ANGULAR_YAW,VEL_ANGULAR_PITCH,VEL_ANGULAR_ROLL,ELETROBUILD_TEMPERATURE,STACK_1_CELL_1,STACK_1_CELL_2,STACK_1_CELL_3,STACK_1_CELL_4,STACK_2_CELL_1,STACK_2_CELL_2,STACK_2_CELL_3,STACK_2_CELL_4,STACK_3_CELL_1,STACK_3_CELL_2,STACK_3_CELL_3,STACK_3_CELL_4,STACK_4_CELL_1,STACK_4_CELL_2,STACK_4_CELL_3,STACK_4_CELL_4,STACK_5_CELL_1,STACK_5_CELL_2,STACK_5_CELL_3,STACK_5_CELL_4,STACK_6_CELL_1,STACK_6_CELL_2,STACK_6_CELL_3,STACK_6_CELL_4,MAX_VOLTAGE,MIN_VOLTAGE,SHUNT_CURRENT,BMS_MODE_ID,BMS_ERROR_ID,AIR_P,AIR_N,t,VEHICLE_SPEED,TOTAL_VOLTAGE,HODOMETRO
1765219410075,0.0,0.0,1.0,10.0,0.0,0.0,0.0,0.0,0.0,0.0,0.0,0.0,0.0,0.0,0.0,0.0,0.0,0.0,0.012565999999999999,-0.031293,0.9928359999999999,-0.7000000000000001,0.35000000000000003,0.0,25.0,3.31,3.32,3.31,3.3,3.31,3.31,3.31,3.32,3.32,3.33,3.32,3.32,3.31,3.31,3.31,3.31,3.32,3.32,3.32,3.31,3.32,3.33,3.32,3.32,3.33,3.3,44.0,1.0,0.0,1.0,1.0,905049,0.0,79.57999999999998,107.12684031399395
1765219410086,0.0,0.0,1.0,10.0,0.0,0.0,0.0,0.0,0.0,0.0,0.0,0.0,0.0,0.0,0.0,0.0,0.0,0.0,0.012565999999999999,-0.031293,0.9928359999999999,-0.7000000000000001,0.35000000000000003,0.0,25.0,3.31,3.32,3.31,3.3,3.31,3.31,3.31,3.32,3.32,3.33,3.32,3.32,3.31,3.31,3.31,3.31,3.32,3.32,3.32,3.31,3.32,3.33,3.32,3.32,3.33,3.3,44.0,1.0,0.0,1.0,1.0,905060,0.0,79.57999999999998,107.12684031399395
1765219410133,0.0,0.0,1.0,10.0,0.0,0.0,0.0,0.0,0.0,0.0,0.0,0.0,0.0,0.0,0.0,0.0,0.0,0.0,0.012565999999999999,-0.031293,0.9928359999999999,-0.7000000000000001,0.35000000000000003,0.0,25.0,3.31,3.32,3.31,3.3,3.31,3.31,3.31,3.32,3.32,3.33,3.32,3.32,3.31,3.31,3.31,3.31,3.32,3.32,3.32,3.31,3.32,3.33,3.32,3.32,3.33,3.3,44.0,1.0,0.0,1.0,1.0,905107,0.0,79.57999999999998,107.12684031399395
1765219410166,0.0,0.0,1.0,10.0,0.0,0.0,0.0,0.0,0.0,0.0,0.0,0.0,0.0,0.0,0.0,0.0,0.0,0.0,0.011712,-0.031354,0.992958,-0.7000000000000001,0.35000000000000003,0.0,25.0,3.31,3.32,3.31,3.3,3.31,3.31,3.31,3.32,3.32,3.33,3.32,3.32,3.31,3.31,3.31,3.31,3.32,3.32,3.32,3.31,3.32,3.33,3.32,3.32,3.33,3.3,44.0,1.0,0.0,1.0,1.0,905140,0.0,79.57999999999998,107.12684031399395
1765219410199,0.0,0.0,1.0,10.0,0.0,0.0,0.0,0.0,0.0,0.0,0.0,0.0,0.0,0.0,0.0,0.0,0.0,0.0,0.011712,-0.031354,0.992958,-0.7000000000000001,0.35000000000000003,0.0,25.0,3.31,3.32,3.31,3.3,3.31,3.31,3.31,3.32,3.32,3.33,3.32,3.32,3.31,3.31,3.31,3.31,3.32,3.32,3.32,3.31,3.32,3.33,3.32,3.32,3.33,3.3,44.0,1.0,0.0,1.0,1.0,905173,0.0,79.57999999999998,107.12684031399395
1765219410233,0.0,0.0,1.0,10.0,0.0,0.0,0.0,0.0,0.0,0.0,0.0,0.0,0.0,0.0,0.0,0.0,0.0,0.0,0.011712,-0.031354,0.992958,-0.6300000000000001,0.42000000000000004,0.0,25.0,3.31,3.32,3.31,3.3,3.31,3.31,3.31,3.32,3.32,3.33,3.32,3.32,3.31,3.31,3.31,3.31,3.32,3.32,3.32,3.31,3.32,3.33,3.32,3.32,3.33,3.3,44.0,1.0,0.0,1.0,1.0,905207,0.0,79.57999999999998,107.12684031399395
1765219410283,0.0,0.0,1.0,10.0,0.0,0.0,0.0,0.0,0.0,0.0,0.0,0.0,0.0,0.0,0.0,0.0,0.0,0.0,0.011712,-0.031354,0.992958,-0.6300000000000001,0.42000000000000004,0.0,25.0,3.31,3.32,3.31,3.3,3.31,3.31,3.31,3.32,3.32,3.33,3.32,3.32,3.31,3.31,3.31,3.31,3.32,3.32,3.32,3.31,3.32,3.33,3.32,3.32,3.33,3.3,44.0,1.0,0.0,1.0,1.0,905257,0.0,79.57999999999998,107.12684031399395
1765219410316,0.0,0.0,1.0,10.0,0.0,0.0,0.0,0.0,0.0,0.0,0.0,0.0,0.0,0.0,0.0,0.0,0.0,0.0,0.013908,-0.03111,0.993568,-0.7000000000000001,0.49000000000000005,0.0,25.0,3.31,3.32,3.31,3.3,3.31,3.31,3.31,3.32,3.32,3.33,3.32,3.32,3.31,3.31,3.31,3.31,3.32,3.32,3.32,3.31,3.32,3.33,3.32,3.32,3.33,3.3,44.0,1.0,0.0,1.0,1.0,905290,0.0,79.57999999999998,107.12684031399395
1765219410350,0.0,0.0,1.0,10.0,0.0,0.0,0.0,0.0,0.0,0.0,0.0,0.0,0.0,0.0,0.0,0.0,0.0,0.0,0.013908,-0.03111,0.993568,-0.7000000000000001,0.49000000000000005,0.0,25.0,3.31,3.32,3.31,3.3,3.31,3.31,3.31,3.32,3.32,3.33,3.32,3.32,3.31,3.31,3.31,3.31,3.32,3.32,3.32,3.31,3.32,3.33,3.32,3.32,3.33,3.3,44.0,1.0,0.0,1.0,1.0,905324,0.0,79.57999999999998,107.12684031399395
1765219410367,0.0,0.0,1.0,10.0,0.0,0.0,0.0,0.0,0.0,0.0,0.0,0.0,0.0,0.0,0.0,0.0,0.0,0.0,0.013908,-0.03111,0.993568,-0.7000000000000001,0.49000000000000005,0.0,25.0,3.31,3.32,3.31,3.3,3.31,3.31,3.31,3.32,3.32,3.33,3.32,3.32,3.31,3.31,3.31,3.31,3.32,3.32,3.32,3.31,3.32,3.33,3.32,3.32,3.33,3.3,44.0,1.0,0.0,1.0,1.0,905341,0.0,79.57999999999998,107.12684031399395
1765219410383,0.0,0.0,1.0,10.0,0.0,0.0,0.0,0.0,0.0,0.0,0.0,0.0,0.0,0.0,0.0,0.0,0.0,0.0,0.013908,-0.03111,0.993568,-0.7000000000000001,0.49000000000000005,0.0,25.0,3.31,3.32,3.31,3.3,3.31,3.31,3.31,3.32,3.32,3.33,3.32,3.32,3.31,3.31,3.31,3.31,3.32,3.32,3.32,3.31,3.32,3.33,3.32,3.32,3.33,3.3,44.0,1.0,0.0,1.0,1.0,905357,0.0,79.57999999999998,107.12684031399395
1765219410400,0.0,0.0,1.0,10.0,0.0,0.0,0.0,0.0,0.0,0.0,0.0,0.0,0.0,0.0,0.0,0.0,0.0,0.0,0.013908,-0.03111,0.993568,-0.7000000000000001,0.49000000000000005,0.0,25.0,3.33,3.33,3.33,3.32,3.31,3.31,3.31,3.32,3.32,3.33,3.32,3.32,3.31,3.31,3.31,3.31,3.32,3.32,3.32,3.31,3.32,3.33,3.32,3.32,3.33,3.3,44.0,1.0,0.0,1.0,1.0,905374,0.0,79.64999999999999,107.12684031399395
1765219410417,0.0,0.0,1.0,10.0,0.0,0.0,0.0,0.0,0.0,0.0,0.0,0.0,0.0,0.0,0.0,0.0,0.0,0.0,0.013908,-0.03111,0.993568,-0.7000000000000001,0.49000000000000005,0.0,25.0,3.33,3.33,3.33,3.32,3.32,3.33,3.32,3.32,3.32,3.33,3.32,3.32,3.31,3.31,3.31,3.31,3.32,3.32,3.32,3.31,3.32,3.33,3.32,3.32,3.33,3.3,44.0,1.0,0.0,1.0,1.0,905391,0.0,79.68999999999998,107.12684031399395
1765219410450,0.0,0.0,1.0,10.0,0.0,0.0,0.0,0.0,0.0,0.0,0.0,0.0,0.0,0.0,0.0,0.0,0.0,0.0,0.013908,-0.03111,0.993568,-0.7000000000000001,0.49000000000000005,0.0,25.0,3.33,3.33,3.33,3.32,3.32,3.33,3.32,3.32,3.33,3.33,3.33,3.33,3.31,3.31,3.31,3.31,3.32,3.32,3.32,3.31,3.32,3.33,3.32,3.32,3.33,3.3,44.0,1.0,0.0,1.0,1.0,905424,0.0,79.71999999999998,107.12684031399395
1765219410467,0.0,0.0,1.0,10.0,0.0,0.0,0.0,0.0,0.0,0.0,0.0,0.0,0.0,0.0,0.0,0.0,0.0,0.0,0.013908,-0.03111,0.993568,-0.7000000000000001,0.49000000000000005,0.0,25.0,3.33,3.33,3.33,3.32,3.32,3.33,3.32,3.32,3.33,3.33,3.33,3.33,3.32,3.33,3.33,3.32,3.32,3.32,3.32,3.31,3.32,3.33,3.32,3.32,3.33,3.3,44.0,1.0,0.0,1.0,1.0,905441,0.0,79.77999999999997,107.12684031399395
1765219410501,0.0,0.0,1.0,10.0,0.0,0.0,0.0,0.0,0.0,0.0,0.0,0.0,0.0,0.0,0.0,0.0,0.0,0.0,0.013908,-0.03111,0.993568,-0.7000000000000001,0.49000000000000005,0.0,25.0,3.33,3.33,3.33,3.32,3.32,3.33,3.32,3.32,3.33,3.33,3.33,3.33,3.32,3.33,3.33,3.32,3.33,3.33,3.33,3.32,3.32,3.33,3.32,3.32,3.33,3.3,44.0,1.0,0.0,1.0,1.0,905475,0.0,79.81999999999996,107.12684031399395
1765219410519,0.0,0.0,1.0,10.0,0.0,0.0,0.0,0.0,0.0,0.0,0.0,0.0,0.0,0.0,0.0,0.0,0.0,0.0,0.013908,-0.03111,0.993568,-0.7000000000000001,0.49000000000000005,0.0,25.0,3.33,3.33,3.33,3.32,3.32,3.33,3.32,3.32,3.33,3.33,3.33,3.33,3.32,3.33,3.33,3.32,3.33,3.33,3.33,3.32,3.33,3.33,3.33,3.33,3.33,3.3,44.0,1.0,0.0,1.0,1.0,905493,0.0,79.84999999999998,107.12684031399395
1765219410535,0.0,0.0,1.0,10.0,0.0,0.0,0.0,0.0,0.0,0.0,0.0,0.0,0.0,0.0,0.0,0.0,0.0,0.0,0.013908,-0.03111,0.993568,-0.7000000000000001,0.49000000000000005,0.0,25.0,3.33,3.33,3.33,3.32,3.32,3.33,3.32,3.32,3.33,3.33,3.33,3.33,3.32,3.33,3.33,3.32,3.33,3.33,3.33,3.32,3.33,3.33,3.33,3.33,3.33,3.3,44.0,1.0,0.0,1.0,1.0,905509,0.0,79.84999999999998,107.12684031399395
1765219410618,0.0,0.0,1.0,10.0,0.0,0.0,0.0,0.0,0.0,0.0,0.0,0.0,0.0,0.0,0.0,0.0,0.0,0.0,0.011101999999999999,-0.032574,0.992958,-0.7000000000000001,0.49000000000000005,0.0,25.0,3.33,3.33,3.33,3.32,3.32,3.33,3.32,3.32,3.33,3.33,3.33,3.33,3.32,3.33,3.33,3.32,3.33,3.33,3.33,3.32,3.33,3.33,3.33,3.33,3.33,3.3,44.0,1.0,0.0,1.0,1.0,905592,0.0,79.84999999999998,107.12684031399395
1765219410636,0.0,0.0,1.0,10.0,0.0,0.0,0.0,0.0,0.0,0.0,0.0,0.0,0.0,0.0,0.0,0.0,0.0,0.0,0.011101999999999999,-0.032574,0.992958,-0.6300000000000001,0.35000000000000003,0.0,25.0,3.33,3.33,3.33,3.32,3.32,3.33,3.32,3.32,3.33,3.33,3.33,3.33,3.32,3.33,3.33,3.32,3.33,3.33,3.33,3.32,3.33,3.33,3.33,3.33,3.33,3.3,44.0,1.0,0.0,1.0,1.0,905610,0.0,79.84999999999998,107.12684031399395
1765219410650,0.0,0.0,1.0,10.0,0.0,0.0,0.0,0.0,0.0,0.0,0.0,0.0,0.0,0.0,0.0,0.0,0.0,0.0,0.011101999999999999,-0.032574,0.992958,-0.6300000000000001,0.35000000000000003,0.0,25.0,3.33,3.33,3.33,3.32,3.32,3.33,3.32,3.32,3.33,3.33,3.33,3.33,3.32,3.33,3.33,3.32,3.33,3.33,3.33,3.32,3.33,3.33,3.33,3.33,3.33,3.3,44.0,1.0,0.0,1.0,1.0,905624,0.0,79.84999999999998,107.12684031399395
1765219410684,0.0,0.0,1.0,10.0,0.0,0.0,0.0,0.0,0.0,0.0,0.0,0.0,0.0,0.0,0.0,0.0,0.0,0.0,0.011101999999999999,-0.032574,0.992958,-0.6300000000000001,0.35000000000000003,0.0,25.0,3.33,3.33,3.33,3.32,3.32,3.33,3.32,3.32,3.33,3.33,3.33,3.33,3.32,3.33,3.33,3.32,3.33,3.33,3.33,3.32,3.33,3.33,3.33,3.33,3.33,3.3,44.0,1.0,0.0,1.0,1.0,905658,0.0,79.84999999999998,107.12684031399395
1765219410700,0.0,0.0,1.0,10.0,0.0,0.0,0.0,0.0,0.0,0.0,0.0,0.0,0.0,0.0,0.0,0.0,0.0,0.0,0.011101999999999999,-0.032574,0.992958,-0.6300000000000001,0.35000000000000003,0.0,25.0,3.33,3.33,3.33,3.32,3.32,3.33,3.32,3.32,3.33,3.33,3.33,3.33,3.32,3.33,3.33,3.32,3.33,3.33,3.33,3.32,3.33,3.33,3.33,3.33,3.33,3.3,44.0,1.0,0.0,1.0,1.0,905674,0.0,79.84999999999998,107.12684031399395
1765219410716,0.0,0.0,1.0,10.0,0.0,0.0,0.0,0.0,0.0,0.0,0.0,0.0,0.0,0.0,0.0,0.0,0.0,0.0,0.011101999999999999,-0.032574,0.992958,-0.6300000000000001,0.35000000000000003,0.0,25.0,3.33,3.33,3.33,3.32,3.32,3.33,3.32,3.32,3.33,3.33,3.33,3.33,3.32,3.33,3.33,3.32,3.33,3.33,3.33,3.32,3.33,3.33,3.33,3.33,3.33,3.3,44.0,1.0,0.0,1.0,1.0,905690,0.0,79.84999999999998,107.12684031399395
1765219410734,0.0,0.0,1.0,10.0,0.0,0.0,0.0,0.0,0.0,0.0,0.0,0.0,0.0,0.0,0.0,0.0,0.0,0.0,0.011101999999999999,-0.032574,0.992958,-0.6300000000000001,0.35000000000000003,0.0,25.0,3.33,3.33,3.33,3.32,3.32,3.33,3.32,3.32,3.33,3.33,3.33,3.33,3.32,3.33,3.33,3.32,3.33,3.33,3.33,3.32,3.33,3.33,3.33,3.33,3.33,3.3,44.0,1.0,0.0,1.0,1.0,905708,0.0,79.84999999999998,107.12684031399395
1765219410767,0.0,0.0,1.0,10.0,0.0,0.0,0.0,0.0,0.0,0.0,0.0,0.0,0.0,0.0,0.0,0.0,0.0,0.0,0.01342,-0.031598,0.99369,-0.6300000000000001,0.35000000000000003,0.0,25.0,3.33,3.33,3.33,3.32,3.32,3.33,3.32,3.32,3.33,3.33,3.33,3.33,3.32,3.33,3.33,3.32,3.33,3.33,3.33,3.32,3.33,3.33,3.33,3.33,3.33,3.3,44.0,1.0,0.0,1.0,1.0,905741,0.0,79.84999999999998,107.12684031399395
1765219410787,0.0,0.0,1.0,10.0,0.0,0.0,0.0,0.0,0.0,0.0,0.0,0.0,0.0,0.0,0.0,0.0,0.0,0.0,0.01342,-0.031598,0.99369,-0.7000000000000001,0.42000000000000004,0.0,25.0,3.33,3.33,3.33,3.32,3.32,3.33,3.32,3.32,3.33,3.33,3.33,3.33,3.32,3.33,3.33,3.32,3.33,3.33,3.33,3.32,3.33,3.33,3.33,3.33,3.33,3.3,44.0,1.0,0.0,1.0,1.0,905761,0.0,79.84999999999998,107.12684031399395
1765219410818,0.0,0.0,1.0,10.0,0.0,0.0,0.0,0.0,0.0,0.0,0.0,0.0,0.0,0.0,0.0,0.0,0.0,0.0,0.01342,-0.031598,0.99369,-0.7000000000000001,0.42000000000000004,0.0,25.0,3.33,3.33,3.33,3.32,3.32,3.33,3.32,3.32,3.33,3.33,3.33,3.33,3.32,3.33,3.33,3.32,3.33,3.33,3.33,3.32,3.33,3.33,3.33,3.33,3.33,3.3,44.0,1.0,0.0,1.0,1.0,905792,0.0,79.84999999999998,107.12684031399395
1765219410833,0.0,0.0,1.0,10.0,0.0,0.0,0.0,0.0,0.0,0.0,0.0,0.0,0.0,0.0,0.0,0.0,0.0,0.0,0.01342,-0.031598,0.99369,-0.7000000000000001,0.42000000000000004,0.0,25.0,3.33,3.33,3.33,3.32,3.32,3.33,3.32,3.32,3.33,3.33,3.33,3.33,3.32,3.33,3.33,3.32,3.33,3.33,3.33,3.32,3.33,3.33,3.33,3.33,3.33,3.3,44.0,1.0,0.0,1.0,1.0,905807,0.0,79.84999999999998,107.12684031399395
1765219410851,0.0,0.0,1.0,10.0,0.0,0.0,0.0,0.0,0.0,0.0,0.0,0.0,0.0,0.0,0.0,0.0,0.0,0.0,0.01342,-0.031598,0.99369,-0.7000000000000001,0.42000000000000004,0.0,25.0,3.33,3.33,3.33,3.32,3.32,3.33,3.32,3.32,3.33,3.33,3.33,3.33,3.32,3.33,3.33,3.32,3.33,3.33,3.33,3.32,3.33,3.33,3.33,3.33,3.33,3.3,44.0,1.0,0.0,1.0,1.0,905825,0.0,79.84999999999998,107.12684031399395
1765219410884,0.0,0.0,1.0,10.0,0.0,0.0,0.0,0.0,0.0,0.0,0.0,0.0,0.0,0.0,0.0,0.0,0.0,0.0,0.01342,-0.031598,0.99369,-0.7000000000000001,0.42000000000000004,0.0,25.0,3.33,3.33,3.33,3.32,3.32,3.33,3.32,3.32,3.33,3.33,3.33,3.33,3.32,3.33,3.33,3.32,3.33,3.33,3.33,3.32,3.33,3.33,3.33,3.33,3.33,3.3,44.0,1.0,0.0,1.0,1.0,905858,0.0,79.84999999999998,107.12684031399395
1765219410933,0.0,0.0,1.0,10.0,0.0,0.0,0.0,0.0,0.0,0.0,0.0,0.0,0.0,0.0,0.0,0.0,0.0,0.0,0.01342,-0.031598,0.99369,-0.7000000000000001,0.42000000000000004,0.0,25.0,3.33,3.33,3.33,3.32,3.32,3.33,3.32,3.32,3.33,3.33,3.33,3.33,3.32,3.33,3.33,3.32,3.33,3.33,3.33,3.32,3.33,3.33,3.33,3.33,3.33,3.3,44.0,1.0,0.0,1.0,1.0,905907,0.0,79.84999999999998,107.12684031399395
1765219410983,0.0,0.0,1.0,10.0,0.0,0.0,0.0,0.0,0.0,0.0,0.0,0.0,0.0,0.0,0.0,0.0,0.0,0.0,0.01281,-0.030255999999999998,0.992592,-0.7000000000000001,0.42000000000000004,0.0,25.0,3.33,3.33,3.33,3.32,3.32,3.33,3.32,3.32,3.33,3.33,3.33,3.33,3.32,3.33,3.33,3.32,3.33,3.33,3.33,3.32,3.33,3.33,3.33,3.33,3.33,3.3,44.0,1.0,0.0,1.0,1.0,905957,0.0,79.84999999999998,107.12684031399395
1765219411017,0.0,0.0,1.0,10.0,0.0,0.0,0.0,0.0,0.0,0.0,0.0,0.0,0.0,0.0,0.0,0.0,0.0,0.0,0.01281,-0.030255999999999998,0.992592,-0.6300000000000001,0.42000000000000004,-0.07,25.0,3.33,3.33,3.33,3.32,3.32,3.33,3.32,3.32,3.33,3.33,3.33,3.33,3.32,3.33,3.33,3.32,3.33,3.33,3.33,3.32,3.33,3.33,3.33,3.33,3.33,3.3,44.0,1.0,0.0,1.0,1.0,905991,0.0,79.84999999999998,107.12684031399395
1765219411036,0.0,0.0,1.0,10.0,0.0,0.0,0.0,0.0,0.0,0.0,0.0,0.0,0.0,0.0,0.0,0.0,0.0,0.0,0.01281,-0.030255999999999998,0.992592,-0.6300000000000001,0.42000000000000004,-0.07,25.0,3.33,3.33,3.33,3.32,3.32,3.33,3.32,3.32,3.33,3.33,3.33,3.33,3.32,3.33,3.33,3.32,3.33,3.33,3.33,3.32,3.33,3.33,3.33,3.33,3.33,3.3,44.0,1.0,0.0,1.0,1.0,906010,0.0,79.84999999999998,107.12684031399395
1765219411068,0.0,0.0,1.0,10.0,0.0,0.0,0.0,0.0,0.0,0.0,0.0,0.0,0.0,0.0,0.0,0.0,0.0,0.0,0.010248,-0.0305,0.99369,-0.6300000000000001,0.42000000000000004,-0.07,25.0,3.33,3.33,3.33,3.32,3.32,3.33,3.32,3.32,3.33,3.33,3.33,3.33,3.32,3.33,3.33,3.32,3.33,3.33,3.33,3.32,3.33,3.33,3.33,3.33,3.33,3.3,44.0,1.0,0.0,1.0,1.0,906042,0.0,79.84999999999998,107.12684031399395
1765219411086,0.0,0.0,1.0,10.0,0.0,0.0,0.0,0.0,0.0,0.0,0.0,0.0,0.0,0.0,0.0,0.0,0.0,0.0,0.010248,-0.0305,0.99369,-0.6300000000000001,0.42000000000000004,-0.07,25.0,3.33,3.33,3.33,3.32,3.32,3.33,3.32,3.32,3.33,3.33,3.33,3.33,3.32,3.33,3.33,3.32,3.33,3.33,3.33,3.32,3.33,3.33,3.33,3.33,3.33,3.3,44.0,1.0,0.0,1.0,1.0,906060,0.0,79.84999999999998,107.12684031399395
1765219411100,0.0,0.0,1.0,10.0,0.0,0.0,0.0,0.0,0.0,0.0,0.0,0.0,0.0,0.0,0.0,0.0,0.0,0.0,0.010248,-0.0305,0.99369,-0.77,0.42000000000000004,-0.07,25.0,3.33,3.33,3.33,3.32,3.32,3.33,3.32,3.32,3.33,3.33,3.33,3.33,3.32,3.33,3.33,3.32,3.33,3.33,3.33,3.32,3.33,3.33,3.33,3.33,3.33,3.3,44.0,1.0,0.0,1.0,1.0,906074,0.0,79.84999999999998,107.12684031399395
1765219411117,0.0,0.0,1.0,10.0,0.0,0.0,0.0,0.0,0.0,0.0,0.0,0.0,0.0,0.0,0.0,0.0,0.0,0.0,0.010248,-0.0305,0.99369,-0.77,0.42000000000000004,-0.07,25.0,3.33,3.33,3.33,3.32,3.32,3.33,3.32,3.32,3.33,3.33,3.33,3.33,3.32,3.33,3.33,3.32,3.33,3.33,3.33,3.32,3.33,3.33,3.33,3.33,3.33,3.3,44.0,1.0,0.0,1.0,1.0,906091,0.0,79.84999999999998,107.12684031399395
1765219411134,0.0,0.0,1.0,10.0,0.0,0.0,0.0,0.0,0.0,0.0,0.0,0.0,0.0,0.0,0.0,0.0,0.0,0.0,0.010248,-0.0305,0.99369,-0.77,0.42000000000000004,-0.07,25.0,3.33,3.33,3.33,3.32,3.32,3.33,3.32,3.32,3.33,3.33,3.33,3.33,3.32,3.33,3.33,3.32,3.33,3.33,3.33,3.32,3.33,3.33,3.33,3.33,3.33,3.3,44.0,1.0,0.0,1.0,1.0,906108,0.0,79.84999999999998,107.12684031399395
1765219411150,0.0,0.0,1.0,10.0,0.0,0.0,0.0,0.0,0.0,0.0,0.0,0.0,0.0,0.0,0.0,0.0,0.0,0.0,0.010248,-0.0305,0.99369,-0.77,0.42000000000000004,-0.07,25.0,3.33,3.33,3.33,3.32,3.32,3.33,3.32,3.32,3.33,3.33,3.33,3.33,3.32,3.33,3.33,3.32,3.33,3.33,3.33,3.32,3.33,3.33,3.33,3.33,3.33,3.3,44.0,1.0,0.0,1.0,1.0,906124,0.0,79.84999999999998,107.12684031399395
1765219411167,0.0,0.0,1.0,10.0,0.0,0.0,0.0,0.0,0.0,0.0,0.0,0.0,0.0,0.0,0.0,0.0,0.0,0.0,0.010248,-0.0305,0.99369,-0.77,0.42000000000000004,-0.07,25.0,3.33,3.33,3.33,3.32,3.32,3.33,3.32,3.32,3.33,3.33,3.33,3.33,3.32,3.33,3.33,3.32,3.33,3.33,3.33,3.32,3.33,3.33,3.33,3.33,3.33,3.3,44.0,1.0,0.0,1.0,1.0,906141,0.0,79.84999999999998,107.12684031399395
1765219411185,0.0,0.0,1.0,10.0,0.0,0.0,0.0,0.0,0.0,0.0,0.0,0.0,0.0,0.0,0.0,0.0,0.0,0.0,0.010248,-0.0305,0.99369,-0.77,0.42000000000000004,-0.07,25.0,3.33,3.33,3.33,3.32,3.32,3.33,3.32,3.32,3.33,3.33,3.33,3.33,3.32,3.33,3.33,3.32,3.33,3.33,3.33,3.32,3.33,3.33,3.33,3.33,3.33,3.3,44.0,1.0,0.0,1.0,1.0,906159,0.0,79.84999999999998,107.12684031399395
1765219411233,0.0,0.0,1.0,10.0,0.0,0.0,0.0,0.0,0.0,0.0,0.0,0.0,0.0,0.0,0.0,0.0,0.0,0.0,0.010248,-0.0305,0.99369,-0.77,0.42000000000000004,-0.07,25.0,3.33,3.33,3.33,3.32,3.32,3.33,3.32,3.32,3.33,3.33,3.33,3.33,3.32,3.33,3.33,3.32,3.33,3.33,3.33,3.32,3.33,3.33,3.33,3.33,3.33,3.3,44.0,1.0,0.0,1.0,1.0,906207,0.0,79.84999999999998,107.12684031399395
1765219411284,0.0,0.0,1.0,10.0,0.0,0.0,0.0,0.0,0.0,0.0,0.0,0.0,0.0,0.0,0.0,0.0,0.0,0.0,0.010248,-0.0305,0.99369,-0.77,0.42000000000000004,-0.07,25.0,3.33,3.33,3.33,3.32,3.32,3.33,3.32,3.32,3.33,3.33,3.33,3.33,3.32,3.33,3.33,3.32,3.33,3.33,3.33,3.32,3.33,3.33,3.33,3.33,3.34,3.32,44.0,1.0,0.0,1.0,1.0,906258,0.0,79.84999999999998,107.12684031399395
1765219411301,0.0,0.0,1.0,10.0,0.0,0.0,0.0,0.0,0.0,0.0,0.0,0.0,0.0,0.0,0.0,0.0,0.0,0.0,0.010248,-0.0305,0.99369,-0.77,0.42000000000000004,-0.07,25.0,3.33,3.33,3.33,3.32,3.32,3.33,3.32,3.32,3.33,3.33,3.33,3.33,3.32,3.33,3.33,3.32,3.33,3.33,3.33,3.32,3.33,3.33,3.33,3.33,3.34,3.32,44.0,1.0,0.0,1.0,1.0,906275,0.0,79.84999999999998,107.12684031399395
1765219411351,0.0,0.0,1.0,10.0,0.0,0.0,0.0,0.0,0.0,0.0,0.0,0.0,0.0,0.0,0.0,0.0,0.0,0.0,0.01342,-0.0305,0.9922259999999999,-0.77,0.42000000000000004,-0.07,25.0,3.33,3.33,3.33,3.32,3.32,3.33,3.32,3.32,3.33,3.33,3.33,3.33,3.32,3.33,3.33,3.32,3.33,3.33,3.33,3.32,3.33,3.33,3.33,3.33,3.34,3.32,44.0,1.0,0.0,1.0,1.0,906325,0.0,79.84999999999998,107.12684031399395
1765219411367,0.0,0.0,1.0,10.0,0.0,0.0,0.0,0.0,0.0,0.0,0.0,0.0,0.0,0.0,0.0,0.0,0.0,0.0,0.01342,-0.0305,0.9922259999999999,-0.77,0.42000000000000004,-0.07,25.0,3.33,3.33,3.33,3.32,3.32,3.33,3.32,3.32,3.33,3.33,3.33,3.33,3.32,3.33,3.33,3.32,3.33,3.33,3.33,3.32,3.33,3.33,3.33,3.33,3.34,3.32,44.0,1.0,0.0,1.0,1.0,906341,0.0,79.84999999999998,107.12684031399395
1765219411433,0.0,0.0,1.0,10.0,0.0,0.0,0.0,0.0,0.0,0.0,0.0,0.0,0.0,0.0,0.0,0.0,0.0,0.0,0.01342,-0.0305,0.9922259999999999,-0.77,0.42000000000000004,-0.07,25.0,3.33,3.33,3.33,3.32,3.32,3.33,3.32,3.32,3.33,3.33,3.33,3.33,3.32,3.33,3.33,3.32,3.33,3.33,3.33,3.32,3.33,3.33,3.33,3.33,3.34,3.32,45.0,1.0,0.0,1.0,1.0,906407,0.0,79.84999999999998,107.12684031399395
1765219411450,0.0,0.0,1.0,10.0,0.0,0.0,0.0,0.0,0.0,0.0,0.0,0.0,0.0,0.0,0.0,0.0,0.0,0.0,0.01342,-0.0305,0.9922259999999999,-0.77,0.42000000000000004,-0.07,25.0,3.33,3.33,3.33,3.32,3.32,3.33,3.32,3.32,3.33,3.33,3.33,3.33,3.32,3.33,3.33,3.32,3.33,3.33,3.33,3.32,3.33,3.33,3.33,3.33,3.34,3.32,45.0,1.0,0.0,1.0,1.0,906424,0.0,79.84999999999998,107.12684031399395
1765219411482,0.0,0.0,1.0,10.0,0.0,0.0,0.0,0.0,0.0,0.0,0.0,0.0,0.0,0.0,0.0,0.0,0.0,0.0,0.013176,-0.030987999999999998,0.99247,-0.77,0.42000000000000004,-0.07,25.0,3.33,3.33,3.33,3.32,3.32,3.33,3.32,3.32,3.33,3.33,3.33,3.33,3.32,3.33,3.33,3.32,3.33,3.33,3.33,3.32,3.33,3.33,3.33,3.33,3.34,3.32,45.0,1.0,0.0,1.0,1.0,906456,0.0,79.84999999999998,107.12684031399395
1765219411500,0.0,0.0,1.0,10.0,0.0,0.0,0.0,0.0,0.0,0.0,0.0,0.0,0.0,0.0,0.0,0.0,0.0,0.0,0.013176,-0.030987999999999998,0.99247,-0.6300000000000001,0.35000000000000003,0.0,25.0,3.33,3.33,3.33,3.32,3.32,3.33,3.32,3.32,3.33,3.33,3.33,3.33,3.32,3.33,3.33,3.32,3.33,3.33,3.33,3.32,3.33,3.33,3.33,3.33,3.34,3.32,45.0,1.0,0.0,1.0,1.0,906474,0.0,79.84999999999998,107.12684031399395
1765219411517,0.0,0.0,1.0,10.0,0.0,0.0,0.0,0.0,0.0,0.0,0.0,0.0,0.0,0.0,0.0,0.0,0.0,0.0,0.013176,-0.030987999999999998,0.99247,-0.6300000000000001,0.35000000000000003,0.0,25.0,3.33,3.33,3.33,3.32,3.32,3.33,3.32,3.32,3.33,3.33,3.33,3.33,3.32,3.33,3.33,3.32,3.33,3.33,3.33,3.32,3.33,3.33,3.33,3.33,3.34,3.32,45.0,1.0,0.0,1.0,1.0,906491,0.0,79.84999999999998,107.12684031399395
1765219411741,0.0,0.0,1.0,10.0,0.0,0.0,0.0,0.0,0.0,0.0,0.0,0.0,0.0,0.0,0.0,0.0,0.0,0.0,0.013176,-0.030987999999999998,0.99247,-0.6300000000000001,0.35000000000000003,0.0,25.0,3.33,3.33,3.33,3.32,3.32,3.33,3.32,3.32,3.33,3.33,3.33,3.33,3.32,3.33,3.33,3.32,3.33,3.33,3.33,3.32,3.33,3.33,3.33,3.33,3.34,3.32,45.0,1.0,0.0,1.0,1.0,906715,0.0,79.84999999999998,107.12684031399395
1765219411748,0.0,0.0,1.0,10.0,0.0,0.0,0.0,0.0,0.0,0.0,0.0,0.0,0.0,0.0,0.0,0.0,0.0,0.0,0.012199999999999999,-0.031476,0.992592,-0.7000000000000001,0.42000000000000004,0.0,25.0,3.33,3.33,3.33,3.32,3.32,3.33,3.32,3.32,3.33,3.33,3.33,3.33,3.32,3.33,3.33,3.32,3.33,3.33,3.33,3.32,3.33,3.33,3.33,3.33,3.34,3.32,45.0,1.0,0.0,1.0,1.0,906722,0.0,79.84999999999998,107.12684031399395
1765219411783,0.0,0.0,1.0,10.0,0.0,0.0,0.0,0.0,0.0,0.0,0.0,0.0,0.0,0.0,0.0,0.0,0.0,0.0,0.012322,-0.031354,0.9943,-0.6300000000000001,0.35000000000000003,-0.07,25.0,3.33,3.33,3.33,3.32,3.32,3.33,3.32,3.32,3.33,3.33,3.33,3.33,3.32,3.33,3.33,3.32,3.33,3.33,3.33,3.32,3.33,3.33,3.33,3.33,3.34,3.32,45.0,1.0,0.0,1.0,1.0,906757,0.0,79.84999999999998,107.12684031399395
1765219411819,0.0,0.0,1.0,10.0,0.0,0.0,0.0,0.0,0.0,0.0,0.0,0.0,0.0,0.0,0.0,0.0,0.0,0.0,0.012322,-0.031354,0.9943,-0.6300000000000001,0.35000000000000003,-0.07,25.0,3.33,3.33,3.33,3.32,3.32,3.33,3.32,3.32,3.33,3.33,3.33,3.33,3.32,3.33,3.33,3.32,3.33,3.33,3.33,3.32,3.33,3.33,3.33,3.33,3.34,3.32,45.0,1.0,0.0,1.0,1.0,906793,0.0,79.84999999999998,107.12684031399395
1765219411836,0.0,0.0,1.0,10.0,0.0,0.0,0.0,0.0,0.0,0.0,0.0,0.0,0.0,0.0,0.0,0.0,0.0,0.0,0.012322,-0.031354,0.9943,-0.6300000000000001,0.35000000000000003,-0.07,25.0,3.33,3.33,3.33,3.32,3.32,3.33,3.32,3.32,3.33,3.33,3.33,3.33,3.32,3.33,3.33,3.32,3.33,3.33,3.33,3.32,3.33,3.33,3.33,3.33,3.34,3.32,45.0,1.0,0.0,1.0,1.0,906810,0.0,79.84999999999998,107.12684031399395
1765219411852,0.0,0.0,1.0,10.0,0.0,0.0,0.0,0.0,0.0,0.0,0.0,0.0,0.0,0.0,0.0,0.0,0.0,0.0,0.012322,-0.031354,0.9943,-0.6300000000000001,0.35000000000000003,-0.07,25.0,3.33,3.33,3.33,3.32,3.32,3.33,3.32,3.32,3.33,3.33,3.33,3.33,3.32,3.33,3.33,3.32,3.33,3.33,3.33,3.32,3.33,3.33,3.33,3.33,3.34,3.32,45.0,1.0,0.0,1.0,1.0,906826,0.0,79.84999999999998,107.12684031399395
1765219411866,0.0,0.0,1.0,10.0,0.0,0.0,0.0,0.0,0.0,0.0,0.0,0.0,0.0,0.0,0.0,0.0,0.0,0.0,0.012322,-0.031354,0.9943,-0.6300000000000001,0.35000000000000003,-0.07,25.0,3.33,3.33,3.33,3.32,3.32,3.33,3.32,3.32,3.33,3.33,3.33,3.33,3.32,3.33,3.33,3.32,3.33,3.33,3.33,3.32,3.33,3.33,3.33,3.33,3.34,3.32,45.0,1.0,0.0,1.0,1.0,906840,0.0,79.84999999999998,107.12684031399395
1765219411901,0.0,0.0,1.0,10.0,0.0,0.0,0.0,0.0,0.0,0.0,0.0,0.0,0.0,0.0,0.0,0.0,0.0,0.0,0.012322,-0.031354,0.9943,-0.6300000000000001,0.35000000000000003,-0.07,25.0,3.33,3.33,3.33,3.32,3.32,3.33,3.32,3.32,3.33,3.33,3.33,3.33,3.32,3.33,3.33,3.32,3.33,3.33,3.33,3.32,3.33,3.33,3.33,3.33,3.34,3.32,45.0,1.0,0.0,1.0,1.0,906875,0.0,79.84999999999998,107.12684031399395
1765219411950,0.0,0.0,1.0,10.0,0.0,0.0,0.0,0.0,0.0,0.0,0.0,0.0,0.0,0.0,0.0,0.0,0.0,0.0,0.012322,-0.031354,0.9943,-0.6300000000000001,0.35000000000000003,-0.07,25.0,3.33,3.33,3.33,3.32,3.32,3.33,3.32,3.32,3.33,3.33,3.33,3.33,3.32,3.33,3.33,3.32,3.33,3.33,3.33,3.32,3.33,3.33,3.33,3.33,3.34,3.32,45.0,1.0,0.0,1.0,1.0,906924,0.0,79.84999999999998,107.12684031399395
1765219411982,0.0,0.0,1.0,10.0,0.0,0.0,0.0,0.0,0.0,0.0,0.0,0.0,0.0,0.0,0.0,0.0,0.0,0.0,0.01281,-0.029768,0.992958,-0.6300000000000001,0.35000000000000003,-0.07,25.0,3.33,3.33,3.33,3.32,3.32,3.33,3.32,3.32,3.33,3.33,3.33,3.33,3.32,3.33,3.33,3.32,3.33,3.33,3.33,3.32,3.33,3.33,3.33,3.33,3.34,3.32,45.0,1.0,0.0,1.0,1.0,906956,0.0,79.84999999999998,107.12684031399395
1765219412016,0.0,0.0,1.0,10.0,0.0,0.0,0.0,0.0,0.0,0.0,0.0,0.0,0.0,0.0,0.0,0.0,0.0,0.0,0.01281,-0.029768,0.992958,-0.6300000000000001,0.35000000000000003,-0.07,25.0,3.33,3.33,3.33,3.32,3.32,3.33,3.32,3.32,3.33,3.33,3.33,3.33,3.32,3.33,3.33,3.32,3.33,3.33,3.33,3.32,3.33,3.33,3.33,3.33,3.34,3.32,45.0,1.0,0.0,1.0,1.0,906990,0.0,79.84999999999998,107.12684031399395
1765219412050,0.0,0.0,1.0,10.0,0.0,0.0,0.0,0.0,0.0,0.0,0.0,0.0,0.0,0.0,0.0,0.0,0.0,0.0,0.01281,-0.029768,0.992958,-0.6300000000000001,0.35000000000000003,-0.07,25.0,3.33,3.33,3.33,3.32,3.32,3.33,3.32,3.32,3.33,3.33,3.33,3.33,3.32,3.33,3.33,3.32,3.33,3.33,3.33,3.32,3.33,3.33,3.33,3.33,3.34,3.32,45.0,1.0,0.0,1.0,1.0,907024,0.0,79.84999999999998,107.12684031399395
1765219412066,0.0,0.0,1.0,10.0,0.0,0.0,0.0,0.0,0.0,0.0,0.0,0.0,0.0,0.0,0.0,0.0,0.0,0.0,0.01281,-0.029768,0.992958,-0.6300000000000001,0.35000000000000003,-0.07,25.0,3.33,3.33,3.33,3.32,3.32,3.33,3.32,3.32,3.33,3.33,3.33,3.33,3.32,3.33,3.33,3.32,3.33,3.33,3.33,3.32,3.33,3.33,3.33,3.33,3.34,3.32,45.0,1.0,0.0,1.0,1.0,907040,0.0,79.84999999999998,107.12684031399395
1765219412151,0.0,0.0,1.0,10.0,0.0,0.0,0.0,0.0,0.0,0.0,0.0,0.0,0.0,0.0,0.0,0.0,0.0,0.0,0.008296,-0.037698,0.995032,-0.6300000000000001,0.35000000000000003,-0.07,25.0,3.33,3.33,3.33,3.32,3.32,3.33,3.32,3.32,3.33,3.33,3.33,3.33,3.32,3.33,3.33,3.32,3.33,3.33,3.33,3.32,3.33,3.33,3.33,3.33,3.34,3.32,45.0,1.0,0.0,1.0,1.0,907125,0.0,79.84999999999998,107.12684031399395
1765219412169,0.0,0.0,1.0,10.0,0.0,0.0,0.0,0.0,0.0,0.0,0.0,0.0,0.0,0.0,0.0,0.0,0.0,0.0,0.008296,-0.037698,0.995032,-0.6300000000000001,0.35000000000000003,-0.07,25.0,3.33,3.33,3.33,3.32,3.32,3.33,3.32,3.32,3.33,3.33,3.33,3.33,3.32,3.33,3.33,3.32,3.33,3.33,3.33,3.32,3.33,3.33,3.33,3.33,3.34,3.32,45.0,1.0,0.0,1.0,1.0,907143,0.0,79.84999999999998,107.12684031399395
1765219412200,0.0,0.0,1.0,10.0,0.0,0.0,0.0,0.0,0.0,0.0,0.0,0.0,0.0,0.0,0.0,0.0,0.0,0.0,0.008296,-0.037698,0.995032,-0.6300000000000001,0.35000000000000003,-0.07,25.0,3.33,3.33,3.33,3.32,3.32,3.33,3.32,3.32,3.33,3.33,3.34,3.33,3.32,3.33,3.33,3.32,3.33,3.33,3.33,3.32,3.33,3.33,3.33,3.33,3.34,3.32,45.0,1.0,0.0,1.0,1.0,907174,0.0,79.85999999999997,107.12684031399395
1765219412217,0.0,0.0,1.0,10.0,0.0,0.0,0.0,0.0,0.0,0.0,0.0,0.0,0.0,0.0,0.0,0.0,0.0,0.0,0.008296,-0.037698,0.995032,-0.6300000000000001,0.35000000000000003,-0.07,25.0,3.33,3.33,3.33,3.32,3.32,3.33,3.32,3.32,3.33,3.33,3.34,3.33,3.32,3.33,3.33,3.32,3.33,3.33,3.33,3.32,3.33,3.33,3.33,3.33,3.34,3.32,45.0,1.0,0.0,1.0,1.0,907191,0.0,79.85999999999997,107.12684031399395
1765219412235,0.0,0.0,1.0,10.0,0.0,0.0,0.0,0.0,0.0,0.0,0.0,0.0,0.0,0.0,0.0,0.0,0.0,0.0,0.008296,-0.037698,0.995032,-0.6300000000000001,0.35000000000000003,-0.07,25.0,3.33,3.33,3.33,3.32,3.32,3.33,3.32,3.32,3.33,3.33,3.34,3.33,3.32,3.33,3.33,3.32,3.33,3.33,3.33,3.32,3.33,3.33,3.33,3.33,3.34,3.32,45.0,1.0,0.0,1.0,1.0,907209,0.0,79.85999999999997,107.12684031399395
1765219412254,0.0,0.0,1.0,10.0,0.0,0.0,0.0,0.0,0.0,0.0,0.0,0.0,0.0,0.0,0.0,0.0,0.0,0.0,0.008296,-0.037698,0.995032,-0.7000000000000001,0.42000000000000004,-0.07,25.0,3.33,3.33,3.33,3.32,3.32,3.33,3.32,3.32,3.33,3.33,3.34,3.33,3.32,3.33,3.33,3.32,3.33,3.33,3.33,3.32,3.33,3.33,3.33,3.33,3.34,3.32,45.0,1.0,0.0,1.0,1.0,907228,0.0,79.85999999999997,107.12684031399395
1765219412266,0.0,0.0,1.0,10.0,0.0,0.0,0.0,0.0,0.0,0.0,0.0,0.0,0.0,0.0,0.0,0.0,0.0,0.0,0.008296,-0.037698,0.995032,-0.7000000000000001,0.42000000000000004,-0.07,25.0,3.33,3.33,3.33,3.32,3.32,3.33,3.32,3.32,3.33,3.33,3.34,3.33,3.32,3.33,3.33,3.32,3.33,3.33,3.33,3.32,3.33,3.33,3.33,3.33,3.34,3.32,45.0,1.0,0.0,1.0,1.0,907240,0.0,79.85999999999997,107.12684031399395
1765219412283,0.0,0.0,1.0,10.0,0.0,0.0,0.0,0.0,0.0,0.0,0.0,0.0,0.0,0.0,0.0,0.0,0.0,0.0,0.008296,-0.037698,0.995032,-0.7000000000000001,0.42000000000000004,-0.07,25.0,3.33,3.33,3.33,3.32,3.32,3.33,3.32,3.32,3.33,3.33,3.34,3.33,3.32,3.33,3.33,3.32,3.33,3.33,3.33,3.32,3.33,3.33,3.33,3.33,3.34,3.32,45.0,1.0,0.0,1.0,1.0,907257,0.0,79.85999999999997,107.12684031399395
1765219412299,0.0,0.0,1.0,10.0,0.0,0.0,0.0,0.0,0.0,0.0,0.0,0.0,0.0,0.0,0.0,0.0,0.0,0.0,0.008296,-0.037698,0.995032,-0.7000000000000001,0.42000000000000004,-0.07,25.0,3.33,3.33,3.33,3.32,3.32,3.33,3.32,3.32,3.33,3.33,3.34,3.33,3.32,3.33,3.33,3.32,3.33,3.33,3.33,3.32,3.33,3.33,3.33,3.33,3.34,3.32,45.0,1.0,0.0,1.0,1.0,907273,0.0,79.85999999999997,107.12684031399395
1765219412316,0.0,0.0,1.0,10.0,0.0,0.0,0.0,0.0,0.0,0.0,0.0,0.0,0.0,0.0,0.0,0.0,0.0,0.0,0.008296,-0.037698,0.995032,-0.7000000000000001,0.42000000000000004,-0.07,25.0,3.33,3.33,3.33,3.32,3.32,3.33,3.32,3.32,3.33,3.33,3.34,3.33,3.32,3.33,3.33,3.32,3.33,3.33,3.33,3.32,3.33,3.33,3.33,3.33,3.34,3.32,45.0,1.0,0.0,1.0,1.0,907290,0.0,79.85999999999997,107.12684031399395
1765219412350,0.0,0.0,1.0,10.0,0.0,0.0,0.0,0.0,0.0,0.0,0.0,0.0,0.0,0.0,0.0,0.0,0.0,0.0,0.008296,-0.037698,0.995032,-0.7000000000000001,0.42000000000000004,-0.07,25.0,3.33,3.33,3.33,3.32,3.32,3.33,3.32,3.32,3.33,3.33,3.34,3.33,3.32,3.33,3.33,3.32,3.33,3.33,3.33,3.32,3.33,3.33,3.33,3.33,3.34,3.32,45.0,1.0,0.0,1.0,1.0,907324,0.0,79.85999999999997,107.12684031399395
1765219412400,0.0,0.0,1.0,10.0,0.0,0.0,0.0,0.0,0.0,0.0,0.0,0.0,0.0,0.0,0.0,0.0,0.0,0.0,0.008296,-0.037698,0.995032,-0.7000000000000001,0.42000000000000004,-0.07,25.0,3.33,3.33,3.33,3.32,3.32,3.33,3.32,3.32,3.33,3.33,3.34,3.33,3.32,3.33,3.33,3.32,3.33,3.33,3.33,3.32,3.33,3.33,3.33,3.33,3.34,3.32,45.0,1.0,0.0,1.0,1.0,907374,0.0,79.85999999999997,107.12684031399395
1765219412466,0.0,0.0,1.0,10.0,0.0,0.0,0.0,0.0,0.0,0.0,0.0,0.0,0.0,0.0,0.0,0.0,0.0,0.0,0.016958,-0.022935999999999998,0.993324,-0.7000000000000001,0.42000000000000004,-0.07,25.0,3.33,3.33,3.33,3.32,3.32,3.33,3.32,3.32,3.33,3.33,3.34,3.33,3.32,3.33,3.33,3.32,3.33,3.33,3.33,3.32,3.33,3.33,3.33,3.33,3.34,3.32,45.0,1.0,0.0,1.0,1.0,907440,0.0,79.85999999999997,107.12684031399395
1765219412484,0.0,0.0,1.0,10.0,0.0,0.0,0.0,0.0,0.0,0.0,0.0,0.0,0.0,0.0,0.0,0.0,0.0,0.0,0.016958,-0.022935999999999998,0.993324,-0.49000000000000005,0.56,-0.14,25.0,3.33,3.33,3.33,3.32,3.32,3.33,3.32,3.32,3.33,3.33,3.34,3.33,3.32,3.33,3.33,3.32,3.33,3.33,3.33,3.32,3.33,3.33,3.33,3.33,3.34,3.32,45.0,1.0,0.0,1.0,1.0,907458,0.0,79.85999999999997,107.12684031399395
1765219412502,0.0,0.0,1.0,10.0,0.0,0.0,0.0,0.0,0.0,0.0,0.0,0.0,0.0,0.0,0.0,0.0,0.0,0.0,0.016958,-0.022935999999999998,0.993324,-0.49000000000000005,0.56,-0.14,25.0,3.33,3.33,3.33,3.32,3.32,3.33,3.32,3.32,3.33,3.33,3.34,3.33,3.32,3.33,3.33,3.32,3.33,3.33,3.33,3.32,3.33,3.33,3.33,3.33,3.34,3.32,45.0,1.0,0.0,1.0,1.0,907476,0.0,79.85999999999997,107.12684031399395
1765219412534,0.0,0.0,1.0,10.0,0.0,0.0,0.0,0.0,0.0,0.0,0.0,0.0,0.0,0.0,0.0,0.0,0.0,0.0,0.007076,-0.030744,1.000644,-0.49000000000000005,0.56,-0.14,25.0,3.33,3.33,3.33,3.32,3.32,3.33,3.32,3.32,3.33,3.33,3.34,3.33,3.32,3.33,3.33,3.32,3.33,3.33,3.33,3.32,3.33,3.33,3.33,3.33,3.34,3.32,45.0,1.0,0.0,1.0,1.0,907508,0.0,79.85999999999997,107.12684031399395
1765219412568,0.0,0.0,1.0,10.0,0.0,0.0,0.0,0.0,0.0,0.0,0.0,0.0,0.0,0.0,0.0,0.0,0.0,0.0,0.007076,-0.030744,1.000644,-0.49000000000000005,0.56,-0.14,25.0,3.33,3.33,3.33,3.32,3.32,3.33,3.32,3.32,3.33,3.33,3.34,3.33,3.32,3.33,3.33,3.32,3.33,3.33,3.33,3.32,3.33,3.33,3.33,3.33,3.34,3.32,45.0,1.0,0.0,1.0,1.0,907542,0.0,79.85999999999997,107.12684031399395
1765219412584,0.0,0.0,1.0,10.0,0.0,0.0,0.0,0.0,0.0,0.0,0.0,0.0,0.0,0.0,0.0,0.0,0.0,0.0,0.007076,-0.030744,1.000644,-0.77,0.42000000000000004,-0.07,25.0,3.33,3.33,3.33,3.32,3.32,3.33,3.32,3.32,3.33,3.33,3.34,3.33,3.32,3.33,3.33,3.32,3.33,3.33,3.33,3.32,3.33,3.33,3.33,3.33,3.34,3.32,45.0,1.0,0.0,1.0,1.0,907558,0.0,79.85999999999997,107.12684031399395
1765219412601,0.0,0.0,1.0,10.0,0.0,0.0,0.0,0.0,0.0,0.0,0.0,0.0,0.0,0.0,0.0,0.0,0.0,0.0,0.007076,-0.030744,1.000644,-0.77,0.42000000000000004,-0.07,25.0,3.33,3.33,3.33,3.32,3.32,3.33,3.32,3.32,3.33,3.33,3.34,3.33,3.32,3.33,3.33,3.32,3.33,3.33,3.33,3.32,3.33,3.33,3.33,3.33,3.34,3.32,45.0,1.0,0.0,1.0,1.0,907575,0.0,79.85999999999997,107.12684031399395
1765219412617,0.0,0.0,1.0,10.0,0.0,0.0,0.0,0.0,0.0,0.0,0.0,0.0,0.0,0.0,0.0,0.0,0.0,0.0,0.007076,-0.030744,1.000644,-0.9100000000000001,0.6300000000000001,-0.35000000000000003,25.0,3.33,3.33,3.33,3.32,3.32,3.33,3.32,3.32,3.33,3.33,3.34,3.33,3.32,3.33,3.33,3.32,3.33,3.33,3.33,3.32,3.33,3.33,3.33,3.33,3.34,3.32,45.0,1.0,0.0,1.0,1.0,907591,0.0,79.85999999999997,107.12684031399395
1765219412635,0.0,0.0,1.0,10.0,0.0,0.0,0.0,0.0,0.0,0.0,0.0,0.0,0.0,0.0,0.0,0.0,0.0,0.0,0.007076,-0.030744,1.000644,-0.9100000000000001,0.6300000000000001,-0.35000000000000003,25.0,3.33,3.33,3.33,3.32,3.32,3.33,3.32,3.32,3.33,3.33,3.34,3.33,3.32,3.33,3.33,3.32,3.33,3.33,3.33,3.32,3.33,3.33,3.33,3.33,3.34,3.32,45.0,1.0,0.0,1.0,1.0,907609,0.0,79.85999999999997,107.12684031399395
1765219412669,0.0,0.0,1.0,10.0,0.0,0.0,0.0,0.0,0.0,0.0,0.0,0.0,0.0,0.0,0.0,0.0,0.0,0.0,0.007076,-0.030744,1.000644,-0.9100000000000001,0.6300000000000001,-0.35000000000000003,25.0,3.33,3.33,3.33,3.32,3.32,3.33,3.32,3.32,3.33,3.33,3.34,3.33,3.32,3.33,3.33,3.32,3.33,3.33,3.33,3.32,3.33,3.33,3.33,3.33,3.34,3.32,45.0,1.0,0.0,1.0,1.0,907643,0.0,79.85999999999997,107.12684031399395
1765219412684,0.0,0.0,1.0,10.0,0.0,0.0,0.0,0.0,0.0,0.0,0.0,0.0,0.0,0.0,0.0,0.0,0.0,0.0,0.007076,-0.030744,1.000644,-0.9100000000000001,0.6300000000000001,-0.35000000000000003,25.0,3.33,3.33,3.33,3.32,3.32,3.33,3.32,3.32,3.33,3.33,3.34,3.33,3.32,3.33,3.33,3.32,3.33,3.33,3.33,3.32,3.33,3.33,3.33,3.33,3.34,3.32,45.0,1.0,0.0,1.0,1.0,907658,0.0,79.85999999999997,107.12684031399395
1765219412700,0.0,0.0,1.0,10.0,0.0,0.0,0.0,0.0,0.0,0.0,0.0,0.0,0.0,0.0,0.0,0.0,0.0,0.0,0.007076,-0.030744,1.000644,-0.9100000000000001,0.6300000000000001,-0.35000000000000003,25.0,3.33,3.33,3.33,3.32,3.32,3.33,3.32,3.32,3.33,3.33,3.34,3.33,3.32,3.33,3.33,3.32,3.33,3.33,3.33,3.32,3.33,3.33,3.33,3.33,3.34,3.32,45.0,1.0,0.0,1.0,1.0,907674,0.0,79.85999999999997,107.12684031399395
1765219412734,0.0,0.0,1.0,10.0,0.0,0.0,0.0,0.0,0.0,0.0,0.0,0.0,0.0,0.0,0.0,0.0,0.0,0.0,0.010735999999999999,-0.048922,0.9864919999999999,-0.9100000000000001,0.6300000000000001,-0.35000000000000003,25.0,3.33,3.33,3.33,3.32,3.32,3.33,3.32,3.32,3.33,3.33,3.34,3.33,3.32,3.33,3.33,3.32,3.33,3.33,3.33,3.32,3.33,3.33,3.33,3.33,3.34,3.32,45.0,1.0,0.0,1.0,1.0,907708,0.0,79.85999999999997,107.12684031399395
1765219412800,0.0,0.0,1.0,10.0,0.0,0.0,0.0,0.0,0.0,0.0,0.0,0.0,0.0,0.0,0.0,0.0,0.0,0.0,0.010735999999999999,-0.048922,0.9864919999999999,-0.6300000000000001,0.35000000000000003,0.07,25.0,3.33,3.33,3.33,3.32,3.32,3.33,3.32,3.32,3.33,3.33,3.34,3.33,3.32,3.33,3.33,3.32,3.33,3.33,3.33,3.32,3.33,3.33,3.33,3.33,3.34,3.32,45.0,1.0,0.0,1.0,1.0,907774,0.0,79.85999999999997,107.12684031399395
1765219412833,0.0,0.0,1.0,10.0,0.0,0.0,0.0,0.0,0.0,0.0,0.0,0.0,0.0,0.0,0.0,0.0,0.0,0.0,0.010735999999999999,-0.048922,0.9864919999999999,-0.6300000000000001,0.35000000000000003,0.07,25.0,3.33,3.33,3.33,3.32,3.32,3.33,3.32,3.32,3.33,3.33,3.34,3.33,3.32,3.33,3.33,3.32,3.33,3.33,3.33,3.32,3.33,3.33,3.33,3.33,3.34,3.32,45.0,1.0,0.0,1.0,1.0,907807,0.0,79.85999999999997,107.12684031399395
1765219412899,0.0,0.0,1.0,10.0,0.0,0.0,0.0,0.0,0.0,0.0,0.0,0.0,0.0,0.0,0.0,0.0,0.0,0.0,0.011833999999999999,-0.03599,1.00467,-0.6300000000000001,0.35000000000000003,0.07,25.0,3.33,3.33,3.33,3.32,3.32,3.33,3.32,3.32,3.33,3.33,3.34,3.33,3.32,3.33,3.33,3.32,3.33,3.33,3.33,3.32,3.33,3.33,3.33,3.33,3.34,3.32,45.0,1.0,0.0,1.0,1.0,907873,0.0,79.85999999999997,107.12684031399395
1765219412916,0.0,0.0,1.0,10.0,0.0,0.0,0.0,0.0,0.0,0.0,0.0,0.0,0.0,0.0,0.0,0.0,0.0,0.0,0.011833999999999999,-0.03599,1.00467,-0.7000000000000001,-0.21000000000000002,0.28,25.0,3.33,3.33,3.33,3.32,3.32,3.33,3.32,3.32,3.33,3.33,3.34,3.33,3.32,3.33,3.33,3.32,3.33,3.33,3.33,3.32,3.33,3.33,3.33,3.33,3.34,3.32,45.0,1.0,0.0,1.0,1.0,907890,0.0,79.85999999999997,107.12684031399395
1765219412950,0.0,0.0,1.0,10.0,0.0,0.0,0.0,0.0,0.0,0.0,0.0,0.0,0.0,0.0,0.0,0.0,0.0,0.0,0.011833999999999999,-0.03599,1.00467,-0.7000000000000001,-0.21000000000000002,0.28,25.0,3.33,3.33,3.33,3.32,3.32,3.33,3.32,3.32,3.33,3.33,3.34,3.33,3.32,3.33,3.33,3.32,3.33,3.33,3.33,3.32,3.33,3.33,3.33,3.33,3.34,3.32,45.0,1.0,0.0,1.0,1.0,907924,0.0,79.85999999999997,107.12684031399395
1765219412966,0.0,0.0,1.0,10.0,0.0,0.0,0.0,0.0,0.0,0.0,0.0,0.0,0.0,0.0,0.0,0.0,0.0,0.0,0.011833999999999999,-0.03599,1.00467,-0.7000000000000001,-0.21000000000000002,0.28,25.0,3.33,3.33,3.33,3.32,3.32,3.33,3.32,3.32,3.33,3.33,3.34,3.33,3.32,3.33,3.33,3.32,3.33,3.33,3.33,3.32,3.33,3.33,3.33,3.33,3.34,3.32,45.0,1.0,0.0,1.0,1.0,907940,0.0,79.85999999999997,107.12684031399395
1765219412982,0.0,0.0,1.0,10.0,0.0,0.0,0.0,0.0,0.0,0.0,0.0,0.0,0.0,0.0,0.0,0.0,0.0,0.0,0.011833999999999999,-0.03599,1.00467,-0.7000000000000001,-0.21000000000000002,0.28,25.0,3.33,3.33,3.33,3.32,3.32,3.33,3.32,3.32,3.33,3.33,3.34,3.33,3.32,3.33,3.33,3.32,3.33,3.33,3.33,3.32,3.33,3.33,3.33,3.33,3.34,3.32,44.0,1.0,0.0,1.0,1.0,907956,0.0,79.85999999999997,107.12684031399395
1765219413017,0.0,0.0,1.0,10.0,0.0,0.0,0.0,0.0,0.0,0.0,0.0,0.0,0.0,0.0,0.0,0.0,0.0,0.0,0.011833999999999999,-0.03599,1.00467,-0.7000000000000001,-0.21000000000000002,0.28,25.0,3.33,3.33,3.33,3.32,3.32,3.33,3.32,3.32,3.33,3.33,3.34,3.33,3.32,3.33,3.33,3.32,3.33,3.33,3.33,3.32,3.33,3.33,3.33,3.33,3.34,3.32,44.0,1.0,0.0,1.0,1.0,907991,0.0,79.85999999999997,107.12684031399395
1765219413033,0.0,0.0,1.0,10.0,0.0,0.0,0.0,0.0,0.0,0.0,0.0,0.0,0.0,0.0,0.0,0.0,0.0,0.0,0.011833999999999999,-0.03599,1.00467,-0.7000000000000001,-0.21000000000000002,0.28,25.0,3.33,3.33,3.33,3.32,3.32,3.33,3.32,3.32,3.33,3.33,3.34,3.33,3.32,3.33,3.33,3.32,3.33,3.33,3.33,3.32,3.33,3.33,3.33,3.33,3.34,3.32,44.0,1.0,0.0,1.0,1.0,908007,0.0,79.85999999999997,107.12684031399395
1765219413067,0.0,0.0,1.0,10.0,0.0,0.0,0.0,0.0,0.0,0.0,0.0,0.0,0.0,0.0,0.0,0.0,0.0,0.0,0.011833999999999999,-0.03599,1.00467,-0.7000000000000001,-0.21000000000000002,0.28,25.0,3.33,3.33,3.33,3.32,3.32,3.33,3.32,3.32,3.33,3.33,3.34,3.33,3.32,3.33,3.33,3.32,3.33,3.33,3.33,3.32,3.33,3.33,3.33,3.33,3.34,3.32,44.0,1.0,0.0,1.0,1.0,908041,0.0,79.85999999999997,107.12684031399395
1765219413118,0.0,0.0,1.0,10.0,0.0,0.0,0.0,0.0,0.0,0.0,0.0,0.0,0.0,0.0,0.0,0.0,0.0,0.0,0.011833999999999999,-0.03599,1.00467,-0.7000000000000001,-0.21000000000000002,0.28,25.0,3.33,3.33,3.33,3.32,3.32,3.33,3.32,3.32,3.33,3.33,3.34,3.33,3.32,3.33,3.33,3.32,3.33,3.33,3.33,3.32,3.33,3.33,3.33,3.33,3.34,3.32,44.0,1.0,0.0,1.0,1.0,908092,0.0,79.85999999999997,107.12684031399395
1765219413150,0.0,0.0,1.0,10.0,0.0,0.0,0.0,0.0,0.0,0.0,0.0,0.0,0.0,0.0,0.0,0.0,0.0,0.0,0.034892,-0.00122,0.99979,-0.7000000000000001,-0.21000000000000002,0.28,25.0,3.33,3.33,3.33,3.32,3.32,3.33,3.32,3.32,3.33,3.33,3.34,3.33,3.32,3.33,3.33,3.32,3.33,3.33,3.33,3.32,3.33,3.33,3.33,3.33,3.34,3.32,44.0,1.0,0.0,1.0,1.0,908124,0.0,79.85999999999997,107.12684031399395
1765219413184,0.0,0.0,1.0,10.0,0.0,0.0,0.0,0.0,0.0,0.0,0.0,0.0,0.0,0.0,0.0,0.0,0.0,0.0,0.034892,-0.00122,0.99979,0.0,0.6300000000000001,0.14,25.0,3.33,3.33,3.33,3.32,3.32,3.33,3.32,3.32,3.33,3.33,3.34,3.33,3.32,3.33,3.33,3.32,3.33,3.33,3.33,3.32,3.33,3.33,3.33,3.33,3.34,3.32,44.0,1.0,0.0,1.0,1.0,908158,0.0,79.85999999999997,107.12684031399395
1765219413201,0.0,0.0,1.0,10.0,0.0,0.0,0.0,0.0,0.0,0.0,0.0,0.0,0.0,0.0,0.0,0.0,0.0,0.0,0.034892,-0.00122,0.99979,0.0,0.6300000000000001,0.14,25.0,3.33,3.33,3.33,3.32,3.32,3.33,3.32,3.32,3.33,3.33,3.34,3.33,3.32,3.33,3.33,3.32,3.33,3.33,3.33,3.32,3.33,3.33,3.33,3.33,3.34,3.32,44.0,1.0,0.0,1.0,1.0,908175,0.0,79.85999999999997,107.12684031399395
1765219413249,0.0,0.0,1.0,10.0,0.0,0.0,0.0,0.0,0.0,0.0,0.0,0.0,0.0,0.0,0.0,0.0,0.0,0.0,0.034892,-0.00122,0.99979,0.0,0.6300000000000001,0.14,25.0,3.33,3.33,3.33,3.32,3.32,3.33,3.32,3.32,3.33,3.33,3.34,3.33,3.32,3.33,3.33,3.32,3.33,3.33,3.33,3.32,3.33,3.33,3.33,3.33,3.34,3.32,44.0,1.0,0.0,1.0,1.0,908223,0.0,79.85999999999997,107.12684031399395
1765219413317,0.0,0.0,1.0,10.0,0.0,0.0,0.0,0.0,0.0,0.0,0.0,0.0,0.0,0.0,0.0,0.0,0.0,0.0,0.011467999999999999,-0.038796,0.9910059999999999,0.0,0.6300000000000001,0.14,25.0,3.33,3.33,3.33,3.32,3.32,3.33,3.32,3.32,3.33,3.33,3.34,3.33,3.32,3.33,3.33,3.32,3.33,3.33,3.33,3.32,3.33,3.33,3.33,3.33,3.34,3.32,44.0,1.0,0.0,1.0,1.0,908291,0.0,79.85999999999997,107.12684031399395
1765219413334,0.0,0.0,1.0,10.0,0.0,0.0,0.0,0.0,0.0,0.0,0.0,0.0,0.0,0.0,0.0,0.0,0.0,0.0,0.011467999999999999,-0.038796,0.9910059999999999,-0.49000000000000005,0.42000000000000004,-0.14,25.0,3.33,3.33,3.33,3.32,3.32,3.33,3.32,3.32,3.33,3.33,3.34,3.33,3.32,3.33,3.33,3.32,3.33,3.33,3.33,3.32,3.33,3.33,3.33,3.33,3.34,3.32,44.0,1.0,0.0,1.0,1.0,908308,0.0,79.85999999999997,107.12684031399395
1765219413351,0.0,0.0,1.0,10.0,0.0,0.0,0.0,0.0,0.0,0.0,0.0,0.0,0.0,0.0,0.0,0.0,0.0,0.0,0.011467999999999999,-0.038796,0.9910059999999999,-0.49000000000000005,0.42000000000000004,-0.14,25.0,3.33,3.33,3.33,3.32,3.32,3.33,3.32,3.32,3.33,3.33,3.34,3.33,3.32,3.33,3.33,3.32,3.33,3.33,3.33,3.32,3.33,3.33,3.33,3.33,3.34,3.32,44.0,1.0,0.0,1.0,1.0,908325,0.0,79.85999999999997,107.12684031399395
1765219413401,0.0,0.0,1.0,10.0,0.0,0.0,0.0,0.0,0.0,0.0,0.0,0.0,0.0,0.0,0.0,0.0,0.0,0.0,0.009516,-0.042334,0.987956,-0.49000000000000005,0.42000000000000004,-0.14,25.0,3.33,3.33,3.33,3.32,3.32,3.33,3.32,3.32,3.33,3.33,3.34,3.33,3.32,3.33,3.33,3.32,3.33,3.33,3.33,3.32,3.33,3.33,3.33,3.33,3.34,3.32,44.0,1.0,0.0,1.0,1.0,908375,0.0,79.85999999999997,107.12684031399395
1765219413416,0.0,0.0,1.0,10.0,0.0,0.0,0.0,0.0,0.0,0.0,0.0,0.0,0.0,0.0,0.0,0.0,0.0,0.0,0.009516,-0.042334,0.987956,-0.49000000000000005,0.42000000000000004,-0.14,25.0,3.33,3.33,3.33,3.32,3.32,3.33,3.32,3.32,3.33,3.33,3.34,3.33,3.32,3.33,3.33,3.32,3.33,3.33,3.33,3.32,3.33,3.33,3.33,3.33,3.34,3.32,44.0,1.0,0.0,1.0,1.0,908390,0.0,79.85999999999997,107.12684031399395
1765219413434,0.0,0.0,1.0,10.0,0.0,0.0,0.0,0.0,0.0,0.0,0.0,0.0,0.0,0.0,0.0,0.0,0.0,0.0,0.009516,-0.042334,0.987956,-0.49000000000000005,0.42000000000000004,-0.14,25.0,3.33,3.33,3.33,3.32,3.32,3.33,3.32,3.32,3.33,3.33,3.34,3.33,3.32,3.33,3.33,3.32,3.33,3.33,3.33,3.32,3.33,3.33,3.33,3.33,3.34,3.32,44.0,1.0,0.0,1.0,1.0,908408,0.0,79.85999999999997,107.12684031399395
1765219413466,0.0,0.0,1.0,10.0,0.0,0.0,0.0,0.0,0.0,0.0,0.0,0.0,0.0,0.0,0.0,0.0,0.0,0.0,0.009516,-0.042334,0.987956,-0.77,0.35000000000000003,-0.14,25.0,3.33,3.33,3.33,3.32,3.32,3.33,3.32,3.32,3.33,3.33,3.34,3.33,3.32,3.33,3.33,3.32,3.33,3.33,3.33,3.32,3.33,3.33,3.33,3.33,3.34,3.32,44.0,1.0,0.0,1.0,1.0,908440,0.0,79.85999999999997,107.12684031399395
1765219413483,0.0,0.0,1.0,10.0,0.0,0.0,0.0,0.0,0.0,0.0,0.0,0.0,0.0,0.0,0.0,0.0,0.0,0.0,0.009516,-0.042334,0.987956,-0.77,0.35000000000000003,-0.14,25.0,3.33,3.33,3.33,3.32,3.32,3.33,3.32,3.32,3.33,3.33,3.34,3.33,3.32,3.33,3.33,3.32,3.33,3.33,3.33,3.32,3.33,3.33,3.33,3.33,3.34,3.32,44.0,1.0,0.0,1.0,1.0,908457,0.0,79.85999999999997,107.12684031399395
1765219413534,0.0,0.0,1.0,10.0,0.0,0.0,0.0,0.0,0.0,0.0,0.0,0.0,0.0,0.0,0.0,0.0,0.0,0.0,0.009516,-0.042334,0.987956,-0.77,0.35000000000000003,-0.14,25.0,3.33,3.33,3.33,3.32,3.32,3.33,3.32,3.32,3.33,3.33,3.34,3.33,3.32,3.33,3.33,3.32,3.33,3.33,3.33,3.32,3.33,3.33,3.33,3.33,3.34,3.32,44.0,1.0,0.0,1.0,1.0,908508,0.0,79.85999999999997,107.12684031399395
1765219413551,0.0,0.0,1.0,10.0,0.0,0.0,0.0,0.0,0.0,0.0,0.0,0.0,0.0,0.0,0.0,0.0,0.0,0.0,0.009516,-0.042334,0.987956,-0.77,0.35000000000000003,-0.14,25.0,3.33,3.33,3.33,3.32,3.32,3.33,3.32,3.32,3.33,3.33,3.34,3.33,3.32,3.33,3.33,3.32,3.33,3.33,3.33,3.32,3.33,3.33,3.33,3.33,3.34,3.32,44.0,1.0,0.0,1.0,1.0,908525,0.0,79.85999999999997,107.12684031399395
1765219413617,0.0,0.0,1.0,10.0,0.0,0.0,0.0,0.0,0.0,0.0,0.0,0.0,0.0,0.0,0.0,0.0,0.0,0.0,0.012199999999999999,-0.022935999999999998,0.995032,-0.77,0.35000000000000003,-0.14,25.0,3.33,3.33,3.33,3.32,3.32,3.33,3.32,3.32,3.33,3.33,3.34,3.33,3.32,3.33,3.33,3.32,3.33,3.33,3.33,3.32,3.33,3.33,3.33,3.33,3.34,3.32,44.0,1.0,0.0,1.0,1.0,908591,0.0,79.85999999999997,107.12684031399395
1765219413634,0.0,0.0,1.0,10.0,0.0,0.0,0.0,0.0,0.0,0.0,0.0,0.0,0.0,0.0,0.0,0.0,0.0,0.0,0.012199999999999999,-0.022935999999999998,0.995032,-0.56,0.49000000000000005,0.0,25.0,3.33,3.33,3.33,3.32,3.32,3.33,3.32,3.32,3.33,3.33,3.34,3.33,3.32,3.33,3.33,3.32,3.33,3.33,3.33,3.32,3.33,3.33,3.33,3.33,3.34,3.32,44.0,1.0,0.0,1.0,1.0,908608,0.0,79.85999999999997,107.12684031399395
1765219413650,0.0,0.0,1.0,10.0,0.0,0.0,0.0,0.0,0.0,0.0,0.0,0.0,0.0,0.0,0.0,0.0,0.0,0.0,0.012199999999999999,-0.022935999999999998,0.995032,-0.56,0.49000000000000005,0.0,25.0,3.33,3.33,3.33,3.32,3.32,3.33,3.32,3.32,3.33,3.33,3.34,3.33,3.32,3.33,3.33,3.32,3.33,3.33,3.33,3.32,3.33,3.33,3.33,3.33,3.34,3.32,44.0,1.0,0.0,1.0,1.0,908624,0.0,79.85999999999997,107.12684031399395
1765219413685,0.0,0.0,1.0,10.0,0.0,0.0,0.0,0.0,0.0,0.0,0.0,0.0,0.0,0.0,0.0,0.0,0.0,0.0,0.012199999999999999,-0.022935999999999998,0.995032,-0.56,0.49000000000000005,0.0,25.0,3.33,3.33,3.33,3.32,3.32,3.33,3.32,3.32,3.33,3.33,3.34,3.33,3.32,3.33,3.33,3.32,3.33,3.33,3.33,3.32,3.33,3.33,3.33,3.33,3.34,3.32,44.0,1.0,0.0,1.0,1.0,908659,0.0,79.85999999999997,107.12684031399395
1765219413717,0.0,0.0,1.0,10.0,0.0,0.0,0.0,0.0,0.0,0.0,0.0,0.0,0.0,0.0,0.0,0.0,0.0,0.0,0.012199999999999999,-0.022935999999999998,0.995032,-0.56,0.49000000000000005,0.0,25.0,3.33,3.33,3.33,3.32,3.32,3.33,3.32,3.32,3.33,3.33,3.34,3.33,3.32,3.33,3.33,3.32,3.33,3.33,3.33,3.32,3.33,3.33,3.33,3.33,3.34,3.32,44.0,1.0,0.0,1.0,1.0,908691,0.0,79.85999999999997,107.12684031399395
1765219413734,0.0,0.0,1.0,10.0,0.0,0.0,0.0,0.0,0.0,0.0,0.0,0.0,0.0,0.0,0.0,0.0,0.0,0.0,0.012199999999999999,-0.022935999999999998,0.995032,-0.56,0.49000000000000005,0.0,25.0,3.33,3.33,3.33,3.32,3.32,3.33,3.32,3.32,3.33,3.33,3.34,3.33,3.32,3.33,3.33,3.32,3.33,3.33,3.33,3.32,3.33,3.33,3.33,3.33,3.34,3.32,44.0,1.0,0.0,1.0,1.0,908708,0.0,79.85999999999997,107.12684031399395
1765219413749,0.0,0.0,1.0,10.0,0.0,0.0,0.0,0.0,0.0,0.0,0.0,0.0,0.0,0.0,0.0,0.0,0.0,0.0,0.012199999999999999,-0.022935999999999998,0.995032,-0.56,0.49000000000000005,0.0,25.0,3.33,3.33,3.33,3.32,3.32,3.33,3.32,3.32,3.33,3.33,3.34,3.33,3.32,3.33,3.33,3.32,3.33,3.33,3.33,3.32,3.33,3.33,3.33,3.33,3.34,3.32,44.0,1.0,0.0,1.0,1.0,908723,0.0,79.85999999999997,107.12684031399395
1765219413767,0.0,0.0,1.0,10.0,0.0,0.0,0.0,0.0,0.0,0.0,0.0,0.0,0.0,0.0,0.0,0.0,0.0,0.0,0.012199999999999999,-0.022935999999999998,0.995032,-0.56,0.49000000000000005,0.0,25.0,3.33,3.33,3.33,3.32,3.32,3.33,3.32,3.32,3.33,3.33,3.34,3.33,3.32,3.33,3.33,3.32,3.33,3.33,3.33,3.32,3.33,3.33,3.33,3.33,3.34,3.32,44.0,1.0,0.0,1.0,1.0,908741,0.0,79.85999999999997,107.12684031399395
1765219413783,0.0,0.0,1.0,10.0,0.0,0.0,0.0,0.0,0.0,0.0,0.0,0.0,0.0,0.0,0.0,0.0,0.0,0.0,0.012199999999999999,-0.022935999999999998,0.995032,-0.56,0.49000000000000005,0.0,25.0,3.33,3.33,3.33,3.32,3.32,3.33,3.32,3.32,3.33,3.33,3.34,3.33,3.32,3.33,3.33,3.32,3.33,3.33,3.33,3.32,3.33,3.33,3.33,3.33,3.34,3.32,44.0,1.0,0.0,1.0,1.0,908757,0.0,79.85999999999997,107.12684031399395
1765219413817,0.0,0.0,1.0,10.0,0.0,0.0,0.0,0.0,0.0,0.0,0.0,0.0,0.0,0.0,0.0,0.0,0.0,0.0,0.012199999999999999,-0.022935999999999998,0.995032,-0.56,0.49000000000000005,0.0,25.0,3.33,3.33,3.33,3.32,3.32,3.33,3.32,3.32,3.33,3.33,3.34,3.33,3.32,3.33,3.33,3.32,3.33,3.33,3.33,3.32,3.33,3.33,3.33,3.33,3.34,3.32,44.0,1.0,0.0,1.0,1.0,908791,0.0,79.85999999999997,107.12684031399395
1765219413834,0.0,0.0,1.0,10.0,0.0,0.0,0.0,0.0,0.0,0.0,0.0,0.0,0.0,0.0,0.0,0.0,0.0,0.0,0.012199999999999999,-0.022935999999999998,0.995032,-0.56,0.49000000000000005,0.0,25.0,3.33,3.33,3.33,3.32,3.32,3.33,3.32,3.32,3.33,3.33,3.34,3.33,3.32,3.33,3.33,3.32,3.33,3.33,3.33,3.32,3.33,3.33,3.33,3.33,3.34,3.32,44.0,1.0,0.0,1.0,1.0,908808,0.0,79.85999999999997,107.12684031399395
1765219413850,0.0,0.0,1.0,10.0,0.0,0.0,0.0,0.0,0.0,0.0,0.0,0.0,0.0,0.0,0.0,0.0,0.0,0.0,0.012199999999999999,-0.022935999999999998,0.995032,-0.56,0.49000000000000005,0.0,25.0,3.33,3.33,3.33,3.32,3.32,3.33,3.32,3.32,3.33,3.33,3.34,3.33,3.32,3.33,3.33,3.32,3.33,3.33,3.33,3.32,3.33,3.34,3.33,3.33,3.34,3.32,44.0,1.0,0.0,1.0,1.0,908824,0.0,79.86999999999998,107.12684031399395
1765219413867,0.0,0.0,1.0,10.0,0.0,0.0,0.0,0.0,0.0,0.0,0.0,0.0,0.0,0.0,0.0,0.0,0.0,0.0,0.012199999999999999,-0.022935999999999998,0.995032,-0.56,0.49000000000000005,0.0,25.0,3.33,3.33,3.33,3.32,3.32,3.33,3.32,3.32,3.33,3.33,3.34,3.33,3.32,3.33,3.33,3.32,3.33,3.33,3.33,3.32,3.33,3.34,3.33,3.33,3.34,3.32,44.0,1.0,0.0,1.0,1.0,908841,0.0,79.86999999999998,107.12684031399395
1765219413884,0.0,0.0,1.0,10.0,0.0,0.0,0.0,0.0,0.0,0.0,0.0,0.0,0.0,0.0,0.0,0.0,0.0,0.0,0.012199999999999999,-0.022935999999999998,0.995032,-0.56,0.49000000000000005,0.0,25.0,3.33,3.33,3.33,3.32,3.32,3.33,3.32,3.32,3.33,3.33,3.34,3.33,3.32,3.33,3.33,3.32,3.33,3.33,3.33,3.32,3.33,3.34,3.33,3.33,3.34,3.32,44.0,1.0,0.0,1.0,1.0,908858,0.0,79.86999999999998,107.12684031399395
1765219413901,0.0,0.0,1.0,10.0,0.0,0.0,0.0,0.0,0.0,0.0,0.0,0.0,0.0,0.0,0.0,0.0,0.0,0.0,0.012199999999999999,-0.022935999999999998,0.995032,-0.56,0.49000000000000005,0.0,25.0,3.33,3.33,3.33,3.32,3.32,3.33,3.32,3.32,3.33,3.33,3.34,3.33,3.32,3.33,3.33,3.32,3.33,3.33,3.33,3.32,3.33,3.34,3.33,3.33,3.34,3.32,44.0,1.0,0.0,1.0,1.0,908875,0.0,79.86999999999998,107.12684031399395
1765219413934,0.0,0.0,1.0,10.0,0.0,0.0,0.0,0.0,0.0,0.0,0.0,0.0,0.0,0.0,0.0,0.0,0.0,0.0,0.012199999999999999,-0.022935999999999998,0.995032,-0.56,0.49000000000000005,0.0,25.0,3.33,3.33,3.33,3.32,3.32,3.33,3.32,3.32,3.33,3.33,3.34,3.33,3.32,3.33,3.33,3.32,3.33,3.33,3.33,3.32,3.33,3.34,3.33,3.33,3.34,3.32,44.0,1.0,0.0,1.0,1.0,908908,0.0,79.86999999999998,107.12684031399395
1765219413950,0.0,0.0,1.0,10.0,0.0,0.0,0.0,0.0,0.0,0.0,0.0,0.0,0.0,0.0,0.0,0.0,0.0,0.0,0.012199999999999999,-0.022935999999999998,0.995032,-0.56,0.49000000000000005,0.0,25.0,3.33,3.33,3.33,3.32,3.32,3.33,3.32,3.32,3.33,3.33,3.34,3.33,3.32,3.33,3.33,3.32,3.33,3.33,3.33,3.32,3.33,3.34,3.33,3.33,3.34,3.32,44.0,1.0,0.0,1.0,1.0,908924,0.0,79.86999999999998,107.12684031399395
1765219413966,0.0,0.0,1.0,10.0,0.0,0.0,0.0,0.0,0.0,0.0,0.0,0.0,0.0,0.0,0.0,0.0,0.0,0.0,0.012199999999999999,-0.022935999999999998,0.995032,-0.56,0.49000000000000005,0.0,25.0,3.33,3.33,3.33,3.32,3.32,3.33,3.32,3.32,3.33,3.33,3.34,3.33,3.32,3.33,3.33,3.32,3.33,3.33,3.33,3.32,3.33,3.34,3.33,3.33,3.34,3.32,44.0,1.0,0.0,1.0,1.0,908940,0.0,79.86999999999998,107.12684031399395
1765219413982,0.0,0.0,1.0,10.0,0.0,0.0,0.0,0.0,0.0,0.0,0.0,0.0,0.0,0.0,0.0,0.0,0.0,0.0,0.012199999999999999,-0.022935999999999998,0.995032,-0.56,0.49000000000000005,0.0,25.0,3.33,3.33,3.33,3.32,3.32,3.33,3.32,3.32,3.33,3.33,3.34,3.33,3.32,3.33,3.33,3.32,3.33,3.33,3.33,3.32,3.33,3.34,3.33,3.33,3.34,3.32,44.0,1.0,0.0,1.0,1.0,908956,0.0,79.86999999999998,107.12684031399395
1765219414000,0.0,0.0,1.0,10.0,0.0,0.0,0.0,0.0,0.0,0.0,0.0,0.0,0.0,0.0,0.0,0.0,0.0,0.0,0.012199999999999999,-0.022935999999999998,0.995032,-0.56,0.49000000000000005,0.0,25.0,3.33,3.33,3.33,3.32,3.32,3.33,3.32,3.32,3.33,3.33,3.34,3.33,3.32,3.33,3.33,3.32,3.33,3.33,3.33,3.32,3.33,3.34,3.33,3.33,3.34,3.32,44.0,1.0,0.0,1.0,1.0,908974,0.0,79.86999999999998,107.12684031399395
1765219414035,0.0,0.0,1.0,10.0,0.0,0.0,0.0,0.0,0.0,0.0,0.0,0.0,0.0,0.0,0.0,0.0,0.0,0.0,0.012199999999999999,-0.022935999999999998,0.995032,-0.56,0.49000000000000005,0.0,25.0,3.33,3.33,3.33,3.32,3.32,3.33,3.32,3.32,3.33,3.33,3.34,3.33,3.32,3.33,3.33,3.32,3.33,3.33,3.33,3.32,3.33,3.33,3.33,3.33,3.34,3.32,44.0,1.0,0.0,1.0,1.0,909009,0.0,79.85999999999997,107.12684031399395
1765219414068,0.0,0.0,1.0,10.0,0.0,0.0,0.0,0.0,0.0,0.0,0.0,0.0,0.0,0.0,0.0,0.0,0.0,0.0,0.014761999999999999,-0.034648,0.991128,-0.56,0.49000000000000005,0.0,25.0,3.33,3.33,3.33,3.32,3.32,3.33,3.32,3.32,3.33,3.33,3.34,3.33,3.32,3.33,3.33,3.32,3.33,3.33,3.33,3.32,3.33,3.33,3.33,3.33,3.34,3.32,44.0,1.0,0.0,1.0,1.0,909042,0.0,79.85999999999997,107.12684031399395
1765219414085,0.0,0.0,1.0,10.0,0.0,0.0,0.0,0.0,0.0,0.0,0.0,0.0,0.0,0.0,0.0,0.0,0.0,0.0,0.014761999999999999,-0.034648,0.991128,-0.7000000000000001,0.42000000000000004,0.0,25.0,3.33,3.33,3.33,3.32,3.32,3.33,3.32,3.32,3.33,3.33,3.34,3.33,3.32,3.33,3.33,3.32,3.33,3.33,3.33,3.32,3.33,3.33,3.33,3.33,3.34,3.32,44.0,1.0,0.0,1.0,1.0,909059,0.0,79.85999999999997,107.12684031399395
1765219414100,0.0,0.0,1.0,10.0,0.0,0.0,0.0,0.0,0.0,0.0,0.0,0.0,0.0,0.0,0.0,0.0,0.0,0.0,0.014761999999999999,-0.034648,0.991128,-0.7000000000000001,0.42000000000000004,0.0,25.0,3.33,3.33,3.33,3.32,3.32,3.33,3.32,3.32,3.33,3.33,3.34,3.33,3.32,3.33,3.33,3.32,3.33,3.33,3.33,3.32,3.33,3.33,3.33,3.33,3.34,3.32,44.0,1.0,0.0,1.0,1.0,909074,0.0,79.85999999999997,107.12684031399395
1765219414134,0.0,0.0,1.0,10.0,0.0,0.0,0.0,0.0,0.0,0.0,0.0,0.0,0.0,0.0,0.0,0.0,0.0,0.0,0.014761999999999999,-0.034648,0.991128,-0.7000000000000001,0.42000000000000004,0.0,25.0,3.33,3.33,3.33,3.32,3.32,3.33,3.32,3.32,3.33,3.33,3.34,3.33,3.32,3.33,3.33,3.32,3.33,3.33,3.33,3.32,3.33,3.33,3.33,3.33,3.34,3.32,44.0,1.0,0.0,1.0,1.0,909108,0.0,79.85999999999997,107.12684031399395
1765219414149,0.0,0.0,1.0,10.0,0.0,0.0,0.0,0.0,0.0,0.0,0.0,0.0,0.0,0.0,0.0,0.0,0.0,0.0,0.014761999999999999,-0.034648,0.991128,-0.7000000000000001,0.42000000000000004,0.0,25.0,3.33,3.33,3.33,3.32,3.32,3.33,3.32,3.32,3.33,3.33,3.34,3.33,3.32,3.33,3.33,3.32,3.33,3.33,3.33,3.32,3.33,3.33,3.33,3.33,3.34,3.32,44.0,1.0,0.0,1.0,1.0,909123,0.0,79.85999999999997,107.12684031399395
1765219414166,0.0,0.0,1.0,10.0,0.0,0.0,0.0,0.0,0.0,0.0,0.0,0.0,0.0,0.0,0.0,0.0,0.0,0.0,0.014761999999999999,-0.034648,0.991128,-0.7000000000000001,0.42000000000000004,0.0,25.0,3.33,3.33,3.33,3.32,3.32,3.33,3.32,3.32,3.33,3.33,3.34,3.33,3.32,3.33,3.33,3.32,3.33,3.33,3.33,3.32,3.33,3.33,3.33,3.33,3.34,3.32,44.0,1.0,0.0,1.0,1.0,909140,0.0,79.85999999999997,107.12684031399395
1765219414184,0.0,0.0,1.0,10.0,0.0,0.0,0.0,0.0,0.0,0.0,0.0,0.0,0.0,0.0,0.0,0.0,0.0,0.0,0.012078,-0.029036,0.9964959999999999,-0.7000000000000001,0.42000000000000004,0.0,25.0,3.33,3.33,3.33,3.32,3.32,3.33,3.32,3.32,3.33,3.33,3.34,3.33,3.32,3.33,3.33,3.32,3.33,3.33,3.33,3.32,3.33,3.33,3.33,3.33,3.34,3.32,44.0,1.0,0.0,1.0,1.0,909158,0.0,79.85999999999997,107.12684031399395
1765219414216,0.0,0.0,1.0,10.0,0.0,0.0,0.0,0.0,0.0,0.0,0.0,0.0,0.0,0.0,0.0,0.0,0.0,0.0,0.012078,-0.029036,0.9964959999999999,-0.7000000000000001,0.42000000000000004,0.0,25.0,3.33,3.33,3.33,3.32,3.32,3.33,3.32,3.32,3.33,3.33,3.34,3.33,3.32,3.33,3.33,3.32,3.33,3.33,3.33,3.32,3.33,3.33,3.33,3.33,3.34,3.32,44.0,1.0,0.0,1.0,1.0,909190,0.0,79.85999999999997,107.12684031399395
1765219414250,0.0,0.0,1.0,10.0,0.0,0.0,0.0,0.0,0.0,0.0,0.0,0.0,0.0,0.0,0.0,0.0,0.0,0.0,0.012078,-0.029036,0.9964959999999999,-0.7000000000000001,0.49000000000000005,-0.07,25.0,3.33,3.33,3.33,3.32,3.32,3.33,3.32,3.32,3.33,3.33,3.34,3.33,3.32,3.33,3.33,3.32,3.33,3.33,3.33,3.32,3.33,3.33,3.33,3.33,3.34,3.32,44.0,1.0,0.0,1.0,1.0,909224,0.0,79.85999999999997,107.12684031399395
1765219414267,0.0,0.0,1.0,10.0,0.0,0.0,0.0,0.0,0.0,0.0,0.0,0.0,0.0,0.0,0.0,0.0,0.0,0.0,0.012078,-0.029036,0.9964959999999999,-0.7000000000000001,0.49000000000000005,-0.07,25.0,3.33,3.33,3.33,3.32,3.32,3.33,3.32,3.32,3.33,3.33,3.34,3.33,3.32,3.33,3.33,3.32,3.33,3.33,3.33,3.32,3.33,3.33,3.33,3.33,3.34,3.32,44.0,1.0,0.0,1.0,1.0,909241,0.0,79.85999999999997,107.12684031399395
1765219414318,0.0,0.0,1.0,10.0,0.0,0.0,0.0,0.0,0.0,0.0,0.0,0.0,0.0,0.0,0.0,0.0,0.0,0.0,0.012078,-0.029036,0.9964959999999999,-0.7000000000000001,0.49000000000000005,-0.07,25.0,3.33,3.33,3.33,3.32,3.32,3.33,3.32,3.32,3.33,3.33,3.34,3.33,3.32,3.33,3.33,3.32,3.33,3.33,3.33,3.32,3.33,3.33,3.33,3.33,3.34,3.32,44.0,1.0,0.0,1.0,1.0,909292,0.0,79.85999999999997,107.12684031399395
1765219414367,0.0,0.0,1.0,10.0,0.0,0.0,0.0,0.0,0.0,0.0,0.0,0.0,0.0,0.0,0.0,0.0,0.0,0.0,0.012322,-0.030987999999999998,0.991982,-0.7000000000000001,0.49000000000000005,-0.07,25.0,3.33,3.33,3.33,3.32,3.32,3.33,3.32,3.32,3.33,3.33,3.34,3.33,3.32,3.33,3.33,3.32,3.33,3.33,3.33,3.32,3.33,3.33,3.33,3.33,3.34,3.32,44.0,1.0,0.0,1.0,1.0,909341,0.0,79.85999999999997,107.12684031399395
1765219414384,0.0,0.0,1.0,10.0,0.0,0.0,0.0,0.0,0.0,0.0,0.0,0.0,0.0,0.0,0.0,0.0,0.0,0.0,0.012322,-0.030987999999999998,0.991982,-0.77,0.42000000000000004,0.0,25.0,3.33,3.33,3.33,3.32,3.32,3.33,3.32,3.32,3.33,3.33,3.34,3.33,3.32,3.33,3.33,3.32,3.33,3.33,3.33,3.32,3.33,3.33,3.33,3.33,3.34,3.32,44.0,1.0,0.0,1.0,1.0,909358,0.0,79.85999999999997,107.12684031399395
1765219414399,0.0,0.0,1.0,10.0,0.0,0.0,0.0,0.0,0.0,0.0,0.0,0.0,0.0,0.0,0.0,0.0,0.0,0.0,0.012322,-0.030987999999999998,0.991982,-0.77,0.42000000000000004,0.0,25.0,3.33,3.33,3.33,3.32,3.32,3.33,3.32,3.32,3.33,3.33,3.34,3.33,3.32,3.33,3.33,3.32,3.33,3.33,3.33,3.32,3.33,3.33,3.33,3.33,3.34,3.32,44.0,1.0,0.0,1.0,1.0,909373,0.0,79.85999999999997,107.12684031399395
1765219414416,0.0,0.0,1.0,10.0,0.0,0.0,0.0,0.0,0.0,0.0,0.0,0.0,0.0,0.0,0.0,0.0,0.0,0.0,0.012322,-0.030987999999999998,0.991982,-0.77,0.42000000000000004,0.0,25.0,3.33,3.33,3.33,3.32,3.32,3.33,3.32,3.32,3.33,3.33,3.34,3.33,3.32,3.33,3.33,3.32,3.33,3.33,3.33,3.32,3.33,3.33,3.33,3.33,3.34,3.32,44.0,1.0,0.0,1.0,1.0,909390,0.0,79.85999999999997,107.12684031399395
1765219414433,0.0,0.0,1.0,10.0,0.0,0.0,0.0,0.0,0.0,0.0,0.0,0.0,0.0,0.0,0.0,0.0,0.0,0.0,0.012322,-0.030987999999999998,0.991982,-0.77,0.42000000000000004,0.0,25.0,3.33,3.33,3.33,3.32,3.32,3.33,3.32,3.32,3.33,3.33,3.34,3.33,3.32,3.33,3.33,3.32,3.33,3.33,3.33,3.32,3.33,3.33,3.33,3.33,3.34,3.32,44.0,1.0,0.0,1.0,1.0,909407,0.0,79.85999999999997,107.12684031399395
1765219414466,0.0,0.0,1.0,10.0,0.0,0.0,0.0,0.0,0.0,0.0,0.0,0.0,0.0,0.0,0.0,0.0,0.0,0.0,0.012322,-0.030987999999999998,0.991982,-0.77,0.42000000000000004,0.0,25.0,3.33,3.33,3.33,3.32,3.32,3.33,3.32,3.32,3.33,3.33,3.34,3.33,3.32,3.33,3.33,3.32,3.33,3.33,3.33,3.32,3.33,3.33,3.33,3.33,3.34,3.32,44.0,1.0,0.0,1.0,1.0,909440,0.0,79.85999999999997,107.12684031399395
1765219414484,0.0,0.0,1.0,10.0,0.0,0.0,0.0,0.0,0.0,0.0,0.0,0.0,0.0,0.0,0.0,0.0,0.0,0.0,0.012322,-0.030987999999999998,0.991982,-0.77,0.42000000000000004,0.0,25.0,3.33,3.33,3.33,3.32,3.32,3.33,3.32,3.32,3.33,3.33,3.34,3.33,3.32,3.33,3.33,3.32,3.33,3.33,3.33,3.32,3.33,3.33,3.33,3.33,3.34,3.32,44.0,1.0,0.0,1.0,1.0,909458,0.0,79.85999999999997,107.12684031399395
1765219414501,0.0,0.0,1.0,10.0,0.0,0.0,0.0,0.0,0.0,0.0,0.0,0.0,0.0,0.0,0.0,0.0,0.0,0.0,0.011101999999999999,-0.029523999999999998,0.99308,-0.77,0.42000000000000004,0.0,25.0,3.33,3.33,3.33,3.32,3.32,3.33,3.32,3.32,3.33,3.33,3.34,3.33,3.32,3.33,3.33,3.32,3.33,3.33,3.33,3.32,3.33,3.33,3.33,3.33,3.34,3.32,44.0,1.0,0.0,1.0,1.0,909475,0.0,79.85999999999997,107.12684031399395
1765219414534,0.0,0.0,1.0,10.0,0.0,0.0,0.0,0.0,0.0,0.0,0.0,0.0,0.0,0.0,0.0,0.0,0.0,0.0,0.011101999999999999,-0.029523999999999998,0.99308,-0.7000000000000001,0.49000000000000005,-0.07,25.0,3.33,3.33,3.33,3.32,3.32,3.33,3.32,3.32,3.33,3.33,3.34,3.33,3.32,3.33,3.33,3.32,3.33,3.33,3.33,3.32,3.33,3.33,3.33,3.33,3.34,3.32,44.0,1.0,0.0,1.0,1.0,909508,0.0,79.85999999999997,107.12684031399395
1765219414551,0.0,0.0,1.0,10.0,0.0,0.0,0.0,0.0,0.0,0.0,0.0,0.0,0.0,0.0,0.0,0.0,0.0,0.0,0.011101999999999999,-0.029523999999999998,0.99308,-0.7000000000000001,0.49000000000000005,-0.07,25.0,3.33,3.33,3.33,3.32,3.32,3.33,3.32,3.32,3.33,3.33,3.34,3.33,3.32,3.33,3.33,3.32,3.33,3.33,3.33,3.32,3.33,3.33,3.33,3.33,3.34,3.32,44.0,1.0,0.0,1.0,1.0,909525,0.0,79.85999999999997,107.12684031399395
1765219414567,0.0,0.0,1.0,10.0,0.0,0.0,0.0,0.0,0.0,0.0,0.0,0.0,0.0,0.0,0.0,0.0,0.0,0.0,0.011101999999999999,-0.029523999999999998,0.99308,-0.7000000000000001,0.49000000000000005,-0.07,25.0,3.33,3.33,3.33,3.32,3.32,3.33,3.32,3.32,3.33,3.33,3.34,3.33,3.32,3.33,3.33,3.32,3.33,3.33,3.33,3.32,3.33,3.33,3.33,3.33,3.34,3.32,44.0,1.0,0.0,1.0,1.0,909541,0.0,79.85999999999997,107.12684031399395
1765219414584,0.0,0.0,1.0,10.0,0.0,0.0,0.0,0.0,0.0,0.0,0.0,0.0,0.0,0.0,0.0,0.0,0.0,0.0,0.011101999999999999,-0.029523999999999998,0.99308,-0.7000000000000001,0.49000000000000005,-0.07,25.0,3.33,3.33,3.33,3.32,3.32,3.33,3.32,3.32,3.33,3.33,3.34,3.33,3.32,3.33,3.33,3.32,3.33,3.33,3.33,3.32,3.33,3.33,3.33,3.33,3.34,3.32,44.0,1.0,0.0,1.0,1.0,909558,0.0,79.85999999999997,107.12684031399395
