timestamp,THROTTLE,BRAKE,ECU_MODE_ID,TORQUE_GAIN,TORQUE_REF_LEFT_MOTOR,TORQUE_REF_RIGHT_MOTOR,LEFT_MOTOR_RPM,LEFT_MOTOR_TORQUE,LEFT_MOTOR_POWER,LEFT_MOTOR_CURRENT,RIGHT_MOTOR_RPM,RIGHT_MOTOR_TORQUE,RIGHT_MOTOR_POWER,RIGHT_MOTOR_CURRENT,REAR_LEFT_WHEEL_SPEED,REAR_RIGHT_WHEEL_SPEED,FRONT_LEFT_WHEEL_SPEED,FRONT_RIGHT_WHEEL_SPEED,ACCEL_LONGITUDINAL,ACCEL_LATERAL,ACCEL_NORMAL,VEL_ANGULAR_YAW,VEL_ANGULAR_PITCH,VEL_ANGULAR_ROLL,ELETROBUILD_TEMPERATURE,STACK_1_CELL_1,STACK_1_CELL_2,STACK_1_CELL_3,STACK_1_CELL_4,STACK_2_CELL_1,STACK_2_CELL_2,STACK_2_CELL_3,STACK_2_CELL_4,STACK_3_CELL_1,STACK_3_CELL_2,STACK_3_CELL_3,STACK_3_CELL_4,STACK_4_CELL_1,STACK_4_CELL_2,STACK_4_CELL_3,STACK_4_CELL_4,STACK_5_CELL_1,STACK_5_CELL_2,STACK_5_CELL_3,STACK_5_CELL_4,STACK_6_CELL_1,STACK_6_CELL_2,STACK_6_CELL_3,STACK_6_CELL_4,MAX_VOLTAGE,MIN_VOLTAGE,SHUNT_CURRENT,BMS_MODE_ID,BMS_ERROR_ID,AIR_P,AIR_N,t,VEHICLE_SPEED,TOTAL_VOLTAGE,HODOMETRO
1765221700020,0.0,0.0,1.0,10.0,0.0,0.0,0.0,0.0,0.0,0.0,0.0,0.0,0.0,0.0,0.0,0.0,0.0,0.0,0.0068319999999999995,-0.061854,0.992104,-0.6300000000000001,0.49000000000000005,0.0,25.0,3.32,3.32,3.32,3.3,3.3,3.31,3.3,3.31,3.32,3.32,3.32,3.31,3.29,3.31,3.3,3.31,3.32,3.32,3.32,3.32,3.32,3.33,3.32,3.32,3.33,3.29,45.0,1.0,0.0,1.0,1.0,3194994,0.0,79.52999999999997,654.9981841289438
1765221700293,0.0,0.0,2.0,25.0,0.0,0.0,0.0,0.0,0.0,0.0,0.0,0.0,0.0,0.0,0.0,0.0,0.0,0.0,-0.011224,0.00671,0.992348,-0.6300000000000001,0.35000000000000003,-0.07,25.0,3.32,3.32,3.32,3.3,3.3,3.31,3.3,3.31,3.32,3.32,3.32,3.31,3.29,3.31,3.3,3.31,3.32,3.32,3.32,3.32,3.32,3.33,3.32,3.32,3.33,3.29,45.0,1.0,0.0,1.0,1.0,3195267,0.0,79.52999999999997,654.9981841289438
1765221700302,0.0,0.0,2.0,25.0,0.0,0.0,0.0,0.0,0.0,0.0,0.0,0.0,0.0,0.0,0.0,0.0,0.0,0.0,-0.011101999999999999,0.0046359999999999995,0.990762,-0.6300000000000001,0.35000000000000003,-0.07,25.0,3.32,3.32,3.32,3.3,3.3,3.31,3.3,3.31,3.32,3.32,3.32,3.31,3.29,3.31,3.3,3.31,3.32,3.32,3.32,3.32,3.32,3.33,3.32,3.32,3.33,3.3,45.0,1.0,0.0,1.0,1.0,3195276,0.0,79.52999999999997,654.9981841289438
1765221700337,0.0,0.0,2.0,25.0,0.0,0.0,0.0,0.0,0.0,0.0,0.0,0.0,0.0,0.0,0.0,0.0,0.0,0.0,-0.00976,0.004758,0.99308,-0.6300000000000001,0.35000000000000003,-0.07,25.0,3.32,3.32,3.32,3.3,3.3,3.31,3.3,3.31,3.32,3.32,3.32,3.31,3.29,3.31,3.3,3.31,3.32,3.32,3.32,3.32,3.32,3.33,3.32,3.32,3.33,3.3,45.0,1.0,0.0,1.0,1.0,3195311,0.0,79.52999999999997,654.9981841289438
1765221700353,0.0,0.0,2.0,25.0,0.0,0.0,0.0,0.0,0.0,0.0,0.0,0.0,0.0,0.0,0.0,0.0,0.0,0.0,-0.00976,0.004758,0.99308,-0.56,0.35000000000000003,0.0,25.0,3.32,3.32,3.32,3.3,3.3,3.31,3.3,3.31,3.32,3.32,3.32,3.31,3.29,3.31,3.3,3.31,3.32,3.32,3.32,3.32,3.32,3.33,3.32,3.32,3.33,3.3,45.0,1.0,0.0,1.0,1.0,3195327,0.0,79.52999999999997,654.9981841289438
1765221700370,0.0,0.0,2.0,25.0,0.0,0.0,0.0,0.0,0.0,0.0,0.0,0.0,0.0,0.0,0.0,0.0,0.0,0.0,-0.00976,0.004758,0.99308,-0.56,0.35000000000000003,0.0,25.0,3.32,3.32,3.32,3.3,3.3,3.31,3.3,3.31,3.32,3.32,3.32,3.31,3.29,3.31,3.3,3.31,3.32,3.32,3.32,3.32,3.32,3.33,3.32,3.32,3.33,3.3,45.0,1.0,0.0,1.0,1.0,3195344,0.0,79.52999999999997,654.9981841289438
1765221700405,0.0,0.0,2.0,25.0,0.0,0.0,0.0,0.0,0.0,0.0,0.0,0.0,0.0,0.0,0.0,0.0,0.0,0.0,-0.00976,0.004758,0.99308,-0.56,0.35000000000000003,0.0,25.0,3.32,3.32,3.32,3.3,3.3,3.31,3.3,3.31,3.32,3.32,3.32,3.31,3.29,3.31,3.3,3.31,3.32,3.32,3.32,3.32,3.32,3.33,3.32,3.32,3.33,3.3,43.0,1.0,0.0,1.0,1.0,3195379,0.0,79.52999999999997,654.9981841289438
1765221700423,0.0,0.0,2.0,25.0,0.0,0.0,0.0,0.0,0.0,0.0,0.0,0.0,0.0,0.0,0.0,0.0,0.0,0.0,-0.00976,0.004758,0.99308,-0.56,0.35000000000000003,0.0,25.0,3.32,3.32,3.32,3.3,3.3,3.31,3.3,3.31,3.32,3.32,3.32,3.31,3.29,3.31,3.3,3.31,3.32,3.32,3.32,3.32,3.32,3.33,3.32,3.32,3.33,3.3,43.0,1.0,0.0,1.0,1.0,3195397,0.0,79.52999999999997,654.9981841289438
1765221700470,0.0,0.0,2.0,25.0,0.0,0.0,0.0,0.0,0.0,0.0,0.0,0.0,0.0,0.0,0.0,0.0,0.0,0.0,-0.013786,0.004758,0.9943,-0.56,0.35000000000000003,0.0,25.0,3.32,3.32,3.32,3.3,3.3,3.31,3.3,3.31,3.32,3.32,3.32,3.31,3.29,3.31,3.3,3.31,3.32,3.32,3.32,3.32,3.32,3.33,3.32,3.32,3.33,3.3,43.0,1.0,0.0,1.0,1.0,3195444,0.0,79.52999999999997,654.9981841289438
1765221700488,0.0,0.0,2.0,25.0,0.0,0.0,0.0,0.0,0.0,0.0,0.0,0.0,0.0,0.0,0.0,0.0,0.0,0.0,-0.013786,0.004758,0.9943,-0.56,0.35000000000000003,0.0,25.0,3.32,3.32,3.32,3.3,3.3,3.31,3.3,3.31,3.32,3.32,3.32,3.31,3.29,3.31,3.3,3.31,3.32,3.32,3.32,3.32,3.32,3.33,3.32,3.32,3.33,3.3,43.0,1.0,0.0,1.0,1.0,3195462,0.0,79.52999999999997,654.9981841289438
1765221700505,0.0,0.0,2.0,25.0,0.0,0.0,0.0,0.0,0.0,0.0,0.0,0.0,0.0,0.0,0.0,0.0,0.0,0.0,-0.013786,0.004758,0.9943,-0.56,0.35000000000000003,0.0,25.0,3.32,3.32,3.32,3.3,3.3,3.31,3.3,3.31,3.32,3.32,3.32,3.31,3.29,3.31,3.3,3.31,3.32,3.32,3.32,3.32,3.32,3.33,3.32,3.32,3.33,3.3,43.0,1.0,0.0,1.0,1.0,3195479,0.0,79.52999999999997,654.9981841289438
1765221700538,0.0,0.0,2.0,25.0,0.0,0.0,0.0,0.0,0.0,0.0,0.0,0.0,0.0,0.0,0.0,0.0,0.0,0.0,-0.013786,0.004758,0.9943,-0.6300000000000001,0.35000000000000003,0.0,25.0,3.32,3.32,3.32,3.3,3.3,3.31,3.3,3.31,3.32,3.32,3.32,3.31,3.29,3.31,3.3,3.31,3.32,3.32,3.32,3.32,3.32,3.33,3.32,3.32,3.33,3.3,43.0,1.0,0.0,1.0,1.0,3195512,0.0,79.52999999999997,654.9981841289438
1765221700555,0.0,0.0,2.0,25.0,0.0,0.0,0.0,0.0,0.0,0.0,0.0,0.0,0.0,0.0,0.0,0.0,0.0,0.0,-0.013786,0.004758,0.9943,-0.6300000000000001,0.35000000000000003,0.0,25.0,3.32,3.32,3.32,3.3,3.3,3.31,3.3,3.31,3.32,3.32,3.32,3.31,3.29,3.31,3.3,3.31,3.32,3.32,3.32,3.32,3.32,3.33,3.32,3.32,3.33,3.3,43.0,1.0,0.0,1.0,1.0,3195529,0.0,79.52999999999997,654.9981841289438
1765221700587,0.0,0.0,2.0,25.0,0.0,0.0,0.0,0.0,0.0,0.0,0.0,0.0,0.0,0.0,0.0,0.0,0.0,0.0,-0.013786,0.004758,0.9943,-0.6300000000000001,0.35000000000000003,0.0,25.0,3.32,3.32,3.32,3.3,3.3,3.31,3.3,3.31,3.32,3.32,3.32,3.31,3.29,3.31,3.3,3.31,3.32,3.32,3.32,3.32,3.32,3.33,3.32,3.32,3.33,3.3,43.0,1.0,0.0,1.0,1.0,3195561,0.0,79.52999999999997,654.9981841289438
1765221700604,0.0,0.0,2.0,25.0,0.0,0.0,0.0,0.0,0.0,0.0,0.0,0.0,0.0,0.0,0.0,0.0,0.0,0.0,-0.013786,0.004758,0.9943,-0.6300000000000001,0.35000000000000003,0.0,25.0,3.32,3.32,3.32,3.3,3.3,3.31,3.3,3.31,3.32,3.32,3.32,3.31,3.29,3.31,3.3,3.31,3.32,3.32,3.32,3.32,3.32,3.33,3.32,3.32,3.33,3.3,43.0,1.0,0.0,1.0,1.0,3195578,0.0,79.52999999999997,654.9981841289438
1765221700688,0.0,0.0,2.0,25.0,0.0,0.0,0.0,0.0,0.0,0.0,0.0,0.0,0.0,0.0,0.0,0.0,0.0,0.0,-0.012078,0.00732,0.990884,-0.6300000000000001,0.35000000000000003,0.0,25.0,3.32,3.32,3.32,3.3,3.3,3.31,3.3,3.31,3.32,3.32,3.32,3.31,3.29,3.31,3.3,3.31,3.32,3.32,3.32,3.32,3.32,3.33,3.32,3.32,3.33,3.3,43.0,1.0,0.0,1.0,1.0,3195662,0.0,79.52999999999997,654.9981841289438
1765221700704,0.0,0.0,2.0,25.0,0.0,0.0,0.0,0.0,0.0,0.0,0.0,0.0,0.0,0.0,0.0,0.0,0.0,0.0,-0.012078,0.00732,0.990884,-0.6300000000000001,0.35000000000000003,-0.07,25.0,3.32,3.32,3.32,3.3,3.3,3.31,3.3,3.31,3.32,3.32,3.32,3.31,3.29,3.31,3.3,3.31,3.32,3.32,3.32,3.32,3.32,3.33,3.32,3.32,3.33,3.3,43.0,1.0,0.0,1.0,1.0,3195678,0.0,79.52999999999997,654.9981841289438
1765221700721,0.0,0.0,2.0,25.0,0.0,0.0,0.0,0.0,0.0,0.0,0.0,0.0,0.0,0.0,0.0,0.0,0.0,0.0,-0.012078,0.00732,0.990884,-0.6300000000000001,0.35000000000000003,-0.07,25.0,3.32,3.32,3.32,3.3,3.3,3.31,3.3,3.31,3.32,3.32,3.32,3.31,3.29,3.31,3.3,3.31,3.32,3.32,3.32,3.32,3.32,3.33,3.32,3.32,3.33,3.3,43.0,1.0,0.0,1.0,1.0,3195695,0.0,79.52999999999997,654.9981841289438
1765221700754,0.0,0.0,2.0,25.0,0.0,0.0,0.0,0.0,0.0,0.0,0.0,0.0,0.0,0.0,0.0,0.0,0.0,0.0,-0.012078,0.00732,0.990884,-0.6300000000000001,0.35000000000000003,-0.07,25.0,3.32,3.32,3.32,3.3,3.3,3.31,3.3,3.31,3.32,3.32,3.32,3.31,3.29,3.31,3.3,3.31,3.32,3.32,3.32,3.32,3.32,3.33,3.32,3.32,3.33,3.3,43.0,1.0,0.0,1.0,1.0,3195728,0.0,79.52999999999997,654.9981841289438
1765221700787,0.0,0.0,2.0,25.0,0.0,0.0,0.0,0.0,0.0,0.0,0.0,0.0,0.0,0.0,0.0,0.0,0.0,0.0,-0.012078,0.00732,0.990884,-0.6300000000000001,0.35000000000000003,-0.07,25.0,3.32,3.32,3.32,3.3,3.3,3.31,3.3,3.31,3.32,3.32,3.32,3.31,3.29,3.31,3.3,3.31,3.32,3.32,3.32,3.32,3.32,3.33,3.32,3.32,3.33,3.3,43.0,1.0,0.0,1.0,1.0,3195761,0.0,79.52999999999997,654.9981841289438
1765221700821,0.0,0.0,2.0,25.0,0.0,0.0,0.0,0.0,0.0,0.0,0.0,0.0,0.0,0.0,0.0,0.0,0.0,0.0,-0.010248,0.004392,0.994544,-0.6300000000000001,0.35000000000000003,-0.07,25.0,3.32,3.32,3.32,3.3,3.3,3.31,3.3,3.31,3.32,3.32,3.32,3.31,3.29,3.31,3.3,3.31,3.32,3.32,3.32,3.32,3.32,3.33,3.32,3.32,3.33,3.3,43.0,1.0,0.0,1.0,1.0,3195795,0.0,79.52999999999997,654.9981841289438
1765221700888,0.0,0.0,2.0,25.0,0.0,0.0,0.0,0.0,0.0,0.0,0.0,0.0,0.0,0.0,0.0,0.0,0.0,0.0,-0.010248,0.004392,0.994544,-0.49000000000000005,0.35000000000000003,0.0,25.0,3.32,3.32,3.32,3.3,3.3,3.31,3.3,3.31,3.32,3.32,3.32,3.31,3.29,3.31,3.3,3.31,3.32,3.32,3.32,3.32,3.32,3.33,3.32,3.32,3.33,3.3,43.0,1.0,0.0,1.0,1.0,3195862,0.0,79.52999999999997,654.9981841289438
1765221700921,0.0,0.0,2.0,25.0,0.0,0.0,0.0,0.0,0.0,0.0,0.0,0.0,0.0,0.0,0.0,0.0,0.0,0.0,-0.010248,0.004392,0.994544,-0.49000000000000005,0.35000000000000003,0.0,25.0,3.32,3.32,3.32,3.3,3.3,3.31,3.3,3.31,3.32,3.32,3.32,3.31,3.29,3.31,3.3,3.31,3.32,3.32,3.32,3.32,3.32,3.33,3.32,3.32,3.33,3.3,43.0,1.0,0.0,1.0,1.0,3195895,0.0,79.52999999999997,654.9981841289438
1765221701004,0.0,0.0,2.0,25.0,0.0,0.0,0.0,0.0,0.0,0.0,0.0,0.0,0.0,0.0,0.0,0.0,0.0,0.0,-0.01098,0.0042699999999999995,0.99186,-0.49000000000000005,0.35000000000000003,0.0,25.0,3.32,3.32,3.32,3.3,3.3,3.31,3.3,3.31,3.32,3.32,3.32,3.31,3.29,3.31,3.3,3.31,3.32,3.32,3.32,3.32,3.32,3.33,3.32,3.32,3.33,3.3,43.0,1.0,0.0,1.0,1.0,3195978,0.0,79.52999999999997,654.9981841289438
1765221701069,0.0,0.0,2.0,25.0,0.0,0.0,0.0,0.0,0.0,0.0,0.0,0.0,0.0,0.0,0.0,0.0,0.0,0.0,-0.01098,0.0042699999999999995,0.99186,-0.56,0.28,0.0,25.0,3.32,3.32,3.32,3.3,3.3,3.31,3.3,3.31,3.32,3.32,3.32,3.31,3.29,3.31,3.3,3.31,3.32,3.32,3.32,3.32,3.32,3.33,3.32,3.32,3.33,3.3,43.0,1.0,0.0,1.0,1.0,3196043,0.0,79.52999999999997,654.9981841289438
1765221701087,0.0,0.0,2.0,25.0,0.0,0.0,0.0,0.0,0.0,0.0,0.0,0.0,0.0,0.0,0.0,0.0,0.0,0.0,-0.01098,0.0042699999999999995,0.99186,-0.56,0.28,0.0,25.0,3.32,3.32,3.32,3.3,3.3,3.31,3.3,3.31,3.32,3.32,3.32,3.31,3.29,3.31,3.3,3.31,3.32,3.32,3.32,3.32,3.32,3.33,3.32,3.32,3.33,3.3,43.0,1.0,0.0,1.0,1.0,3196061,0.0,79.52999999999997,654.9981841289438
1765221701121,0.0,0.0,2.0,25.0,0.0,0.0,0.0,0.0,0.0,0.0,0.0,0.0,0.0,0.0,0.0,0.0,0.0,0.0,-0.013054,0.006222,0.992348,-0.56,0.28,0.0,25.0,3.32,3.32,3.32,3.3,3.3,3.31,3.3,3.31,3.32,3.32,3.32,3.31,3.29,3.31,3.3,3.31,3.32,3.32,3.32,3.32,3.32,3.33,3.32,3.32,3.33,3.3,43.0,1.0,0.0,1.0,1.0,3196095,0.0,79.52999999999997,654.9981841289438
1765221701138,0.0,0.0,2.0,25.0,0.0,0.0,0.0,0.0,0.0,0.0,0.0,0.0,0.0,0.0,0.0,0.0,0.0,0.0,-0.013054,0.006222,0.992348,-0.56,0.28,0.0,25.0,3.32,3.33,3.33,3.31,3.3,3.31,3.3,3.31,3.32,3.32,3.32,3.31,3.29,3.31,3.3,3.31,3.32,3.32,3.32,3.32,3.32,3.33,3.32,3.32,3.33,3.3,43.0,1.0,0.0,1.0,1.0,3196112,0.0,79.55999999999997,654.9981841289438
1765221701154,0.0,0.0,2.0,25.0,0.0,0.0,0.0,0.0,0.0,0.0,0.0,0.0,0.0,0.0,0.0,0.0,0.0,0.0,-0.013054,0.006222,0.992348,-0.56,0.28,0.07,25.0,3.32,3.33,3.33,3.31,3.3,3.31,3.3,3.31,3.32,3.32,3.32,3.31,3.29,3.31,3.3,3.31,3.32,3.32,3.32,3.32,3.32,3.33,3.32,3.32,3.33,3.3,43.0,1.0,0.0,1.0,1.0,3196128,0.0,79.55999999999997,654.9981841289438
1765221701170,0.0,0.0,2.0,25.0,0.0,0.0,0.0,0.0,0.0,0.0,0.0,0.0,0.0,0.0,0.0,0.0,0.0,0.0,-0.013054,0.006222,0.992348,-0.56,0.28,0.07,25.0,3.32,3.33,3.33,3.31,3.3,3.31,3.3,3.31,3.32,3.32,3.32,3.31,3.29,3.31,3.3,3.31,3.32,3.32,3.32,3.32,3.32,3.33,3.32,3.32,3.33,3.3,43.0,1.0,0.0,1.0,1.0,3196144,0.0,79.55999999999997,654.9981841289438
1765221701171,0.0,0.0,2.0,25.0,0.0,0.0,0.0,0.0,0.0,0.0,0.0,0.0,0.0,0.0,0.0,0.0,0.0,0.0,-0.013054,0.006222,0.992348,-0.56,0.28,0.07,25.0,3.32,3.33,3.33,3.31,3.31,3.31,3.3,3.32,3.32,3.32,3.32,3.31,3.29,3.31,3.3,3.31,3.32,3.32,3.32,3.32,3.32,3.33,3.32,3.32,3.33,3.3,43.0,1.0,0.0,1.0,1.0,3196145,0.0,79.57999999999998,654.9981841289438
1765221701187,0.0,0.0,2.0,25.0,0.0,0.0,0.0,0.0,0.0,0.0,0.0,0.0,0.0,0.0,0.0,0.0,0.0,0.0,-0.013054,0.006222,0.992348,-0.56,0.28,0.07,25.0,3.32,3.33,3.33,3.31,3.31,3.31,3.3,3.32,3.32,3.32,3.32,3.31,3.29,3.31,3.3,3.31,3.32,3.32,3.32,3.32,3.32,3.33,3.32,3.32,3.33,3.3,43.0,1.0,0.0,1.0,1.0,3196161,0.0,79.57999999999998,654.9981841289438
1765221701202,0.0,0.0,2.0,25.0,0.0,0.0,0.0,0.0,0.0,0.0,0.0,0.0,0.0,0.0,0.0,0.0,0.0,0.0,-0.013054,0.006222,0.992348,-0.56,0.28,0.07,25.0,3.32,3.33,3.33,3.31,3.31,3.31,3.3,3.32,3.32,3.33,3.33,3.32,3.29,3.31,3.3,3.31,3.32,3.32,3.32,3.32,3.32,3.33,3.32,3.32,3.33,3.3,43.0,1.0,0.0,1.0,1.0,3196176,0.0,79.60999999999997,654.9981841289438
1765221701220,0.0,0.0,2.0,25.0,0.0,0.0,0.0,0.0,0.0,0.0,0.0,0.0,0.0,0.0,0.0,0.0,0.0,0.0,-0.013054,0.006222,0.992348,-0.56,0.28,0.07,25.0,3.32,3.33,3.33,3.31,3.31,3.31,3.3,3.32,3.32,3.33,3.33,3.32,3.29,3.31,3.3,3.31,3.32,3.32,3.32,3.32,3.32,3.33,3.32,3.32,3.33,3.3,43.0,1.0,0.0,1.0,1.0,3196194,0.0,79.60999999999997,654.9981841289438
1765221701238,0.0,0.0,2.0,25.0,0.0,0.0,0.0,0.0,0.0,0.0,0.0,0.0,0.0,0.0,0.0,0.0,0.0,0.0,-0.013054,0.006222,0.992348,-0.56,0.28,0.07,25.0,3.32,3.33,3.33,3.31,3.31,3.31,3.3,3.32,3.32,3.33,3.33,3.32,3.3,3.32,3.3,3.31,3.32,3.32,3.32,3.32,3.32,3.33,3.32,3.32,3.33,3.3,43.0,1.0,0.0,1.0,1.0,3196212,0.0,79.62999999999997,654.9981841289438
1765221701251,0.0,0.0,2.0,25.0,0.0,0.0,0.0,0.0,0.0,0.0,0.0,0.0,0.0,0.0,0.0,0.0,0.0,0.0,-0.013054,0.006222,0.992348,-0.56,0.28,0.07,25.0,3.32,3.33,3.33,3.31,3.31,3.31,3.3,3.32,3.32,3.33,3.33,3.32,3.3,3.32,3.3,3.31,3.32,3.32,3.32,3.32,3.32,3.33,3.32,3.32,3.33,3.3,43.0,1.0,0.0,1.0,1.0,3196225,0.0,79.62999999999997,654.9981841289438
1765221701268,0.0,0.0,2.0,25.0,0.0,0.0,0.0,0.0,0.0,0.0,0.0,0.0,0.0,0.0,0.0,0.0,0.0,0.0,-0.013054,0.006222,0.992348,-0.56,0.28,0.07,25.0,3.32,3.33,3.33,3.31,3.31,3.31,3.3,3.32,3.32,3.33,3.33,3.32,3.3,3.32,3.3,3.31,3.32,3.32,3.32,3.32,3.33,3.33,3.33,3.33,3.33,3.3,43.0,1.0,0.0,1.0,1.0,3196242,0.0,79.65999999999998,654.9981841289438
1765221701287,0.0,0.0,2.0,25.0,0.0,0.0,0.0,0.0,0.0,0.0,0.0,0.0,0.0,0.0,0.0,0.0,0.0,0.0,-0.013054,0.006222,0.992348,-0.56,0.28,0.07,25.0,3.32,3.33,3.33,3.31,3.31,3.31,3.3,3.32,3.32,3.33,3.33,3.32,3.3,3.32,3.3,3.31,3.32,3.32,3.32,3.32,3.33,3.33,3.33,3.33,3.33,3.3,43.0,1.0,0.0,1.0,1.0,3196261,0.0,79.65999999999998,654.9981841289438
1765221701337,0.0,0.0,2.0,25.0,0.0,0.0,0.0,0.0,0.0,0.0,0.0,0.0,0.0,0.0,0.0,0.0,0.0,0.0,-0.013054,0.006222,0.992348,-0.56,0.28,0.07,25.0,3.32,3.33,3.33,3.31,3.31,3.31,3.3,3.32,3.32,3.33,3.33,3.32,3.3,3.32,3.3,3.31,3.32,3.32,3.32,3.32,3.33,3.33,3.33,3.33,3.33,3.3,43.0,1.0,0.0,1.0,1.0,3196311,0.0,79.65999999999998,654.9981841289438
1765221701354,0.0,0.0,2.0,25.0,0.0,0.0,0.0,0.0,0.0,0.0,0.0,0.0,0.0,0.0,0.0,0.0,0.0,0.0,-0.013054,0.006222,0.992348,-0.56,0.28,0.07,25.0,3.32,3.33,3.33,3.31,3.31,3.31,3.3,3.32,3.32,3.33,3.33,3.32,3.3,3.32,3.3,3.31,3.32,3.32,3.32,3.32,3.33,3.33,3.33,3.33,3.33,3.3,43.0,1.0,0.0,1.0,1.0,3196328,0.0,79.65999999999998,654.9981841289438
1765221701421,0.0,0.0,2.0,25.0,0.0,0.0,0.0,0.0,0.0,0.0,0.0,0.0,0.0,0.0,0.0,0.0,0.0,0.0,-0.010248,0.006222,0.992592,-0.56,0.28,0.07,25.0,3.32,3.33,3.33,3.31,3.31,3.31,3.3,3.32,3.32,3.33,3.33,3.32,3.3,3.32,3.3,3.31,3.32,3.32,3.32,3.32,3.33,3.33,3.33,3.33,3.33,3.3,43.0,1.0,0.0,1.0,1.0,3196395,0.0,79.65999999999998,654.9981841289438
1765221701454,0.0,0.0,2.0,25.0,0.0,0.0,0.0,0.0,0.0,0.0,0.0,0.0,0.0,0.0,0.0,0.0,0.0,0.0,-0.010248,0.006222,0.992592,-0.56,0.35000000000000003,0.0,25.0,3.32,3.33,3.33,3.31,3.31,3.31,3.3,3.32,3.32,3.33,3.33,3.32,3.3,3.32,3.3,3.31,3.32,3.32,3.32,3.32,3.33,3.33,3.33,3.33,3.33,3.3,43.0,1.0,0.0,1.0,1.0,3196428,0.0,79.65999999999998,654.9981841289438
1765221701488,0.0,0.0,2.0,25.0,0.0,0.0,0.0,0.0,0.0,0.0,0.0,0.0,0.0,0.0,0.0,0.0,0.0,0.0,-0.010248,0.006222,0.992592,-0.56,0.35000000000000003,0.0,25.0,3.32,3.33,3.33,3.31,3.31,3.31,3.3,3.32,3.32,3.33,3.33,3.32,3.3,3.32,3.3,3.31,3.32,3.32,3.32,3.32,3.33,3.33,3.33,3.33,3.33,3.3,43.0,1.0,0.0,1.0,1.0,3196462,0.0,79.65999999999998,654.9981841289438
1765221701505,0.0,0.0,2.0,25.0,0.0,0.0,0.0,0.0,0.0,0.0,0.0,0.0,0.0,0.0,0.0,0.0,0.0,0.0,-0.010248,0.006222,0.992592,-0.56,0.35000000000000003,0.0,25.0,3.32,3.33,3.33,3.31,3.31,3.31,3.3,3.32,3.32,3.33,3.33,3.32,3.3,3.32,3.3,3.31,3.32,3.32,3.32,3.32,3.33,3.33,3.33,3.33,3.33,3.3,43.0,1.0,0.0,1.0,1.0,3196479,0.0,79.65999999999998,654.9981841289438
1765221701537,0.0,0.0,2.0,25.0,0.0,0.0,0.0,0.0,0.0,0.0,0.0,0.0,0.0,0.0,0.0,0.0,0.0,0.0,-0.010248,0.006222,0.992592,-0.56,0.35000000000000003,0.0,25.0,3.32,3.33,3.33,3.31,3.31,3.31,3.3,3.32,3.32,3.33,3.33,3.32,3.3,3.32,3.3,3.31,3.32,3.32,3.32,3.32,3.33,3.33,3.33,3.33,3.33,3.3,43.0,1.0,0.0,1.0,1.0,3196511,0.0,79.65999999999998,654.9981841289438
1765221701552,0.0,0.0,2.0,25.0,0.0,0.0,0.0,0.0,0.0,0.0,0.0,0.0,0.0,0.0,0.0,0.0,0.0,0.0,-0.010248,0.006222,0.992592,-0.56,0.35000000000000003,0.0,25.0,3.32,3.33,3.33,3.31,3.31,3.31,3.3,3.32,3.32,3.33,3.33,3.32,3.3,3.32,3.3,3.31,3.32,3.32,3.32,3.32,3.33,3.33,3.33,3.33,3.33,3.3,43.0,1.0,0.0,1.0,1.0,3196526,0.0,79.65999999999998,654.9981841289438
1765221701587,0.0,0.0,2.0,25.0,0.0,0.0,0.0,0.0,0.0,0.0,0.0,0.0,0.0,0.0,0.0,0.0,0.0,0.0,-0.011956,0.005246,0.993202,-0.56,0.35000000000000003,0.0,25.0,3.32,3.33,3.33,3.31,3.31,3.31,3.3,3.32,3.32,3.33,3.33,3.32,3.3,3.32,3.3,3.31,3.32,3.32,3.32,3.32,3.33,3.33,3.33,3.33,3.33,3.3,43.0,1.0,0.0,1.0,1.0,3196561,0.0,79.65999999999998,654.9981841289438
1765221701604,0.0,0.0,2.0,25.0,0.0,0.0,0.0,0.0,0.0,0.0,0.0,0.0,0.0,0.0,0.0,0.0,0.0,0.0,-0.011956,0.005246,0.993202,-0.56,0.35000000000000003,0.0,25.0,3.32,3.33,3.33,3.31,3.31,3.31,3.3,3.32,3.32,3.33,3.33,3.32,3.3,3.32,3.3,3.31,3.32,3.32,3.32,3.32,3.33,3.33,3.33,3.33,3.33,3.3,43.0,1.0,0.0,1.0,1.0,3196578,0.0,79.65999999999998,654.9981841289438
1765221701621,0.0,0.0,2.0,25.0,0.0,0.0,0.0,0.0,0.0,0.0,0.0,0.0,0.0,0.0,0.0,0.0,0.0,0.0,-0.011956,0.005246,0.993202,-0.56,0.35000000000000003,0.0,25.0,3.32,3.33,3.33,3.31,3.31,3.31,3.3,3.32,3.32,3.33,3.33,3.32,3.3,3.32,3.3,3.31,3.32,3.32,3.32,3.32,3.33,3.33,3.33,3.33,3.33,3.3,43.0,1.0,0.0,1.0,1.0,3196595,0.0,79.65999999999998,654.9981841289438
1765221701638,0.0,0.0,2.0,25.0,0.0,0.0,0.0,0.0,0.0,0.0,0.0,0.0,0.0,0.0,0.0,0.0,0.0,0.0,-0.011956,0.005246,0.993202,-0.56,0.35000000000000003,0.0,25.0,3.32,3.33,3.33,3.31,3.31,3.31,3.3,3.32,3.32,3.33,3.33,3.32,3.3,3.32,3.3,3.31,3.32,3.32,3.32,3.32,3.33,3.33,3.33,3.33,3.33,3.3,43.0,1.0,0.0,1.0,1.0,3196612,0.0,79.65999999999998,654.9981841289438
1765221701671,0.0,0.0,2.0,25.0,0.0,0.0,0.0,0.0,0.0,0.0,0.0,0.0,0.0,0.0,0.0,0.0,0.0,0.0,-0.011956,0.005246,0.993202,-0.56,0.35000000000000003,0.0,25.0,3.32,3.33,3.33,3.31,3.31,3.31,3.3,3.32,3.32,3.33,3.33,3.32,3.3,3.32,3.3,3.31,3.32,3.32,3.32,3.32,3.33,3.33,3.33,3.33,3.33,3.3,43.0,1.0,0.0,1.0,1.0,3196645,0.0,79.65999999999998,654.9981841289438
1765221701737,0.0,0.0,2.0,25.0,0.0,0.0,0.0,0.0,0.0,0.0,0.0,0.0,0.0,0.0,0.0,0.0,0.0,0.0,-0.011956,0.005246,0.993202,-0.56,0.35000000000000003,0.0,25.0,3.32,3.33,3.33,3.31,3.31,3.31,3.3,3.32,3.32,3.33,3.33,3.32,3.3,3.32,3.3,3.31,3.32,3.32,3.32,3.32,3.33,3.33,3.33,3.33,3.33,3.3,43.0,1.0,0.0,1.0,1.0,3196711,0.0,79.65999999999998,654.9981841289438
1765221701770,0.0,0.0,2.0,25.0,0.0,0.0,0.0,0.0,0.0,0.0,0.0,0.0,0.0,0.0,0.0,0.0,0.0,0.0,-0.012688,0.006588,0.99186,-0.56,0.35000000000000003,0.0,25.0,3.32,3.33,3.33,3.31,3.31,3.31,3.3,3.32,3.32,3.33,3.33,3.32,3.3,3.32,3.3,3.31,3.32,3.32,3.32,3.32,3.33,3.33,3.33,3.33,3.33,3.3,43.0,1.0,0.0,1.0,1.0,3196744,0.0,79.65999999999998,654.9981841289438
1765221701804,0.0,0.0,2.0,25.0,0.0,0.0,0.0,0.0,0.0,0.0,0.0,0.0,0.0,0.0,0.0,0.0,0.0,0.0,-0.012688,0.006588,0.99186,-0.7000000000000001,0.35000000000000003,-0.07,25.0,3.32,3.33,3.33,3.31,3.31,3.31,3.3,3.32,3.32,3.33,3.33,3.32,3.3,3.32,3.3,3.31,3.32,3.32,3.32,3.32,3.33,3.33,3.33,3.33,3.33,3.3,43.0,1.0,0.0,1.0,1.0,3196778,0.0,79.65999999999998,654.9981841289438
1765221701820,0.0,0.0,2.0,25.0,0.0,0.0,0.0,0.0,0.0,0.0,0.0,0.0,0.0,0.0,0.0,0.0,0.0,0.0,-0.012688,0.006588,0.99186,-0.7000000000000001,0.35000000000000003,-0.07,25.0,3.32,3.33,3.33,3.31,3.31,3.31,3.3,3.32,3.32,3.33,3.33,3.32,3.3,3.32,3.3,3.31,3.32,3.32,3.32,3.32,3.33,3.33,3.33,3.33,3.33,3.3,43.0,1.0,0.0,1.0,1.0,3196794,0.0,79.65999999999998,654.9981841289438
1765221701854,0.0,0.0,2.0,25.0,0.0,0.0,0.0,0.0,0.0,0.0,0.0,0.0,0.0,0.0,0.0,0.0,0.0,0.0,-0.011224,0.0060999999999999995,0.992104,-0.7000000000000001,0.35000000000000003,-0.07,25.0,3.32,3.33,3.33,3.31,3.31,3.31,3.3,3.32,3.32,3.33,3.33,3.32,3.3,3.32,3.3,3.31,3.32,3.32,3.32,3.32,3.33,3.33,3.33,3.33,3.33,3.3,43.0,1.0,0.0,1.0,1.0,3196828,0.0,79.65999999999998,654.9981841289438
1765221701871,0.0,0.0,2.0,25.0,0.0,0.0,0.0,0.0,0.0,0.0,0.0,0.0,0.0,0.0,0.0,0.0,0.0,0.0,-0.011224,0.0060999999999999995,0.992104,-0.7000000000000001,0.35000000000000003,-0.07,25.0,3.32,3.33,3.33,3.31,3.31,3.31,3.3,3.32,3.32,3.33,3.33,3.32,3.3,3.32,3.3,3.31,3.32,3.32,3.32,3.32,3.33,3.33,3.33,3.33,3.33,3.3,43.0,1.0,0.0,1.0,1.0,3196845,0.0,79.65999999999998,654.9981841289438
1765221701887,0.0,0.0,2.0,25.0,0.0,0.0,0.0,0.0,0.0,0.0,0.0,0.0,0.0,0.0,0.0,0.0,0.0,0.0,-0.011224,0.0060999999999999995,0.992104,-0.6300000000000001,0.21000000000000002,-0.07,25.0,3.32,3.33,3.33,3.31,3.31,3.31,3.3,3.32,3.32,3.33,3.33,3.32,3.3,3.32,3.3,3.31,3.32,3.32,3.32,3.32,3.33,3.33,3.33,3.33,3.33,3.3,43.0,1.0,0.0,1.0,1.0,3196861,0.0,79.65999999999998,654.9981841289438
1765221701921,0.0,0.0,2.0,25.0,0.0,0.0,0.0,0.0,0.0,0.0,0.0,0.0,0.0,0.0,0.0,0.0,0.0,0.0,-0.011224,0.0060999999999999995,0.992104,-0.6300000000000001,0.21000000000000002,-0.07,25.0,3.32,3.33,3.33,3.31,3.31,3.31,3.3,3.32,3.32,3.33,3.33,3.32,3.3,3.32,3.3,3.31,3.32,3.32,3.32,3.32,3.33,3.33,3.33,3.33,3.33,3.3,43.0,1.0,0.0,1.0,1.0,3196895,0.0,79.65999999999998,654.9981841289438
1765221701937,0.0,0.0,2.0,25.0,0.0,0.0,0.0,0.0,0.0,0.0,0.0,0.0,0.0,0.0,0.0,0.0,0.0,0.0,-0.011224,0.0060999999999999995,0.992104,-0.6300000000000001,0.21000000000000002,-0.07,25.0,3.32,3.33,3.33,3.31,3.31,3.31,3.3,3.32,3.32,3.33,3.33,3.32,3.3,3.32,3.3,3.31,3.32,3.32,3.32,3.32,3.33,3.33,3.33,3.33,3.33,3.3,43.0,1.0,0.0,1.0,1.0,3196911,0.0,79.65999999999998,654.9981841289438
1765221701954,0.0,0.0,2.0,25.0,0.0,0.0,0.0,0.0,0.0,0.0,0.0,0.0,0.0,0.0,0.0,0.0,0.0,0.0,-0.011224,0.0060999999999999995,0.992104,-0.6300000000000001,0.21000000000000002,-0.07,25.0,3.32,3.33,3.33,3.31,3.31,3.31,3.3,3.32,3.32,3.33,3.33,3.32,3.3,3.32,3.3,3.31,3.32,3.32,3.32,3.32,3.33,3.33,3.33,3.33,3.33,3.3,43.0,1.0,0.0,1.0,1.0,3196928,0.0,79.65999999999998,654.9981841289438
1765221702020,0.0,0.0,2.0,25.0,0.0,0.0,0.0,0.0,0.0,0.0,0.0,0.0,0.0,0.0,0.0,0.0,0.0,0.0,-0.011224,0.0060999999999999995,0.992104,-0.6300000000000001,0.21000000000000002,-0.07,25.0,3.32,3.33,3.33,3.31,3.31,3.31,3.3,3.32,3.32,3.33,3.33,3.32,3.3,3.32,3.3,3.31,3.32,3.32,3.32,3.32,3.33,3.33,3.33,3.33,3.33,3.3,45.0,1.0,0.0,1.0,1.0,3196994,0.0,79.65999999999998,654.9981841289438
1765221702051,0.0,0.0,2.0,25.0,0.0,0.0,0.0,0.0,0.0,0.0,0.0,0.0,0.0,0.0,0.0,0.0,0.0,0.0,-0.011224,0.0060999999999999995,0.992104,-0.6300000000000001,0.21000000000000002,-0.07,25.0,3.32,3.33,3.33,3.31,3.31,3.31,3.3,3.32,3.32,3.33,3.33,3.32,3.3,3.32,3.3,3.31,3.32,3.32,3.32,3.32,3.33,3.33,3.33,3.33,3.33,3.3,45.0,1.0,0.0,1.0,1.0,3197025,0.0,79.65999999999998,654.9981841289438
1765221702121,0.0,0.0,2.0,25.0,0.0,0.0,0.0,0.0,0.0,0.0,0.0,0.0,0.0,0.0,0.0,0.0,0.0,0.0,-0.011224,0.0057339999999999995,0.99369,-0.6300000000000001,0.21000000000000002,-0.07,25.0,3.32,3.33,3.33,3.31,3.31,3.31,3.3,3.32,3.32,3.33,3.33,3.32,3.3,3.32,3.3,3.31,3.32,3.32,3.32,3.32,3.33,3.33,3.33,3.33,3.33,3.3,45.0,1.0,0.0,1.0,1.0,3197095,0.0,79.65999999999998,654.9981841289438
1765221702137,0.0,0.0,2.0,25.0,0.0,0.0,0.0,0.0,0.0,0.0,0.0,0.0,0.0,0.0,0.0,0.0,0.0,0.0,-0.011224,0.0057339999999999995,0.99369,-0.6300000000000001,0.35000000000000003,0.0,25.0,3.32,3.33,3.33,3.31,3.31,3.31,3.3,3.32,3.32,3.33,3.33,3.32,3.3,3.32,3.3,3.31,3.32,3.32,3.32,3.32,3.33,3.33,3.33,3.33,3.33,3.3,45.0,1.0,0.0,1.0,1.0,3197111,0.0,79.65999999999998,654.9981841289438
1765221702154,0.0,0.0,2.0,25.0,0.0,0.0,0.0,0.0,0.0,0.0,0.0,0.0,0.0,0.0,0.0,0.0,0.0,0.0,-0.011224,0.0057339999999999995,0.99369,-0.6300000000000001,0.35000000000000003,0.0,25.0,3.32,3.33,3.33,3.31,3.31,3.31,3.3,3.32,3.32,3.33,3.33,3.32,3.3,3.32,3.3,3.31,3.32,3.32,3.32,3.32,3.33,3.33,3.33,3.33,3.33,3.3,45.0,1.0,0.0,1.0,1.0,3197128,0.0,79.65999999999998,654.9981841289438
1765221702221,0.0,0.0,2.0,25.0,0.0,0.0,0.0,0.0,0.0,0.0,0.0,0.0,0.0,0.0,0.0,0.0,0.0,0.0,-0.011224,0.0057339999999999995,0.99369,-0.6300000000000001,0.35000000000000003,0.0,25.0,3.32,3.33,3.33,3.31,3.31,3.31,3.3,3.32,3.32,3.33,3.33,3.32,3.3,3.32,3.3,3.31,3.32,3.32,3.32,3.32,3.33,3.33,3.33,3.33,3.33,3.3,44.0,1.0,0.0,1.0,1.0,3197195,0.0,79.65999999999998,654.9981841289438
1765221702238,0.0,0.0,2.0,25.0,0.0,0.0,0.0,0.0,0.0,0.0,0.0,0.0,0.0,0.0,0.0,0.0,0.0,0.0,-0.011224,0.0057339999999999995,0.99369,-0.6300000000000001,0.35000000000000003,0.0,25.0,3.32,3.33,3.33,3.31,3.31,3.31,3.3,3.32,3.32,3.33,3.33,3.32,3.3,3.32,3.3,3.31,3.32,3.32,3.32,3.32,3.33,3.33,3.33,3.33,3.33,3.3,44.0,1.0,0.0,1.0,1.0,3197212,0.0,79.65999999999998,654.9981841289438
1765221702270,0.0,0.0,2.0,25.0,0.0,0.0,0.0,0.0,0.0,0.0,0.0,0.0,0.0,0.0,0.0,0.0,0.0,0.0,-0.012199999999999999,0.005856,0.99308,-0.6300000000000001,0.35000000000000003,0.0,25.0,3.32,3.33,3.33,3.31,3.31,3.31,3.3,3.32,3.32,3.33,3.33,3.32,3.3,3.32,3.3,3.31,3.32,3.32,3.32,3.32,3.33,3.33,3.33,3.33,3.33,3.3,44.0,1.0,0.0,1.0,1.0,3197244,0.0,79.65999999999998,654.9981841289438
1765221702288,0.0,0.0,2.0,25.0,0.0,0.0,0.0,0.0,0.0,0.0,0.0,0.0,0.0,0.0,0.0,0.0,0.0,0.0,-0.012199999999999999,0.005856,0.99308,-0.6300000000000001,0.35000000000000003,-0.07,25.0,3.32,3.33,3.33,3.31,3.31,3.31,3.3,3.32,3.32,3.33,3.33,3.32,3.3,3.32,3.3,3.31,3.32,3.32,3.32,3.32,3.33,3.33,3.33,3.33,3.33,3.3,44.0,1.0,0.0,1.0,1.0,3197262,0.0,79.65999999999998,654.9981841289438
1765221702304,0.0,0.0,2.0,25.0,0.0,0.0,0.0,0.0,0.0,0.0,0.0,0.0,0.0,0.0,0.0,0.0,0.0,0.0,-0.012199999999999999,0.005856,0.99308,-0.6300000000000001,0.35000000000000003,-0.07,25.0,3.32,3.33,3.33,3.31,3.31,3.31,3.3,3.32,3.32,3.33,3.33,3.32,3.3,3.32,3.3,3.31,3.32,3.32,3.32,3.32,3.33,3.33,3.33,3.33,3.33,3.3,44.0,1.0,0.0,1.0,1.0,3197278,0.0,79.65999999999998,654.9981841289438
1765221702320,0.0,0.0,2.0,25.0,0.0,0.0,0.0,0.0,0.0,0.0,0.0,0.0,0.0,0.0,0.0,0.0,0.0,0.0,-0.012199999999999999,0.005856,0.99308,-0.6300000000000001,0.35000000000000003,-0.07,25.0,3.32,3.33,3.33,3.31,3.31,3.31,3.3,3.32,3.32,3.33,3.33,3.32,3.3,3.32,3.3,3.31,3.32,3.32,3.32,3.32,3.33,3.33,3.33,3.33,3.33,3.3,44.0,1.0,0.0,1.0,1.0,3197294,0.0,79.65999999999998,654.9981841289438
1765221702337,0.0,0.0,2.0,25.0,0.0,0.0,0.0,0.0,0.0,0.0,0.0,0.0,0.0,0.0,0.0,0.0,0.0,0.0,-0.012199999999999999,0.005856,0.99308,-0.6300000000000001,0.35000000000000003,-0.07,25.0,3.32,3.33,3.33,3.31,3.31,3.31,3.3,3.32,3.32,3.33,3.33,3.32,3.3,3.32,3.3,3.31,3.32,3.32,3.32,3.32,3.33,3.33,3.33,3.33,3.33,3.3,44.0,1.0,0.0,1.0,1.0,3197311,0.0,79.65999999999998,654.9981841289438
1765221702354,0.0,0.0,2.0,25.0,0.0,0.0,0.0,0.0,0.0,0.0,0.0,0.0,0.0,0.0,0.0,0.0,0.0,0.0,-0.012199999999999999,0.005856,0.99308,-0.6300000000000001,0.35000000000000003,-0.07,25.0,3.32,3.33,3.33,3.31,3.31,3.31,3.3,3.32,3.32,3.33,3.33,3.32,3.3,3.32,3.3,3.31,3.32,3.32,3.32,3.32,3.33,3.33,3.33,3.33,3.33,3.3,44.0,1.0,0.0,1.0,1.0,3197328,0.0,79.65999999999998,654.9981841289438
1765221702370,0.0,0.0,2.0,25.0,0.0,0.0,0.0,0.0,0.0,0.0,0.0,0.0,0.0,0.0,0.0,0.0,0.0,0.0,-0.012199999999999999,0.005856,0.99308,-0.6300000000000001,0.35000000000000003,-0.07,25.0,3.32,3.33,3.33,3.31,3.31,3.31,3.3,3.32,3.32,3.33,3.33,3.32,3.3,3.32,3.3,3.31,3.32,3.32,3.32,3.32,3.33,3.33,3.33,3.33,3.33,3.3,44.0,1.0,0.0,1.0,1.0,3197344,0.0,79.65999999999998,654.9981841289438
1765221702402,0.0,0.0,2.0,25.0,0.0,0.0,0.0,0.0,0.0,0.0,0.0,0.0,0.0,0.0,0.0,0.0,0.0,0.0,-0.012199999999999999,0.005856,0.99308,-0.6300000000000001,0.35000000000000003,-0.07,25.0,3.32,3.33,3.33,3.31,3.31,3.31,3.3,3.32,3.32,3.33,3.33,3.32,3.3,3.32,3.3,3.31,3.32,3.32,3.32,3.32,3.33,3.33,3.33,3.33,3.33,3.3,44.0,1.0,0.0,1.0,1.0,3197376,0.0,79.65999999999998,654.9981841289438
1765221702437,0.0,0.0,2.0,25.0,0.0,0.0,0.0,0.0,0.0,0.0,0.0,0.0,0.0,0.0,0.0,0.0,0.0,0.0,-0.012565999999999999,0.005856,0.993324,-0.6300000000000001,0.35000000000000003,-0.07,25.0,3.32,3.33,3.33,3.31,3.31,3.31,3.3,3.32,3.32,3.33,3.33,3.32,3.3,3.32,3.3,3.31,3.32,3.32,3.32,3.32,3.33,3.33,3.33,3.33,3.33,3.3,44.0,1.0,0.0,1.0,1.0,3197411,0.0,79.65999999999998,654.9981841289438
1765221702453,0.0,0.0,2.0,25.0,0.0,0.0,0.0,0.0,0.0,0.0,0.0,0.0,0.0,0.0,0.0,0.0,0.0,0.0,-0.012565999999999999,0.005856,0.993324,-0.6300000000000001,0.35000000000000003,-0.07,25.0,3.32,3.33,3.33,3.31,3.31,3.31,3.3,3.32,3.32,3.33,3.33,3.32,3.3,3.32,3.3,3.31,3.32,3.32,3.32,3.32,3.33,3.33,3.33,3.33,3.33,3.3,44.0,1.0,0.0,1.0,1.0,3197427,0.0,79.65999999999998,654.9981841289438
1765221702501,0.0,0.0,2.0,25.0,0.0,0.0,0.0,0.0,0.0,0.0,0.0,0.0,0.0,0.0,0.0,0.0,0.0,0.0,-0.012565999999999999,0.005856,0.993324,-0.56,0.28,0.0,25.0,3.32,3.33,3.33,3.31,3.31,3.31,3.3,3.32,3.32,3.33,3.33,3.32,3.3,3.32,3.3,3.31,3.32,3.32,3.32,3.32,3.33,3.33,3.33,3.33,3.33,3.3,44.0,1.0,0.0,1.0,1.0,3197475,0.0,79.65999999999998,654.9981841289438
1765221702535,0.0,0.0,2.0,25.0,0.0,0.0,0.0,0.0,0.0,0.0,0.0,0.0,0.0,0.0,0.0,0.0,0.0,0.0,-0.012565999999999999,0.005856,0.993324,-0.56,0.28,0.0,25.0,3.32,3.33,3.33,3.31,3.31,3.31,3.3,3.32,3.32,3.33,3.33,3.32,3.3,3.32,3.3,3.31,3.32,3.32,3.32,3.32,3.33,3.33,3.33,3.33,3.33,3.3,44.0,1.0,0.0,1.0,1.0,3197509,0.0,79.65999999999998,654.9981841289438
1765221702568,0.0,0.0,2.0,25.0,0.0,0.0,0.0,0.0,0.0,0.0,0.0,0.0,0.0,0.0,0.0,0.0,0.0,0.0,-0.011467999999999999,0.0068319999999999995,0.992348,-0.56,0.28,0.0,25.0,3.32,3.33,3.33,3.31,3.31,3.31,3.3,3.32,3.32,3.33,3.33,3.32,3.3,3.32,3.3,3.31,3.32,3.32,3.32,3.32,3.33,3.33,3.33,3.33,3.33,3.3,44.0,1.0,0.0,1.0,1.0,3197542,0.0,79.65999999999998,654.9981841289438
1765221702586,0.0,0.0,2.0,25.0,0.0,0.0,0.0,0.0,0.0,0.0,0.0,0.0,0.0,0.0,0.0,0.0,0.0,0.0,-0.011467999999999999,0.0068319999999999995,0.992348,-0.56,0.28,0.0,25.0,3.32,3.33,3.33,3.31,3.31,3.31,3.3,3.32,3.32,3.33,3.33,3.32,3.3,3.32,3.3,3.31,3.32,3.32,3.32,3.32,3.33,3.33,3.33,3.33,3.33,3.3,44.0,1.0,0.0,1.0,1.0,3197560,0.0,79.65999999999998,654.9981841289438
1765221702602,0.0,0.0,2.0,25.0,0.0,0.0,0.0,0.0,0.0,0.0,0.0,0.0,0.0,0.0,0.0,0.0,0.0,0.0,-0.011467999999999999,0.0068319999999999995,0.992348,-0.56,0.28,0.0,25.0,3.32,3.33,3.33,3.31,3.31,3.31,3.3,3.32,3.32,3.33,3.33,3.32,3.3,3.32,3.3,3.31,3.32,3.32,3.32,3.32,3.33,3.33,3.33,3.33,3.33,3.3,44.0,1.0,0.0,1.0,1.0,3197576,0.0,79.65999999999998,654.9981841289438
1765221702620,0.0,0.0,2.0,25.0,0.0,0.0,0.0,0.0,0.0,0.0,0.0,0.0,0.0,0.0,0.0,0.0,0.0,0.0,-0.011467999999999999,0.0068319999999999995,0.992348,-0.56,0.28,0.0,25.0,3.32,3.33,3.33,3.31,3.31,3.31,3.3,3.32,3.32,3.33,3.33,3.32,3.3,3.32,3.3,3.31,3.32,3.32,3.32,3.32,3.33,3.33,3.33,3.33,3.33,3.3,44.0,1.0,0.0,1.0,1.0,3197594,0.0,79.65999999999998,654.9981841289438
1765221702636,0.0,0.0,2.0,25.0,0.0,0.0,0.0,0.0,0.0,0.0,0.0,0.0,0.0,0.0,0.0,0.0,0.0,0.0,-0.011467999999999999,0.0068319999999999995,0.992348,-0.56,0.28,0.0,25.0,3.32,3.33,3.33,3.31,3.31,3.31,3.3,3.32,3.32,3.33,3.33,3.32,3.3,3.32,3.3,3.31,3.32,3.32,3.32,3.32,3.33,3.33,3.33,3.33,3.33,3.3,44.0,1.0,0.0,1.0,1.0,3197610,0.0,79.65999999999998,654.9981841289438
1765221702654,0.0,0.0,2.0,25.0,0.0,0.0,0.0,0.0,0.0,0.0,0.0,0.0,0.0,0.0,0.0,0.0,0.0,0.0,-0.011467999999999999,0.0068319999999999995,0.992348,-0.56,0.28,0.0,25.0,3.32,3.33,3.33,3.31,3.31,3.31,3.3,3.32,3.32,3.33,3.33,3.32,3.3,3.32,3.3,3.31,3.32,3.32,3.32,3.32,3.33,3.33,3.33,3.33,3.33,3.3,44.0,1.0,0.0,1.0,1.0,3197628,0.0,79.65999999999998,654.9981841289438
1765221702687,0.0,0.0,2.0,25.0,0.0,0.0,0.0,0.0,0.0,0.0,0.0,0.0,0.0,0.0,0.0,0.0,0.0,0.0,-0.011467999999999999,0.0068319999999999995,0.992348,-0.56,0.28,0.0,25.0,3.32,3.33,3.33,3.31,3.31,3.31,3.3,3.32,3.32,3.33,3.33,3.32,3.3,3.32,3.3,3.31,3.32,3.32,3.32,3.32,3.33,3.33,3.33,3.33,3.33,3.3,44.0,1.0,0.0,1.0,1.0,3197661,0.0,79.65999999999998,654.9981841289438
1765221702734,0.0,0.0,2.0,25.0,0.0,0.0,0.0,0.0,0.0,0.0,0.0,0.0,0.0,0.0,0.0,0.0,0.0,0.0,-0.011467999999999999,0.0068319999999999995,0.992348,-0.56,0.28,0.0,25.0,3.32,3.33,3.33,3.31,3.31,3.31,3.3,3.32,3.32,3.33,3.33,3.32,3.3,3.32,3.3,3.31,3.32,3.32,3.32,3.32,3.33,3.33,3.33,3.33,3.33,3.3,44.0,1.0,0.0,1.0,1.0,3197708,0.0,79.65999999999998,654.9981841289438
1765221702769,0.0,0.0,2.0,25.0,0.0,0.0,0.0,0.0,0.0,0.0,0.0,0.0,0.0,0.0,0.0,0.0,0.0,0.0,-0.011467999999999999,0.0068319999999999995,0.992348,-0.56,0.28,0.0,25.0,3.32,3.33,3.33,3.31,3.31,3.31,3.3,3.32,3.32,3.33,3.33,3.32,3.3,3.32,3.3,3.31,3.32,3.32,3.32,3.32,3.33,3.33,3.33,3.33,3.33,3.3,44.0,1.0,0.0,1.0,1.0,3197743,0.0,79.65999999999998,654.9981841289438
1765221702786,0.0,0.0,2.0,25.0,0.0,0.0,0.0,0.0,0.0,0.0,0.0,0.0,0.0,0.0,0.0,0.0,0.0,0.0,-0.011467999999999999,0.0068319999999999995,0.992348,-0.56,0.28,0.0,25.0,3.32,3.33,3.33,3.31,3.31,3.31,3.3,3.32,3.32,3.33,3.33,3.32,3.3,3.32,3.3,3.31,3.32,3.32,3.32,3.32,3.33,3.33,3.33,3.33,3.33,3.3,44.0,1.0,0.0,1.0,1.0,3197760,0.0,79.65999999999998,654.9981841289438
1765221702852,0.0,0.0,2.0,25.0,0.0,0.0,0.0,0.0,0.0,0.0,0.0,0.0,0.0,0.0,0.0,0.0,0.0,0.0,-0.011467999999999999,0.0068319999999999995,0.992348,-0.56,0.28,0.0,25.0,3.32,3.33,3.33,3.31,3.31,3.31,3.3,3.32,3.32,3.33,3.33,3.32,3.3,3.32,3.3,3.31,3.32,3.32,3.32,3.32,3.33,3.33,3.33,3.33,3.33,3.3,44.0,1.0,0.0,1.0,1.0,3197826,0.0,79.65999999999998,654.9981841289438
1765221702869,0.0,0.0,2.0,25.0,0.0,0.0,0.0,0.0,0.0,0.0,0.0,0.0,0.0,0.0,0.0,0.0,0.0,0.0,-0.011467999999999999,0.0068319999999999995,0.992348,-0.56,0.28,0.0,25.0,3.32,3.33,3.33,3.31,3.31,3.31,3.3,3.32,3.32,3.33,3.33,3.32,3.3,3.32,3.3,3.31,3.32,3.32,3.32,3.32,3.33,3.33,3.33,3.33,3.33,3.3,44.0,1.0,0.0,1.0,1.0,3197843,0.0,79.65999999999998,654.9981841289438
1765221702935,0.0,0.0,2.0,25.0,0.0,0.0,0.0,0.0,0.0,0.0,0.0,0.0,0.0,0.0,0.0,0.0,0.0,0.0,-0.011467999999999999,0.0068319999999999995,0.992348,-0.56,0.28,0.0,25.0,3.32,3.33,3.33,3.31,3.31,3.31,3.3,3.32,3.32,3.33,3.33,3.32,3.3,3.32,3.3,3.31,3.32,3.32,3.32,3.32,3.33,3.33,3.33,3.33,3.33,3.3,44.0,1.0,0.0,1.0,1.0,3197909,0.0,79.65999999999998,654.9981841289438
1765221702952,0.0,0.0,2.0,25.0,0.0,0.0,0.0,0.0,0.0,0.0,0.0,0.0,0.0,0.0,0.0,0.0,0.0,0.0,-0.011467999999999999,0.0068319999999999995,0.992348,-0.56,0.28,0.0,25.0,3.32,3.33,3.33,3.31,3.31,3.31,3.3,3.32,3.32,3.33,3.33,3.32,3.3,3.32,3.3,3.31,3.32,3.32,3.32,3.32,3.33,3.33,3.33,3.33,3.33,3.3,44.0,1.0,0.0,1.0,1.0,3197926,0.0,79.65999999999998,654.9981841289438
1765221702985,0.0,0.0,2.0,25.0,0.0,0.0,0.0,0.0,0.0,0.0,0.0,0.0,0.0,0.0,0.0,0.0,0.0,0.0,-0.011467999999999999,0.0068319999999999995,0.992348,-0.56,0.28,0.0,25.0,3.32,3.33,3.33,3.31,3.31,3.31,3.3,3.32,3.32,3.33,3.33,3.32,3.3,3.32,3.3,3.31,3.32,3.32,3.32,3.32,3.33,3.33,3.33,3.33,3.33,3.3,44.0,1.0,0.0,1.0,1.0,3197959,0.0,79.65999999999998,654.9981841289438
1765221703001,0.0,0.0,2.0,25.0,0.0,0.0,0.0,0.0,0.0,0.0,0.0,0.0,0.0,0.0,0.0,0.0,0.0,0.0,-0.011467999999999999,0.0068319999999999995,0.992348,-0.56,0.28,0.0,25.0,3.32,3.33,3.33,3.31,3.31,3.31,3.3,3.32,3.32,3.33,3.33,3.32,3.3,3.32,3.3,3.31,3.32,3.32,3.32,3.32,3.33,3.33,3.33,3.33,3.33,3.3,44.0,1.0,0.0,1.0,1.0,3197975,0.0,79.65999999999998,654.9981841289438
1765221703019,0.0,0.0,2.0,25.0,0.0,0.0,0.0,0.0,0.0,0.0,0.0,0.0,0.0,0.0,0.0,0.0,0.0,0.0,-0.011712,0.0057339999999999995,0.990884,-0.56,0.28,0.0,25.0,3.32,3.33,3.33,3.31,3.31,3.31,3.3,3.32,3.32,3.33,3.33,3.32,3.3,3.32,3.3,3.31,3.32,3.32,3.32,3.32,3.33,3.33,3.33,3.33,3.33,3.3,44.0,1.0,0.0,1.0,1.0,3197993,0.0,79.65999999999998,654.9981841289438
1765221703036,0.0,0.0,2.0,25.0,0.0,0.0,0.0,0.0,0.0,0.0,0.0,0.0,0.0,0.0,0.0,0.0,0.0,0.0,-0.011712,0.0057339999999999995,0.990884,-0.56,0.21000000000000002,0.07,25.0,3.32,3.33,3.33,3.31,3.31,3.31,3.3,3.32,3.32,3.33,3.33,3.32,3.3,3.32,3.3,3.31,3.32,3.32,3.32,3.32,3.33,3.33,3.33,3.33,3.33,3.3,44.0,1.0,0.0,1.0,1.0,3198010,0.0,79.65999999999998,654.9981841289438
1765221703052,0.0,0.0,2.0,25.0,0.0,0.0,0.0,0.0,0.0,0.0,0.0,0.0,0.0,0.0,0.0,0.0,0.0,0.0,-0.011712,0.0057339999999999995,0.990884,-0.56,0.21000000000000002,0.07,25.0,3.32,3.33,3.33,3.31,3.31,3.31,3.3,3.32,3.32,3.33,3.33,3.32,3.3,3.32,3.3,3.31,3.32,3.32,3.32,3.32,3.33,3.33,3.33,3.33,3.33,3.3,44.0,1.0,0.0,1.0,1.0,3198026,0.0,79.65999999999998,654.9981841289438
1765221703070,0.0,0.0,2.0,25.0,0.0,0.0,0.0,0.0,0.0,0.0,0.0,0.0,0.0,0.0,0.0,0.0,0.0,0.0,-0.011712,0.0057339999999999995,0.990884,-0.56,0.21000000000000002,0.07,25.0,3.32,3.33,3.33,3.31,3.31,3.31,3.3,3.32,3.32,3.33,3.33,3.32,3.3,3.32,3.3,3.31,3.32,3.32,3.32,3.32,3.33,3.33,3.33,3.33,3.33,3.3,44.0,1.0,0.0,1.0,1.0,3198044,0.0,79.65999999999998,654.9981841289438
1765221703086,0.0,0.0,2.0,25.0,0.0,0.0,0.0,0.0,0.0,0.0,0.0,0.0,0.0,0.0,0.0,0.0,0.0,0.0,-0.011712,0.0057339999999999995,0.990884,-0.56,0.21000000000000002,0.07,25.0,3.32,3.33,3.33,3.31,3.31,3.31,3.3,3.32,3.32,3.33,3.33,3.32,3.3,3.32,3.3,3.31,3.32,3.32,3.32,3.32,3.33,3.33,3.33,3.33,3.33,3.3,44.0,1.0,0.0,1.0,1.0,3198060,0.0,79.65999999999998,654.9981841289438
1765221703103,0.0,0.0,2.0,25.0,0.0,0.0,0.0,0.0,0.0,0.0,0.0,0.0,0.0,0.0,0.0,0.0,0.0,0.0,-0.011712,0.0057339999999999995,0.990884,-0.56,0.21000000000000002,0.07,25.0,3.32,3.33,3.33,3.31,3.31,3.31,3.3,3.32,3.32,3.33,3.33,3.32,3.3,3.32,3.3,3.31,3.32,3.32,3.32,3.32,3.33,3.33,3.33,3.33,3.33,3.3,44.0,1.0,0.0,1.0,1.0,3198077,0.0,79.65999999999998,654.9981841289438
1765221703136,0.0,0.0,2.0,25.0,0.0,0.0,0.0,0.0,0.0,0.0,0.0,0.0,0.0,0.0,0.0,0.0,0.0,0.0,-0.011712,0.0057339999999999995,0.990884,-0.56,0.21000000000000002,0.07,25.0,3.32,3.33,3.33,3.31,3.31,3.31,3.3,3.32,3.32,3.33,3.33,3.32,3.3,3.32,3.3,3.31,3.32,3.32,3.32,3.32,3.33,3.33,3.33,3.33,3.33,3.3,44.0,1.0,0.0,1.0,1.0,3198110,0.0,79.65999999999998,654.9981841289438
1765221703187,0.0,0.0,2.0,25.0,0.0,0.0,0.0,0.0,0.0,0.0,0.0,0.0,0.0,0.0,0.0,0.0,0.0,0.0,-0.011712,0.0057339999999999995,0.990884,-0.56,0.21000000000000002,0.07,25.0,3.32,3.33,3.33,3.31,3.31,3.31,3.3,3.32,3.32,3.33,3.33,3.32,3.3,3.32,3.3,3.31,3.32,3.32,3.32,3.32,3.33,3.33,3.33,3.33,3.33,3.3,44.0,1.0,0.0,1.0,1.0,3198161,0.0,79.65999999999998,654.9981841289438
1765221703253,0.0,0.0,2.0,25.0,0.0,0.0,0.0,0.0,0.0,0.0,0.0,0.0,0.0,0.0,0.0,0.0,0.0,0.0,-0.011224,0.006344,0.9928359999999999,-0.56,0.21000000000000002,0.07,25.0,3.32,3.33,3.33,3.31,3.31,3.31,3.3,3.32,3.32,3.33,3.33,3.32,3.3,3.32,3.3,3.31,3.32,3.32,3.32,3.32,3.33,3.33,3.33,3.33,3.33,3.3,44.0,1.0,0.0,1.0,1.0,3198227,0.0,79.65999999999998,654.9981841289438
1765221703270,0.0,0.0,2.0,25.0,0.0,0.0,0.0,0.0,0.0,0.0,0.0,0.0,0.0,0.0,0.0,0.0,0.0,0.0,-0.011224,0.006344,0.9928359999999999,-0.56,0.35000000000000003,-0.14,25.0,3.32,3.33,3.33,3.31,3.31,3.31,3.3,3.32,3.32,3.33,3.33,3.32,3.3,3.32,3.3,3.31,3.32,3.32,3.32,3.32,3.33,3.33,3.33,3.33,3.33,3.3,44.0,1.0,0.0,1.0,1.0,3198244,0.0,79.65999999999998,654.9981841289438
1765221703285,0.0,0.0,2.0,25.0,0.0,0.0,0.0,0.0,0.0,0.0,0.0,0.0,0.0,0.0,0.0,0.0,0.0,0.0,-0.011224,0.006344,0.9928359999999999,-0.56,0.35000000000000003,-0.14,25.0,3.32,3.33,3.33,3.31,3.31,3.31,3.3,3.32,3.32,3.33,3.33,3.32,3.3,3.32,3.3,3.31,3.32,3.32,3.32,3.32,3.33,3.33,3.33,3.33,3.33,3.3,44.0,1.0,0.0,1.0,1.0,3198259,0.0,79.65999999999998,654.9981841289438
1765221703320,0.0,0.0,2.0,25.0,0.0,0.0,0.0,0.0,0.0,0.0,0.0,0.0,0.0,0.0,0.0,0.0,0.0,0.0,-0.011224,0.006344,0.9928359999999999,-0.56,0.35000000000000003,-0.14,25.0,3.32,3.33,3.33,3.31,3.31,3.31,3.3,3.32,3.32,3.33,3.33,3.32,3.3,3.32,3.3,3.31,3.32,3.32,3.32,3.32,3.33,3.33,3.33,3.33,3.33,3.3,44.0,1.0,0.0,1.0,1.0,3198294,0.0,79.65999999999998,654.9981841289438
1765221703335,0.0,0.0,2.0,25.0,0.0,0.0,0.0,0.0,0.0,0.0,0.0,0.0,0.0,0.0,0.0,0.0,0.0,0.0,-0.012688,0.006222,0.992714,-0.56,0.35000000000000003,-0.14,25.0,3.32,3.33,3.33,3.31,3.31,3.31,3.3,3.32,3.32,3.33,3.33,3.32,3.3,3.32,3.3,3.31,3.32,3.32,3.32,3.32,3.33,3.33,3.33,3.33,3.33,3.3,44.0,1.0,0.0,1.0,1.0,3198309,0.0,79.65999999999998,654.9981841289438
1765221703352,0.0,0.0,2.0,25.0,0.0,0.0,0.0,0.0,0.0,0.0,0.0,0.0,0.0,0.0,0.0,0.0,0.0,0.0,-0.012688,0.006222,0.992714,-0.56,0.35000000000000003,-0.14,25.0,3.32,3.33,3.33,3.31,3.31,3.31,3.3,3.32,3.32,3.33,3.33,3.32,3.3,3.32,3.3,3.31,3.32,3.32,3.32,3.32,3.33,3.33,3.33,3.33,3.33,3.3,44.0,1.0,0.0,1.0,1.0,3198326,0.0,79.65999999999998,654.9981841289438
1765221703371,0.0,0.0,2.0,25.0,0.0,0.0,0.0,0.0,0.0,0.0,0.0,0.0,0.0,0.0,0.0,0.0,0.0,0.0,-0.012688,0.006222,0.992714,-0.56,0.35000000000000003,-0.14,25.0,3.32,3.33,3.33,3.31,3.31,3.31,3.3,3.32,3.32,3.33,3.33,3.32,3.3,3.32,3.3,3.31,3.32,3.32,3.32,3.32,3.33,3.33,3.33,3.33,3.33,3.3,44.0,1.0,0.0,1.0,1.0,3198345,0.0,79.65999999999998,654.9981841289438
1765221703403,0.0,0.0,2.0,25.0,0.0,0.0,0.0,0.0,0.0,0.0,0.0,0.0,0.0,0.0,0.0,0.0,0.0,0.0,-0.012688,0.006222,0.992714,-0.6300000000000001,0.35000000000000003,0.0,25.0,3.32,3.33,3.33,3.31,3.31,3.31,3.3,3.32,3.32,3.33,3.33,3.32,3.3,3.32,3.3,3.31,3.32,3.32,3.32,3.32,3.33,3.33,3.33,3.33,3.33,3.3,44.0,1.0,0.0,1.0,1.0,3198377,0.0,79.65999999999998,654.9981841289438
1765221703420,0.0,0.0,2.0,25.0,0.0,0.0,0.0,0.0,0.0,0.0,0.0,0.0,0.0,0.0,0.0,0.0,0.0,0.0,-0.012688,0.006222,0.992714,-0.6300000000000001,0.35000000000000003,0.0,25.0,3.32,3.33,3.33,3.31,3.31,3.31,3.3,3.32,3.32,3.33,3.33,3.32,3.3,3.32,3.3,3.31,3.32,3.32,3.32,3.32,3.33,3.33,3.33,3.33,3.33,3.3,44.0,1.0,0.0,1.0,1.0,3198394,0.0,79.65999999999998,654.9981841289438
1765221703452,0.0,0.0,2.0,25.0,0.0,0.0,0.0,0.0,0.0,0.0,0.0,0.0,0.0,0.0,0.0,0.0,0.0,0.0,-0.012688,0.006222,0.992714,-0.6300000000000001,0.35000000000000003,0.0,25.0,3.32,3.33,3.33,3.31,3.31,3.31,3.3,3.32,3.32,3.33,3.33,3.32,3.3,3.32,3.3,3.31,3.32,3.32,3.32,3.32,3.33,3.33,3.33,3.33,3.33,3.3,44.0,1.0,0.0,1.0,1.0,3198426,0.0,79.65999999999998,654.9981841289438
1765221703469,0.0,0.0,2.0,25.0,0.0,0.0,0.0,0.0,0.0,0.0,0.0,0.0,0.0,0.0,0.0,0.0,0.0,0.0,-0.012688,0.006222,0.992714,-0.6300000000000001,0.35000000000000003,0.0,25.0,3.32,3.33,3.33,3.31,3.31,3.31,3.3,3.32,3.32,3.33,3.33,3.32,3.3,3.32,3.3,3.31,3.32,3.32,3.32,3.32,3.33,3.33,3.33,3.33,3.33,3.3,44.0,1.0,0.0,1.0,1.0,3198443,0.0,79.65999999999998,654.9981841289438
1765221703487,0.0,0.0,2.0,25.0,0.0,0.0,0.0,0.0,0.0,0.0,0.0,0.0,0.0,0.0,0.0,0.0,0.0,0.0,-0.012688,0.006222,0.992714,-0.6300000000000001,0.35000000000000003,0.0,25.0,3.32,3.33,3.33,3.31,3.31,3.31,3.3,3.32,3.32,3.33,3.33,3.32,3.3,3.32,3.3,3.31,3.32,3.32,3.32,3.32,3.33,3.33,3.33,3.33,3.33,3.3,44.0,1.0,0.0,1.0,1.0,3198461,0.0,79.65999999999998,654.9981841289438
1765221703521,0.0,0.0,2.0,25.0,0.0,0.0,0.0,0.0,0.0,0.0,0.0,0.0,0.0,0.0,0.0,0.0,0.0,0.0,-0.012688,0.006222,0.992714,-0.6300000000000001,0.35000000000000003,0.0,25.0,3.32,3.33,3.33,3.31,3.31,3.31,3.3,3.32,3.32,3.33,3.33,3.32,3.3,3.32,3.3,3.31,3.32,3.32,3.32,3.32,3.33,3.33,3.33,3.33,3.33,3.3,44.0,1.0,0.0,1.0,1.0,3198495,0.0,79.65999999999998,654.9981841289438
1765221703570,0.0,0.0,2.0,25.0,0.0,0.0,0.0,0.0,0.0,0.0,0.0,0.0,0.0,0.0,0.0,0.0,0.0,0.0,-0.012688,0.006222,0.992714,-0.6300000000000001,0.35000000000000003,0.0,25.0,3.32,3.33,3.33,3.31,3.31,3.31,3.3,3.32,3.32,3.33,3.33,3.32,3.3,3.32,3.3,3.31,3.32,3.32,3.32,3.32,3.33,3.33,3.33,3.33,3.33,3.3,44.0,1.0,0.0,1.0,1.0,3198544,0.0,79.65999999999998,654.9981841289438
1765221703604,0.0,0.0,2.0,25.0,0.0,0.0,0.0,0.0,0.0,0.0,0.0,0.0,0.0,0.0,0.0,0.0,0.0,0.0,-0.013054,0.0050019999999999995,0.9928359999999999,-0.6300000000000001,0.35000000000000003,0.0,25.0,3.32,3.33,3.33,3.31,3.31,3.31,3.3,3.32,3.32,3.33,3.33,3.32,3.3,3.32,3.3,3.31,3.32,3.32,3.32,3.32,3.33,3.33,3.33,3.33,3.33,3.3,44.0,1.0,0.0,1.0,1.0,3198578,0.0,79.65999999999998,654.9981841289438
1765221703637,0.0,0.0,2.0,25.0,0.0,0.0,0.0,0.0,0.0,0.0,0.0,0.0,0.0,0.0,0.0,0.0,0.0,0.0,-0.013054,0.0050019999999999995,0.9928359999999999,-0.56,0.21000000000000002,0.0,25.0,3.32,3.33,3.33,3.31,3.31,3.31,3.3,3.32,3.32,3.33,3.33,3.32,3.3,3.32,3.3,3.31,3.32,3.32,3.32,3.32,3.33,3.33,3.33,3.33,3.33,3.3,44.0,1.0,0.0,1.0,1.0,3198611,0.0,79.65999999999998,654.9981841289438
1765221703671,0.0,0.0,2.0,25.0,0.0,0.0,0.0,0.0,0.0,0.0,0.0,0.0,0.0,0.0,0.0,0.0,0.0,0.0,-0.013054,0.0050019999999999995,0.9928359999999999,-0.56,0.21000000000000002,0.0,25.0,3.32,3.33,3.33,3.31,3.31,3.31,3.3,3.32,3.32,3.33,3.33,3.32,3.3,3.32,3.3,3.31,3.32,3.32,3.32,3.32,3.33,3.33,3.33,3.33,3.33,3.3,44.0,1.0,0.0,1.0,1.0,3198645,0.0,79.65999999999998,654.9981841289438
1765221703687,0.0,0.0,2.0,25.0,0.0,0.0,0.0,0.0,0.0,0.0,0.0,0.0,0.0,0.0,0.0,0.0,0.0,0.0,-0.011224,0.0060999999999999995,0.992714,-0.56,0.21000000000000002,0.0,25.0,3.32,3.33,3.33,3.31,3.31,3.31,3.3,3.32,3.32,3.33,3.33,3.32,3.3,3.32,3.3,3.31,3.32,3.32,3.32,3.32,3.33,3.33,3.33,3.33,3.33,3.3,44.0,1.0,0.0,1.0,1.0,3198661,0.0,79.65999999999998,654.9981841289438
1765221703704,0.0,0.0,2.0,25.0,0.0,0.0,0.0,0.0,0.0,0.0,0.0,0.0,0.0,0.0,0.0,0.0,0.0,0.0,-0.011224,0.0060999999999999995,0.992714,-0.56,0.21000000000000002,0.0,25.0,3.32,3.33,3.33,3.31,3.31,3.31,3.3,3.32,3.32,3.33,3.33,3.32,3.3,3.32,3.3,3.31,3.32,3.32,3.32,3.32,3.33,3.33,3.33,3.33,3.33,3.3,46.0,1.0,0.0,1.0,1.0,3198678,0.0,79.65999999999998,654.9981841289438
1765221703738,0.0,0.0,2.0,25.0,0.0,0.0,0.0,0.0,0.0,0.0,0.0,0.0,0.0,0.0,0.0,0.0,0.0,0.0,-0.011224,0.0060999999999999995,0.992714,-0.56,0.21000000000000002,0.0,25.0,3.32,3.33,3.33,3.31,3.31,3.31,3.3,3.32,3.32,3.33,3.33,3.32,3.3,3.32,3.3,3.31,3.32,3.32,3.32,3.32,3.33,3.33,3.33,3.33,3.33,3.3,46.0,1.0,0.0,1.0,1.0,3198712,0.0,79.65999999999998,654.9981841289438
1765221703751,0.0,0.0,2.0,25.0,0.0,0.0,0.0,0.0,0.0,0.0,0.0,0.0,0.0,0.0,0.0,0.0,0.0,0.0,-0.011224,0.0060999999999999995,0.992714,-0.56,0.21000000000000002,0.0,25.0,3.32,3.33,3.33,3.31,3.31,3.31,3.3,3.32,3.32,3.33,3.33,3.32,3.3,3.32,3.3,3.31,3.32,3.32,3.32,3.32,3.33,3.33,3.33,3.33,3.33,3.3,46.0,1.0,0.0,1.0,1.0,3198725,0.0,79.65999999999998,654.9981841289438
1765221703768,0.0,0.0,2.0,25.0,0.0,0.0,0.0,0.0,0.0,0.0,0.0,0.0,0.0,0.0,0.0,0.0,0.0,0.0,-0.011224,0.0060999999999999995,0.992714,-0.56,0.28,-0.07,25.0,3.32,3.33,3.33,3.31,3.31,3.31,3.3,3.32,3.32,3.33,3.33,3.32,3.3,3.32,3.3,3.31,3.32,3.32,3.32,3.32,3.33,3.33,3.33,3.33,3.33,3.3,46.0,1.0,0.0,1.0,1.0,3198742,0.0,79.65999999999998,654.9981841289438
1765221703787,0.0,0.0,2.0,25.0,0.0,0.0,0.0,0.0,0.0,0.0,0.0,0.0,0.0,0.0,0.0,0.0,0.0,0.0,-0.011224,0.0060999999999999995,0.992714,-0.56,0.28,-0.07,25.0,3.32,3.33,3.33,3.31,3.31,3.31,3.3,3.32,3.32,3.33,3.33,3.32,3.3,3.32,3.3,3.31,3.32,3.32,3.32,3.32,3.33,3.33,3.33,3.33,3.33,3.3,46.0,1.0,0.0,1.0,1.0,3198761,0.0,79.65999999999998,654.9981841289438
1765221703804,0.0,0.0,2.0,25.0,0.0,0.0,0.0,0.0,0.0,0.0,0.0,0.0,0.0,0.0,0.0,0.0,0.0,0.0,-0.011224,0.0060999999999999995,0.992714,-0.56,0.28,-0.07,25.0,3.32,3.33,3.33,3.31,3.31,3.31,3.3,3.32,3.32,3.33,3.33,3.32,3.3,3.32,3.3,3.31,3.32,3.32,3.32,3.32,3.33,3.33,3.33,3.33,3.33,3.3,46.0,1.0,0.0,1.0,1.0,3198778,0.0,79.65999999999998,654.9981841289438
1765221703820,0.0,0.0,2.0,25.0,0.0,0.0,0.0,0.0,0.0,0.0,0.0,0.0,0.0,0.0,0.0,0.0,0.0,0.0,-0.011224,0.0060999999999999995,0.992714,-0.56,0.28,-0.07,25.0,3.32,3.33,3.33,3.31,3.31,3.31,3.3,3.32,3.32,3.33,3.33,3.32,3.3,3.32,3.3,3.31,3.32,3.32,3.32,3.32,3.33,3.33,3.33,3.33,3.33,3.3,46.0,1.0,0.0,1.0,1.0,3198794,0.0,79.65999999999998,654.9981841289438
1765221703837,0.0,0.0,2.0,25.0,0.0,0.0,0.0,0.0,0.0,0.0,0.0,0.0,0.0,0.0,0.0,0.0,0.0,0.0,-0.011224,0.0060999999999999995,0.992714,-0.56,0.28,-0.07,25.0,3.32,3.33,3.33,3.31,3.31,3.31,3.3,3.32,3.32,3.33,3.33,3.32,3.3,3.32,3.3,3.31,3.32,3.32,3.32,3.32,3.33,3.33,3.33,3.33,3.33,3.3,46.0,1.0,0.0,1.0,1.0,3198811,0.0,79.65999999999998,654.9981841289438
1765221703902,0.0,0.0,2.0,25.0,0.0,0.0,0.0,0.0,0.0,0.0,0.0,0.0,0.0,0.0,0.0,0.0,0.0,0.0,-0.011224,0.0060999999999999995,0.992714,-0.56,0.28,-0.07,25.0,3.32,3.33,3.33,3.31,3.31,3.31,3.3,3.32,3.32,3.33,3.33,3.32,3.3,3.32,3.3,3.31,3.32,3.32,3.32,3.32,3.33,3.33,3.33,3.33,3.33,3.3,46.0,1.0,0.0,1.0,1.0,3198876,0.0,79.65999999999998,654.9981841289438
1765221703968,0.0,0.0,2.0,25.0,0.0,0.0,0.0,0.0,0.0,0.0,0.0,0.0,0.0,0.0,0.0,0.0,0.0,0.0,-0.012931999999999999,0.007076,0.99308,-0.56,0.28,-0.07,25.0,3.32,3.33,3.33,3.31,3.31,3.31,3.3,3.32,3.32,3.33,3.33,3.32,3.3,3.32,3.3,3.31,3.32,3.32,3.32,3.32,3.33,3.33,3.33,3.33,3.33,3.3,46.0,1.0,0.0,1.0,1.0,3198942,0.0,79.65999999999998,654.9981841289438
1765221703985,0.0,0.0,2.0,25.0,0.0,0.0,0.0,0.0,0.0,0.0,0.0,0.0,0.0,0.0,0.0,0.0,0.0,0.0,-0.012931999999999999,0.007076,0.99308,-0.56,0.35000000000000003,0.0,25.0,3.32,3.33,3.33,3.31,3.31,3.31,3.3,3.32,3.32,3.33,3.33,3.32,3.3,3.32,3.3,3.31,3.32,3.32,3.32,3.32,3.33,3.33,3.33,3.33,3.33,3.3,46.0,1.0,0.0,1.0,1.0,3198959,0.0,79.65999999999998,654.9981841289438
1765221704019,0.0,0.0,2.0,25.0,0.0,0.0,0.0,0.0,0.0,0.0,0.0,0.0,0.0,0.0,0.0,0.0,0.0,0.0,-0.012931999999999999,0.007076,0.99308,-0.56,0.35000000000000003,0.0,25.0,3.32,3.33,3.33,3.31,3.31,3.31,3.3,3.32,3.32,3.33,3.33,3.32,3.3,3.32,3.3,3.31,3.32,3.32,3.32,3.32,3.33,3.33,3.33,3.33,3.33,3.3,46.0,1.0,0.0,1.0,1.0,3198993,0.0,79.65999999999998,654.9981841289438
1765221704053,0.0,0.0,2.0,25.0,0.0,0.0,0.0,0.0,0.0,0.0,0.0,0.0,0.0,0.0,0.0,0.0,0.0,0.0,-0.012931999999999999,0.007076,0.99308,-0.56,0.35000000000000003,0.0,25.0,3.32,3.33,3.33,3.31,3.31,3.31,3.3,3.32,3.32,3.33,3.33,3.32,3.3,3.32,3.3,3.31,3.32,3.32,3.32,3.32,3.33,3.33,3.33,3.33,3.33,3.3,46.0,1.0,0.0,1.0,1.0,3199027,0.0,79.65999999999998,654.9981841289438
1765221704086,0.0,0.0,2.0,25.0,0.0,0.0,0.0,0.0,0.0,0.0,0.0,0.0,0.0,0.0,0.0,0.0,0.0,0.0,-0.012931999999999999,0.005246,0.991982,-0.56,0.35000000000000003,0.0,25.0,3.32,3.33,3.33,3.31,3.31,3.31,3.3,3.32,3.32,3.33,3.33,3.32,3.3,3.32,3.3,3.31,3.32,3.32,3.32,3.32,3.33,3.33,3.33,3.33,3.33,3.3,46.0,1.0,0.0,1.0,1.0,3199060,0.0,79.65999999999998,654.9981841289438
1765221704102,0.0,0.0,2.0,25.0,0.0,0.0,0.0,0.0,0.0,0.0,0.0,0.0,0.0,0.0,0.0,0.0,0.0,0.0,-0.012931999999999999,0.005246,0.991982,-0.56,0.35000000000000003,-0.07,25.0,3.32,3.33,3.33,3.31,3.31,3.31,3.3,3.32,3.32,3.33,3.33,3.32,3.3,3.32,3.3,3.31,3.32,3.32,3.32,3.32,3.33,3.33,3.33,3.33,3.33,3.3,46.0,1.0,0.0,1.0,1.0,3199076,0.0,79.65999999999998,654.9981841289438
1765221704118,0.0,0.0,2.0,25.0,0.0,0.0,0.0,0.0,0.0,0.0,0.0,0.0,0.0,0.0,0.0,0.0,0.0,0.0,-0.012931999999999999,0.005246,0.991982,-0.56,0.35000000000000003,-0.07,25.0,3.32,3.33,3.33,3.31,3.31,3.31,3.3,3.32,3.32,3.33,3.33,3.32,3.3,3.32,3.3,3.31,3.32,3.32,3.32,3.32,3.33,3.33,3.33,3.33,3.33,3.3,46.0,1.0,0.0,1.0,1.0,3199092,0.0,79.65999999999998,654.9981841289438
1765221704153,0.0,0.0,2.0,25.0,0.0,0.0,0.0,0.0,0.0,0.0,0.0,0.0,0.0,0.0,0.0,0.0,0.0,0.0,-0.012931999999999999,0.005246,0.991982,-0.56,0.35000000000000003,-0.07,25.0,3.32,3.33,3.33,3.31,3.31,3.31,3.3,3.32,3.32,3.33,3.33,3.32,3.3,3.32,3.3,3.31,3.32,3.32,3.32,3.32,3.33,3.33,3.33,3.33,3.33,3.3,46.0,1.0,0.0,1.0,1.0,3199127,0.0,79.65999999999998,654.9981841289438
1765221704168,0.0,0.0,2.0,25.0,0.0,0.0,0.0,0.0,0.0,0.0,0.0,0.0,0.0,0.0,0.0,0.0,0.0,0.0,-0.012931999999999999,0.005246,0.991982,-0.56,0.35000000000000003,-0.07,25.0,3.32,3.33,3.33,3.31,3.31,3.31,3.3,3.32,3.32,3.33,3.33,3.32,3.3,3.32,3.3,3.31,3.32,3.32,3.32,3.32,3.33,3.33,3.33,3.33,3.33,3.3,46.0,1.0,0.0,1.0,1.0,3199142,0.0,79.65999999999998,654.9981841289438
1765221704185,0.0,0.0,2.0,25.0,0.0,0.0,0.0,0.0,0.0,0.0,0.0,0.0,0.0,0.0,0.0,0.0,0.0,0.0,-0.012931999999999999,0.005246,0.991982,-0.56,0.35000000000000003,-0.07,25.0,3.32,3.33,3.33,3.31,3.31,3.31,3.3,3.32,3.32,3.33,3.33,3.32,3.3,3.32,3.3,3.31,3.32,3.32,3.32,3.32,3.33,3.33,3.33,3.33,3.33,3.3,46.0,1.0,0.0,1.0,1.0,3199159,0.0,79.65999999999998,654.9981841289438
1765221704219,0.0,0.0,2.0,25.0,0.0,0.0,0.0,0.0,0.0,0.0,0.0,0.0,0.0,0.0,0.0,0.0,0.0,0.0,-0.012931999999999999,0.005246,0.991982,-0.56,0.35000000000000003,-0.07,25.0,3.32,3.33,3.33,3.31,3.31,3.31,3.3,3.32,3.32,3.33,3.33,3.32,3.3,3.32,3.3,3.31,3.32,3.32,3.32,3.32,3.33,3.33,3.33,3.33,3.33,3.3,46.0,1.0,0.0,1.0,1.0,3199193,0.0,79.65999999999998,654.9981841289438
1765221704252,0.0,0.0,2.0,25.0,0.0,0.0,0.0,0.0,0.0,0.0,0.0,0.0,0.0,0.0,0.0,0.0,0.0,0.0,-0.012322,0.0050019999999999995,0.99308,-0.56,0.35000000000000003,-0.07,25.0,3.32,3.33,3.33,3.31,3.31,3.31,3.3,3.32,3.32,3.33,3.33,3.32,3.3,3.32,3.3,3.31,3.32,3.32,3.32,3.32,3.33,3.33,3.33,3.33,3.33,3.3,46.0,1.0,0.0,1.0,1.0,3199226,0.0,79.65999999999998,654.9981841289438
1765221704302,0.0,0.0,2.0,25.0,0.0,0.0,0.0,0.0,0.0,0.0,0.0,0.0,0.0,0.0,0.0,0.0,0.0,0.0,-0.012322,0.0050019999999999995,0.99308,-0.6300000000000001,0.35000000000000003,0.0,25.0,3.32,3.33,3.33,3.31,3.31,3.31,3.3,3.32,3.32,3.33,3.33,3.32,3.3,3.32,3.3,3.31,3.32,3.32,3.32,3.32,3.33,3.33,3.33,3.33,3.33,3.3,46.0,1.0,0.0,1.0,1.0,3199276,0.0,79.65999999999998,654.9981841289438
1765221704386,0.0,0.0,2.0,25.0,0.0,0.0,0.0,0.0,0.0,0.0,0.0,0.0,0.0,0.0,0.0,0.0,0.0,0.0,-0.010003999999999999,0.005612,0.993202,-0.6300000000000001,0.35000000000000003,0.0,25.0,3.32,3.33,3.33,3.31,3.31,3.31,3.3,3.32,3.32,3.33,3.33,3.32,3.3,3.32,3.3,3.31,3.32,3.32,3.32,3.32,3.33,3.33,3.33,3.33,3.33,3.3,46.0,1.0,0.0,1.0,1.0,3199360,0.0,79.65999999999998,654.9981841289438
1765221704402,0.0,0.0,2.0,25.0,0.0,0.0,0.0,0.0,0.0,0.0,0.0,0.0,0.0,0.0,0.0,0.0,0.0,0.0,-0.010003999999999999,0.005612,0.993202,-0.56,0.35000000000000003,0.07,25.0,3.32,3.33,3.33,3.31,3.31,3.31,3.3,3.32,3.32,3.33,3.33,3.32,3.3,3.32,3.3,3.31,3.32,3.32,3.32,3.32,3.33,3.33,3.33,3.33,3.33,3.3,46.0,1.0,0.0,1.0,1.0,3199376,0.0,79.65999999999998,654.9981841289438
1765221704434,0.0,0.0,2.0,25.0,0.0,0.0,0.0,0.0,0.0,0.0,0.0,0.0,0.0,0.0,0.0,0.0,0.0,0.0,-0.010003999999999999,0.005612,0.993202,-0.56,0.35000000000000003,0.07,25.0,3.32,3.33,3.33,3.31,3.31,3.31,3.3,3.32,3.32,3.33,3.33,3.32,3.3,3.32,3.3,3.31,3.32,3.32,3.32,3.32,3.33,3.33,3.33,3.33,3.33,3.3,46.0,1.0,0.0,1.0,1.0,3199408,0.0,79.65999999999998,654.9981841289438
1765221704452,0.0,0.0,2.0,25.0,0.0,0.0,0.0,0.0,0.0,0.0,0.0,0.0,0.0,0.0,0.0,0.0,0.0,0.0,-0.010003999999999999,0.005612,0.993202,-0.56,0.35000000000000003,0.07,25.0,3.32,3.33,3.33,3.31,3.31,3.31,3.3,3.32,3.32,3.33,3.33,3.32,3.3,3.32,3.3,3.31,3.32,3.32,3.32,3.32,3.33,3.33,3.33,3.33,3.33,3.3,46.0,1.0,0.0,1.0,1.0,3199426,0.0,79.65999999999998,654.9981841289438
1765221704502,0.0,0.0,2.0,25.0,0.0,0.0,0.0,0.0,0.0,0.0,0.0,0.0,0.0,0.0,0.0,0.0,0.0,0.0,-0.010003999999999999,0.005612,0.993202,-0.56,0.35000000000000003,0.07,25.0,3.32,3.33,3.33,3.31,3.31,3.31,3.3,3.32,3.32,3.33,3.33,3.32,3.3,3.32,3.3,3.31,3.32,3.32,3.32,3.32,3.33,3.33,3.33,3.33,3.33,3.3,46.0,1.0,0.0,1.0,1.0,3199476,0.0,79.65999999999998,654.9981841289438
1765221704552,0.0,0.0,2.0,25.0,0.0,0.0,0.0,0.0,0.0,0.0,0.0,0.0,0.0,0.0,0.0,0.0,0.0,0.0,-0.010003999999999999,0.005612,0.993202,-0.56,0.35000000000000003,0.07,25.0,3.32,3.33,3.33,3.31,3.31,3.31,3.3,3.32,3.32,3.33,3.33,3.32,3.3,3.32,3.3,3.31,3.32,3.32,3.32,3.32,3.33,3.33,3.33,3.33,3.33,3.3,46.0,1.0,0.0,1.0,1.0,3199526,0.0,79.65999999999998,654.9981841289438
1765221704586,0.0,0.0,2.0,25.0,0.0,0.0,0.0,0.0,0.0,0.0,0.0,0.0,0.0,0.0,0.0,0.0,0.0,0.0,-0.010003999999999999,0.005612,0.993202,-0.56,0.35000000000000003,0.07,25.0,3.32,3.33,3.33,3.31,3.31,3.31,3.3,3.32,3.32,3.33,3.33,3.32,3.3,3.32,3.3,3.31,3.32,3.32,3.32,3.32,3.33,3.33,3.33,3.33,3.33,3.3,46.0,1.0,0.0,1.0,1.0,3199560,0.0,79.65999999999998,654.9981841289438
1765221704635,0.0,0.0,2.0,25.0,0.0,0.0,0.0,0.0,0.0,0.0,0.0,0.0,0.0,0.0,0.0,0.0,0.0,0.0,-0.010003999999999999,0.005612,0.993202,-0.56,0.35000000000000003,0.07,25.0,3.32,3.33,3.33,3.31,3.31,3.31,3.3,3.32,3.32,3.33,3.33,3.32,3.3,3.32,3.3,3.31,3.32,3.32,3.32,3.32,3.33,3.33,3.33,3.33,3.33,3.3,46.0,1.0,0.0,1.0,1.0,3199609,0.0,79.65999999999998,654.9981841289438
1765221704686,0.0,0.0,2.0,25.0,0.0,0.0,0.0,0.0,0.0,0.0,0.0,0.0,0.0,0.0,0.0,0.0,0.0,0.0,-0.011712,0.0053679999999999995,0.994422,-0.56,0.35000000000000003,0.07,25.0,3.32,3.33,3.33,3.31,3.31,3.31,3.3,3.32,3.32,3.33,3.33,3.32,3.3,3.32,3.3,3.31,3.32,3.32,3.32,3.32,3.33,3.33,3.33,3.33,3.33,3.3,46.0,1.0,0.0,1.0,1.0,3199660,0.0,79.65999999999998,654.9981841289438
1765221704702,0.0,0.0,2.0,25.0,0.0,0.0,0.0,0.0,0.0,0.0,0.0,0.0,0.0,0.0,0.0,0.0,0.0,0.0,-0.011712,0.0053679999999999995,0.994422,-0.56,0.35000000000000003,0.07,25.0,3.32,3.33,3.33,3.31,3.31,3.31,3.3,3.32,3.32,3.33,3.33,3.32,3.3,3.32,3.3,3.31,3.32,3.32,3.32,3.32,3.33,3.33,3.33,3.33,3.33,3.3,46.0,1.0,0.0,1.0,1.0,3199676,0.0,79.65999999999998,654.9981841289438
1765221704737,0.0,0.0,2.0,25.0,0.0,0.0,0.0,0.0,0.0,0.0,0.0,0.0,0.0,0.0,0.0,0.0,0.0,0.0,-0.011712,0.0053679999999999995,0.994422,-0.56,0.35000000000000003,0.07,25.0,3.32,3.33,3.33,3.31,3.31,3.31,3.3,3.32,3.32,3.33,3.33,3.32,3.3,3.32,3.3,3.31,3.32,3.32,3.32,3.32,3.33,3.33,3.33,3.33,3.33,3.3,46.0,1.0,0.0,1.0,1.0,3199711,0.0,79.65999999999998,654.9981841289438
1765221704771,0.0,0.0,2.0,25.0,0.0,0.0,0.0,0.0,0.0,0.0,0.0,0.0,0.0,0.0,0.0,0.0,0.0,0.0,-0.011712,0.0053679999999999995,0.994422,-0.56,0.35000000000000003,0.0,25.0,3.32,3.33,3.33,3.31,3.31,3.31,3.3,3.32,3.32,3.33,3.33,3.32,3.3,3.32,3.3,3.31,3.32,3.32,3.32,3.32,3.33,3.33,3.33,3.33,3.33,3.3,46.0,1.0,0.0,1.0,1.0,3199745,0.0,79.65999999999998,654.9981841289438
1765221704802,0.0,0.0,2.0,25.0,0.0,0.0,0.0,0.0,0.0,0.0,0.0,0.0,0.0,0.0,0.0,0.0,0.0,0.0,-0.011712,0.0053679999999999995,0.994422,-0.56,0.35000000000000003,0.0,25.0,3.32,3.33,3.33,3.31,3.31,3.31,3.3,3.32,3.32,3.33,3.33,3.32,3.3,3.32,3.3,3.31,3.32,3.32,3.32,3.32,3.33,3.33,3.33,3.33,3.33,3.3,46.0,1.0,0.0,1.0,1.0,3199776,0.0,79.65999999999998,654.9981841289438
1765221704819,0.0,0.0,2.0,25.0,0.0,0.0,0.0,0.0,0.0,0.0,0.0,0.0,0.0,0.0,0.0,0.0,0.0,0.0,-0.012931999999999999,0.0060999999999999995,0.9928359999999999,-0.56,0.35000000000000003,0.0,25.0,3.32,3.33,3.33,3.31,3.31,3.31,3.3,3.32,3.32,3.33,3.33,3.32,3.3,3.32,3.3,3.31,3.32,3.32,3.32,3.32,3.33,3.33,3.33,3.33,3.33,3.3,46.0,1.0,0.0,1.0,1.0,3199793,0.0,79.65999999999998,654.9981841289438
1765221704853,0.0,0.0,2.0,25.0,0.0,0.0,0.0,0.0,0.0,0.0,0.0,0.0,0.0,0.0,0.0,0.0,0.0,0.0,-0.012931999999999999,0.0060999999999999995,0.9928359999999999,-0.6300000000000001,0.35000000000000003,0.0,25.0,3.32,3.33,3.33,3.31,3.31,3.31,3.3,3.32,3.32,3.33,3.33,3.32,3.3,3.32,3.3,3.31,3.32,3.32,3.32,3.32,3.33,3.33,3.33,3.33,3.33,3.3,46.0,1.0,0.0,1.0,1.0,3199827,0.0,79.65999999999998,654.9981841289438
1765221704870,0.0,0.0,2.0,25.0,0.0,0.0,0.0,0.0,0.0,0.0,0.0,0.0,0.0,0.0,0.0,0.0,0.0,0.0,-0.012931999999999999,0.0060999999999999995,0.9928359999999999,-0.6300000000000001,0.35000000000000003,0.0,25.0,3.32,3.33,3.33,3.31,3.31,3.31,3.3,3.32,3.32,3.33,3.33,3.32,3.3,3.32,3.3,3.31,3.32,3.32,3.32,3.32,3.33,3.33,3.33,3.33,3.33,3.3,46.0,1.0,0.0,1.0,1.0,3199844,0.0,79.65999999999998,654.9981841289438
1765221704886,0.0,0.0,2.0,25.0,0.0,0.0,0.0,0.0,0.0,0.0,0.0,0.0,0.0,0.0,0.0,0.0,0.0,0.0,-0.012931999999999999,0.0060999999999999995,0.9928359999999999,-0.6300000000000001,0.35000000000000003,0.0,25.0,3.32,3.33,3.33,3.31,3.31,3.31,3.3,3.32,3.32,3.33,3.33,3.32,3.3,3.32,3.3,3.31,3.32,3.32,3.32,3.32,3.33,3.33,3.33,3.33,3.33,3.3,46.0,1.0,0.0,1.0,1.0,3199860,0.0,79.65999999999998,654.9981841289438
1765221704903,0.0,0.0,2.0,25.0,0.0,0.0,0.0,0.0,0.0,0.0,0.0,0.0,0.0,0.0,0.0,0.0,0.0,0.0,-0.012931999999999999,0.0060999999999999995,0.9928359999999999,-0.6300000000000001,0.35000000000000003,0.0,25.0,3.32,3.33,3.33,3.31,3.31,3.31,3.3,3.32,3.32,3.33,3.33,3.32,3.3,3.32,3.3,3.31,3.32,3.32,3.32,3.32,3.33,3.33,3.33,3.33,3.33,3.3,46.0,1.0,0.0,1.0,1.0,3199877,0.0,79.65999999999998,654.9981841289438
1765221704919,0.0,0.0,2.0,25.0,0.0,0.0,0.0,0.0,0.0,0.0,0.0,0.0,0.0,0.0,0.0,0.0,0.0,0.0,-0.012931999999999999,0.0060999999999999995,0.9928359999999999,-0.6300000000000001,0.35000000000000003,0.0,25.0,3.32,3.33,3.33,3.31,3.31,3.31,3.3,3.32,3.32,3.33,3.33,3.32,3.3,3.32,3.3,3.31,3.32,3.32,3.32,3.32,3.33,3.33,3.33,3.33,3.33,3.3,46.0,1.0,0.0,1.0,1.0,3199893,0.0,79.65999999999998,654.9981841289438
1765221704936,0.0,0.0,2.0,25.0,0.0,0.0,0.0,0.0,0.0,0.0,0.0,0.0,0.0,0.0,0.0,0.0,0.0,0.0,-0.012931999999999999,0.0060999999999999995,0.9928359999999999,-0.6300000000000001,0.35000000000000003,0.0,25.0,3.32,3.33,3.33,3.31,3.31,3.31,3.3,3.32,3.32,3.33,3.33,3.32,3.3,3.32,3.3,3.31,3.32,3.32,3.32,3.32,3.33,3.33,3.33,3.33,3.33,3.3,46.0,1.0,0.0,1.0,1.0,3199910,0.0,79.65999999999998,654.9981841289438
1765221705002,0.0,0.0,2.0,25.0,0.0,0.0,0.0,0.0,0.0,0.0,0.0,0.0,0.0,0.0,0.0,0.0,0.0,0.0,-0.012931999999999999,0.0060999999999999995,0.9928359999999999,-0.6300000000000001,0.35000000000000003,0.0,25.0,3.32,3.33,3.33,3.31,3.31,3.31,3.3,3.32,3.32,3.33,3.33,3.32,3.3,3.32,3.3,3.31,3.32,3.32,3.32,3.32,3.33,3.33,3.33,3.33,3.33,3.3,46.0,1.0,0.0,1.0,1.0,3199976,0.0,79.65999999999998,654.9981841289438
