timestamp,THROTTLE,BRAKE,ECU_MODE_ID,TORQUE_GAIN,TORQUE_REF_LEFT_MOTOR,TORQUE_REF_RIGHT_MOTOR,LEFT_MOTOR_RPM,LEFT_MOTOR_TORQUE,LEFT_MOTOR_CURRENT,RIGHT_MOTOR_RPM,RIGHT_MOTOR_TORQUE,RIGHT_MOTOR_CURRENT,REAR_LEFT_WHEEL_SPEED,REAR_RIGHT_WHEEL_SPEED,FRONT_LEFT_WHEEL_SPEED,FRONT_RIGHT_WHEEL_SPEED,ACCEL_LONGITUDINAL,ACCEL_LATERAL,ACCEL_NORMAL,VEL_ANGULAR_YAW,VEL_ANGULAR_PITCH,VEL_ANGULAR_ROLL,ELETROBUILD_TEMPERATURE,STACK_1_CELL_1,STACK_1_CELL_2,STACK_1_CELL_3,STACK_1_CELL_4,STACK_2_CELL_1,STACK_2_CELL_2,STACK_2_CELL_3,STACK_2_CELL_4,STACK_3_CELL_1,STACK_3_CELL_2,STACK_3_CELL_3,STACK_3_CELL_4,STACK_4_CELL_1,STACK_4_CELL_2,STACK_4_CELL_3,STACK_4_CELL_4,STACK_5_CELL_1,STACK_5_CELL_2,STACK_5_CELL_3,STACK_5_CELL_4,STACK_6_CELL_1,STACK_6_CELL_2,STACK_6_CELL_3,STACK_6_CELL_4,MAX_VOLTAGE,MIN_VOLTAGE,SHUNT_CURRENT,BMS_MODE_ID,BMS_ERROR_ID,AIR_P,AIR_N,t,VEHICLE_SPEED,TOTAL_VOLTAGE,HODOMETRO
1765219160002,1000.0,0.0,2.0,25.0,2500.0,2500.0,0.0,0.0,0.0,0.0,0.0,0.0,0.0,0.0,0.0,0.0,-0.023302,0.0057339999999999995,0.991982,-0.7000000000000001,0.49000000000000005,0.0,28.81640625,3.32,3.33,3.32,3.32,3.32,3.32,3.32,3.32,3.34,3.34,3.34,3.34,3.32,3.32,3.32,3.32,3.32,3.33,3.32,3.32,3.33,3.34,3.33,3.33,3.34,3.32,45.0,1.0,0.0,0.0,1.0,654976,0.0,79.83,23.815086079708315
1765219160054,1000.0,0.0,2.0,25.0,2500.0,2500.0,0.0,0.0,0.0,0.0,0.0,0.0,0.0,0.0,0.0,0.0,-0.023302,0.0057339999999999995,0.991982,-0.7000000000000001,0.49000000000000005,0.0,28.81640625,3.32,3.33,3.32,3.32,3.32,3.32,3.32,3.32,3.34,3.34,3.34,3.34,3.32,3.32,3.32,3.32,3.32,3.33,3.32,3.32,3.33,3.34,3.33,3.33,3.34,3.32,45.0,1.0,0.0,0.0,1.0,655028,0.0,79.83,23.815086079708315
1765219160071,1000.0,0.0,2.0,25.0,2500.0,2500.0,0.0,0.0,0.0,0.0,0.0,0.0,0.0,0.0,0.0,0.0,-0.023302,0.0057339999999999995,0.991982,-0.7000000000000001,0.7000000000000001,-0.07,28.81640625,3.32,3.33,3.32,3.32,3.32,3.32,3.32,3.32,3.34,3.34,3.34,3.34,3.32,3.32,3.32,3.32,3.32,3.33,3.32,3.32,3.33,3.34,3.33,3.33,3.34,3.32,45.0,1.0,0.0,0.0,1.0,655045,0.0,79.83,23.815086079708315
1765219160137,1000.0,0.0,2.0,25.0,2500.0,2500.0,0.0,0.0,0.0,0.0,0.0,0.0,0.0,0.0,0.0,0.0,-0.023302,0.0057339999999999995,0.991982,-0.7000000000000001,0.7000000000000001,-0.07,29.00390625,3.33,3.33,3.33,3.32,3.32,3.32,3.32,3.32,3.34,3.34,3.34,3.34,3.32,3.32,3.32,3.32,3.32,3.33,3.32,3.32,3.33,3.34,3.33,3.33,3.34,3.32,45.0,1.0,0.0,0.0,1.0,655111,0.0,79.85,23.815086079708315
1765219160154,1000.0,0.0,2.0,25.0,2500.0,2500.0,0.0,0.0,0.0,0.0,0.0,0.0,0.0,0.0,0.0,0.0,-0.023302,0.0057339999999999995,0.991982,-0.7000000000000001,0.7000000000000001,-0.07,29.00390625,3.33,3.33,3.33,3.32,3.32,3.33,3.33,3.32,3.34,3.34,3.34,3.34,3.32,3.32,3.32,3.32,3.32,3.33,3.32,3.32,3.33,3.34,3.33,3.33,3.34,3.32,45.0,1.0,0.0,0.0,1.0,655128,0.0,79.86999999999999,23.815086079708315
1765219160171,1000.0,0.0,2.0,25.0,2500.0,2500.0,0.0,0.0,0.0,0.0,0.0,0.0,0.0,0.0,0.0,0.0,-0.023302,0.0057339999999999995,0.991982,-0.7000000000000001,0.7000000000000001,-0.07,29.00390625,3.33,3.33,3.33,3.32,3.32,3.33,3.33,3.32,3.34,3.34,3.34,3.34,3.32,3.32,3.32,3.32,3.32,3.33,3.32,3.32,3.33,3.34,3.33,3.33,3.34,3.32,45.0,1.0,0.0,0.0,1.0,655145,0.0,79.86999999999999,23.815086079708315
1765219160188,1000.0,0.0,2.0,25.0,2500.0,2500.0,0.0,0.0,0.0,0.0,0.0,0.0,0.0,0.0,0.0,0.0,-0.023302,0.0057339999999999995,0.991982,-0.7000000000000001,0.7000000000000001,-0.07,29.00390625,3.33,3.33,3.33,3.32,3.32,3.33,3.33,3.32,3.34,3.34,3.34,3.34,3.32,3.33,3.33,3.32,3.32,3.33,3.32,3.32,3.33,3.34,3.33,3.33,3.34,3.32,45.0,1.0,0.0,0.0,1.0,655162,0.0,79.88999999999999,23.815086079708315
1765219160204,1000.0,0.0,2.0,25.0,2500.0,2500.0,0.0,0.0,0.0,0.0,0.0,0.0,0.0,0.0,0.0,0.0,-0.023302,0.0057339999999999995,0.991982,-0.7000000000000001,0.7000000000000001,-0.07,29.00390625,3.33,3.33,3.33,3.32,3.32,3.33,3.33,3.32,3.34,3.34,3.34,3.34,3.32,3.33,3.33,3.32,3.33,3.33,3.33,3.32,3.34,3.34,3.34,3.34,3.34,3.32,45.0,1.0,0.0,0.0,1.0,655178,0.0,79.94,23.815086079708315
1765219160237,1000.0,0.0,2.0,25.0,2500.0,2500.0,0.0,0.0,0.0,0.0,0.0,0.0,0.0,0.0,0.0,0.0,-0.023424,0.0037819999999999998,0.99369,-0.7000000000000001,0.7000000000000001,-0.07,29.00390625,3.33,3.33,3.33,3.32,3.32,3.33,3.33,3.32,3.34,3.34,3.34,3.34,3.32,3.33,3.33,3.32,3.33,3.33,3.33,3.32,3.34,3.34,3.34,3.34,3.34,3.32,45.0,1.0,0.0,0.0,1.0,655211,0.0,79.94,23.815086079708315
1765219160254,0.0,0.0,2.0,25.0,2500.0,2500.0,0.0,0.0,0.0,0.0,0.0,0.0,0.0,0.0,0.0,0.0,-0.023424,0.0037819999999999998,0.99369,-0.7000000000000001,0.7000000000000001,-0.07,29.00390625,3.33,3.33,3.33,3.32,3.32,3.33,3.33,3.32,3.34,3.34,3.34,3.34,3.32,3.33,3.33,3.32,3.33,3.33,3.33,3.32,3.34,3.34,3.34,3.34,3.34,3.32,45.0,1.0,0.0,0.0,1.0,655228,0.0,79.94,23.815086079708315
1765219160270,0.0,0.0,2.0,25.0,2500.0,2500.0,0.0,0.0,0.0,0.0,0.0,0.0,0.0,0.0,0.0,0.0,-0.023424,0.0037819999999999998,0.99369,-0.7000000000000001,0.42000000000000004,0.0,28.98828125,3.33,3.33,3.33,3.32,3.32,3.33,3.33,3.32,3.34,3.34,3.34,3.34,3.32,3.33,3.33,3.32,3.33,3.33,3.33,3.32,3.34,3.34,3.34,3.34,3.34,3.32,45.0,1.0,0.0,0.0,1.0,655244,0.0,79.94,23.815086079708315
1765219160304,0.0,0.0,2.0,25.0,2500.0,2500.0,0.0,0.0,0.0,0.0,0.0,0.0,0.0,0.0,0.0,0.0,-0.023424,0.0037819999999999998,0.99369,-0.7000000000000001,0.42000000000000004,0.0,28.98828125,3.33,3.33,3.33,3.32,3.32,3.33,3.33,3.32,3.34,3.34,3.34,3.34,3.32,3.33,3.33,3.32,3.33,3.33,3.33,3.32,3.34,3.34,3.34,3.34,3.34,3.32,45.0,1.0,0.0,0.0,1.0,655278,0.0,79.94,23.815086079708315
1765219160320,0.0,0.0,2.0,25.0,2500.0,2500.0,0.0,0.0,0.0,0.0,0.0,0.0,0.0,0.0,0.0,0.0,-0.023424,0.0037819999999999998,0.99369,-0.7000000000000001,0.42000000000000004,0.0,28.98828125,3.33,3.33,3.33,3.32,3.32,3.33,3.33,3.32,3.34,3.34,3.34,3.34,3.32,3.33,3.33,3.32,3.33,3.33,3.33,3.32,3.34,3.34,3.34,3.34,3.34,3.32,45.0,1.0,0.0,0.0,1.0,655294,0.0,79.94,23.815086079708315
1765219160336,0.0,0.0,2.0,25.0,2500.0,2500.0,0.0,0.0,0.0,0.0,0.0,0.0,0.0,0.0,0.0,0.0,-0.023424,0.0037819999999999998,0.99369,-0.7000000000000001,0.42000000000000004,0.0,28.98828125,3.33,3.33,3.33,3.32,3.32,3.33,3.33,3.32,3.34,3.34,3.34,3.34,3.32,3.33,3.33,3.32,3.33,3.33,3.33,3.32,3.34,3.34,3.34,3.34,3.34,3.32,45.0,1.0,0.0,0.0,1.0,655310,0.0,79.94,23.815086079708315
1765219160353,0.0,0.0,2.0,25.0,2500.0,2500.0,0.0,0.0,0.0,0.0,0.0,0.0,0.0,0.0,0.0,0.0,-0.023424,0.0037819999999999998,0.99369,-0.7000000000000001,0.42000000000000004,0.0,28.98828125,3.33,3.33,3.33,3.32,3.32,3.33,3.33,3.32,3.34,3.34,3.34,3.34,3.32,3.33,3.33,3.32,3.33,3.33,3.33,3.32,3.34,3.34,3.34,3.34,3.34,3.32,45.0,1.0,0.0,0.0,1.0,655327,0.0,79.94,23.815086079708315
1765219160369,0.0,0.0,2.0,25.0,2500.0,2500.0,0.0,0.0,0.0,0.0,0.0,0.0,0.0,0.0,0.0,0.0,-0.023424,0.0037819999999999998,0.99369,-0.7000000000000001,0.42000000000000004,0.0,28.98828125,3.33,3.33,3.33,3.32,3.32,3.33,3.33,3.32,3.34,3.34,3.34,3.34,3.32,3.33,3.33,3.32,3.33,3.33,3.33,3.32,3.34,3.34,3.34,3.34,3.34,3.32,45.0,1.0,0.0,0.0,1.0,655343,0.0,79.94,23.815086079708315
1765219160387,0.0,0.0,1.0,10.0,2500.0,2500.0,0.0,0.0,0.0,0.0,0.0,0.0,0.0,0.0,0.0,0.0,-0.023424,0.0037819999999999998,0.99369,-0.7000000000000001,0.42000000000000004,0.0,28.98828125,3.33,3.33,3.33,3.32,3.32,3.33,3.33,3.32,3.34,3.34,3.34,3.34,3.32,3.33,3.33,3.32,3.33,3.33,3.33,3.32,3.34,3.34,3.34,3.34,3.34,3.32,45.0,1.0,0.0,0.0,1.0,655361,0.0,79.94,23.815086079708315
1765219160420,0.0,0.0,1.0,10.0,0.0,0.0,0.0,0.0,0.0,0.0,0.0,0.0,0.0,0.0,0.0,0.0,-0.023424,0.0037819999999999998,0.99369,-0.7000000000000001,0.42000000000000004,0.0,28.98828125,3.33,3.33,3.33,3.32,3.32,3.33,3.33,3.32,3.34,3.34,3.34,3.34,3.32,3.33,3.33,3.32,3.33,3.33,3.33,3.32,3.34,3.34,3.34,3.34,3.34,3.32,45.0,1.0,0.0,0.0,1.0,655394,0.0,79.94,23.815086079708315
1765219160436,0.0,0.0,1.0,10.0,0.0,0.0,0.0,0.0,0.0,0.0,0.0,0.0,0.0,0.0,0.0,0.0,-0.023424,0.0037819999999999998,0.99369,-0.7000000000000001,0.42000000000000004,0.0,28.98828125,3.33,3.33,3.33,3.32,3.32,3.33,3.33,3.32,3.34,3.34,3.34,3.34,3.32,3.33,3.33,3.32,3.33,3.33,3.33,3.32,3.34,3.34,3.34,3.34,3.34,3.32,45.0,1.0,0.0,0.0,1.0,655410,0.0,79.94,23.815086079708315
1765219160453,0.0,0.0,1.0,10.0,0.0,0.0,0.0,0.0,0.0,0.0,0.0,0.0,0.0,0.0,0.0,0.0,-0.02318,0.005856,0.9916159999999999,-0.7000000000000001,0.42000000000000004,0.0,28.98828125,3.33,3.33,3.33,3.32,3.32,3.33,3.33,3.32,3.34,3.34,3.34,3.34,3.32,3.33,3.33,3.32,3.33,3.33,3.33,3.32,3.34,3.34,3.34,3.34,3.34,3.32,45.0,1.0,0.0,0.0,1.0,655427,0.0,79.94,23.815086079708315
1765219160520,0.0,0.0,1.0,10.0,0.0,0.0,0.0,0.0,0.0,0.0,0.0,0.0,0.0,0.0,0.0,0.0,-0.02318,0.005856,0.9916159999999999,-0.6300000000000001,0.49000000000000005,-0.07,28.98828125,3.33,3.33,3.33,3.32,3.32,3.33,3.33,3.32,3.34,3.34,3.34,3.34,3.32,3.33,3.33,3.32,3.33,3.33,3.33,3.32,3.34,3.34,3.34,3.34,3.34,3.32,45.0,1.0,0.0,0.0,1.0,655494,0.0,79.94,23.815086079708315
1765219160587,0.0,0.0,1.0,10.0,0.0,0.0,0.0,0.0,0.0,0.0,0.0,0.0,0.0,0.0,0.0,0.0,-0.02318,0.005856,0.9916159999999999,-0.6300000000000001,0.49000000000000005,-0.07,28.97265625,3.33,3.33,3.33,3.32,3.32,3.33,3.33,3.32,3.34,3.34,3.34,3.34,3.32,3.33,3.33,3.32,3.33,3.33,3.33,3.32,3.34,3.34,3.34,3.34,3.34,3.32,45.0,1.0,0.0,0.0,1.0,655561,0.0,79.94,23.815086079708315
1765219160620,0.0,0.0,1.0,10.0,0.0,0.0,0.0,0.0,0.0,0.0,0.0,0.0,0.0,0.0,0.0,0.0,-0.023424,0.005978,0.99552,-0.6300000000000001,0.49000000000000005,-0.07,28.97265625,3.33,3.33,3.33,3.32,3.32,3.33,3.33,3.32,3.34,3.34,3.34,3.34,3.32,3.33,3.33,3.32,3.33,3.33,3.33,3.32,3.34,3.34,3.34,3.34,3.34,3.32,45.0,1.0,0.0,0.0,1.0,655594,0.0,79.94,23.815086079708315
1765219160637,0.0,0.0,1.0,10.0,0.0,0.0,0.0,0.0,0.0,0.0,0.0,0.0,0.0,0.0,0.0,0.0,-0.023424,0.005978,0.99552,-0.7000000000000001,0.49000000000000005,-0.07,28.98828125,3.33,3.33,3.33,3.32,3.32,3.33,3.33,3.32,3.34,3.34,3.34,3.34,3.32,3.33,3.33,3.32,3.33,3.33,3.33,3.32,3.34,3.34,3.34,3.34,3.34,3.32,45.0,1.0,0.0,0.0,1.0,655611,0.0,79.94,23.815086079708315
1765219160671,0.0,0.0,1.0,10.0,0.0,0.0,0.0,0.0,0.0,0.0,0.0,0.0,0.0,0.0,0.0,0.0,-0.023424,0.005978,0.99552,-0.7000000000000001,0.49000000000000005,-0.07,28.98828125,3.33,3.33,3.33,3.32,3.32,3.33,3.33,3.32,3.34,3.34,3.34,3.34,3.32,3.33,3.33,3.32,3.33,3.33,3.33,3.32,3.34,3.34,3.34,3.34,3.34,3.32,45.0,1.0,0.0,0.0,1.0,655645,0.0,79.94,23.815086079708315
1765219160686,0.0,0.0,1.0,10.0,0.0,0.0,0.0,0.0,0.0,0.0,0.0,0.0,0.0,0.0,0.0,0.0,-0.023424,0.005978,0.99552,-0.7000000000000001,0.49000000000000005,-0.07,28.98828125,3.33,3.33,3.33,3.32,3.32,3.33,3.33,3.32,3.34,3.34,3.34,3.34,3.32,3.33,3.33,3.32,3.33,3.33,3.33,3.32,3.34,3.34,3.34,3.34,3.34,3.32,45.0,1.0,0.0,0.0,1.0,655660,0.0,79.94,23.815086079708315
1765219160703,0.0,0.0,1.0,10.0,0.0,0.0,0.0,0.0,0.0,0.0,0.0,0.0,0.0,0.0,0.0,0.0,-0.023424,0.005978,0.99552,-0.7000000000000001,0.49000000000000005,-0.07,28.98828125,3.33,3.33,3.33,3.32,3.32,3.33,3.33,3.32,3.34,3.34,3.34,3.34,3.32,3.33,3.33,3.32,3.33,3.33,3.33,3.32,3.34,3.34,3.34,3.34,3.34,3.32,45.0,1.0,0.0,0.0,1.0,655677,0.0,79.94,23.815086079708315
1765219160719,0.0,0.0,1.0,10.0,0.0,0.0,0.0,0.0,0.0,0.0,0.0,0.0,0.0,0.0,0.0,0.0,-0.023424,0.005978,0.99552,-0.7000000000000001,0.49000000000000005,-0.07,28.98828125,3.33,3.33,3.33,3.32,3.32,3.33,3.33,3.32,3.34,3.34,3.34,3.34,3.32,3.33,3.33,3.32,3.33,3.33,3.33,3.32,3.34,3.34,3.34,3.34,3.34,3.32,45.0,1.0,0.0,0.0,1.0,655693,0.0,79.94,23.815086079708315
1765219160739,0.0,0.0,1.0,10.0,0.0,0.0,0.0,0.0,0.0,0.0,0.0,0.0,0.0,0.0,0.0,0.0,-0.023424,0.005978,0.99552,-0.7000000000000001,0.49000000000000005,-0.07,28.98828125,3.33,3.33,3.33,3.32,3.32,3.33,3.33,3.32,3.34,3.34,3.34,3.34,3.32,3.33,3.33,3.32,3.33,3.33,3.33,3.32,3.34,3.34,3.34,3.34,3.34,3.32,45.0,1.0,0.0,0.0,1.0,655713,0.0,79.94,23.815086079708315
1765219160788,0.0,0.0,1.0,10.0,0.0,0.0,0.0,0.0,0.0,0.0,0.0,0.0,0.0,0.0,0.0,0.0,-0.023424,0.005978,0.99552,-0.7000000000000001,0.49000000000000005,-0.07,28.98828125,3.33,3.33,3.33,3.32,3.32,3.33,3.33,3.32,3.34,3.34,3.34,3.34,3.32,3.33,3.33,3.32,3.33,3.33,3.33,3.32,3.34,3.34,3.34,3.34,3.34,3.32,45.0,1.0,0.0,0.0,1.0,655762,0.0,79.94,23.815086079708315
1765219160821,0.0,0.0,1.0,10.0,0.0,0.0,0.0,0.0,0.0,0.0,0.0,0.0,0.0,0.0,0.0,0.0,-0.026595999999999998,0.005246,0.993324,-0.7000000000000001,0.49000000000000005,-0.07,28.98828125,3.33,3.33,3.33,3.32,3.32,3.33,3.33,3.32,3.34,3.34,3.34,3.34,3.32,3.33,3.33,3.32,3.33,3.33,3.33,3.32,3.34,3.34,3.34,3.34,3.34,3.32,45.0,1.0,0.0,0.0,1.0,655795,0.0,79.94,23.815086079708315
1765219160870,0.0,0.0,1.0,10.0,0.0,0.0,0.0,0.0,0.0,0.0,0.0,0.0,0.0,0.0,0.0,0.0,-0.026595999999999998,0.005246,0.993324,-0.7000000000000001,0.42000000000000004,-0.07,28.98828125,3.33,3.33,3.33,3.32,3.32,3.33,3.33,3.32,3.34,3.34,3.34,3.34,3.32,3.33,3.33,3.32,3.33,3.33,3.33,3.32,3.34,3.34,3.34,3.34,3.34,3.32,45.0,1.0,0.0,0.0,1.0,655844,0.0,79.94,23.815086079708315
1765219160936,0.0,0.0,1.0,10.0,0.0,0.0,0.0,0.0,0.0,0.0,0.0,0.0,0.0,0.0,0.0,0.0,-0.026595999999999998,0.005246,0.993324,-0.7000000000000001,0.42000000000000004,-0.07,28.98828125,3.33,3.33,3.33,3.32,3.32,3.33,3.33,3.32,3.34,3.34,3.34,3.34,3.32,3.33,3.33,3.32,3.33,3.33,3.33,3.32,3.34,3.34,3.34,3.34,3.34,3.32,45.0,1.0,0.0,0.0,1.0,655910,0.0,79.94,23.815086079708315
1765219161003,0.0,0.0,1.0,10.0,0.0,0.0,0.0,0.0,0.0,0.0,0.0,0.0,0.0,0.0,0.0,0.0,-0.02562,0.0026839999999999998,0.99308,-0.7000000000000001,0.42000000000000004,-0.07,28.98828125,3.33,3.33,3.33,3.32,3.32,3.33,3.33,3.32,3.34,3.34,3.34,3.34,3.32,3.33,3.33,3.32,3.33,3.33,3.33,3.32,3.34,3.34,3.34,3.34,3.34,3.32,45.0,1.0,0.0,0.0,1.0,655977,0.0,79.94,23.815086079708315
1765219161019,0.0,0.0,1.0,10.0,0.0,0.0,0.0,0.0,0.0,0.0,0.0,0.0,0.0,0.0,0.0,0.0,-0.02562,0.0026839999999999998,0.99308,-0.6300000000000001,0.42000000000000004,-0.14,28.98828125,3.33,3.33,3.33,3.32,3.32,3.33,3.33,3.32,3.34,3.34,3.34,3.34,3.32,3.33,3.33,3.32,3.33,3.33,3.33,3.32,3.34,3.34,3.34,3.34,3.34,3.32,45.0,1.0,0.0,0.0,1.0,655993,0.0,79.94,23.815086079708315
1765219161037,0.0,0.0,1.0,10.0,0.0,0.0,0.0,0.0,0.0,0.0,0.0,0.0,0.0,0.0,0.0,0.0,-0.02562,0.0026839999999999998,0.99308,-0.6300000000000001,0.42000000000000004,-0.14,29.02734375,3.33,3.33,3.33,3.32,3.32,3.33,3.33,3.32,3.34,3.34,3.34,3.34,3.32,3.33,3.33,3.32,3.33,3.33,3.33,3.32,3.34,3.34,3.34,3.34,3.34,3.32,45.0,1.0,0.0,0.0,1.0,656011,0.0,79.94,23.815086079708315
1765219161070,0.0,0.0,1.0,10.0,0.0,0.0,0.0,0.0,0.0,0.0,0.0,0.0,0.0,0.0,0.0,0.0,-0.02562,0.0026839999999999998,0.99308,-0.6300000000000001,0.42000000000000004,-0.14,29.02734375,3.33,3.33,3.33,3.32,3.32,3.33,3.33,3.32,3.34,3.34,3.34,3.34,3.32,3.33,3.33,3.32,3.33,3.33,3.33,3.32,3.34,3.34,3.34,3.34,3.34,3.32,45.0,1.0,0.0,0.0,1.0,656044,0.0,79.94,23.815086079708315
1765219161086,0.0,0.0,1.0,10.0,0.0,0.0,0.0,0.0,0.0,0.0,0.0,0.0,0.0,0.0,0.0,0.0,-0.02562,0.0026839999999999998,0.99308,-0.6300000000000001,0.42000000000000004,-0.14,29.02734375,3.33,3.33,3.33,3.32,3.32,3.33,3.33,3.32,3.34,3.34,3.34,3.34,3.32,3.33,3.33,3.32,3.33,3.33,3.33,3.32,3.34,3.34,3.34,3.34,3.34,3.32,45.0,1.0,0.0,0.0,1.0,656060,0.0,79.94,23.815086079708315
1765219161104,0.0,0.0,1.0,10.0,0.0,0.0,0.0,0.0,0.0,0.0,0.0,0.0,0.0,0.0,0.0,0.0,-0.024766,0.003904,0.994422,-0.6300000000000001,0.42000000000000004,-0.14,29.02734375,3.33,3.33,3.33,3.32,3.32,3.33,3.33,3.32,3.34,3.34,3.34,3.34,3.32,3.33,3.33,3.32,3.33,3.33,3.33,3.32,3.34,3.34,3.34,3.34,3.34,3.32,45.0,1.0,0.0,0.0,1.0,656078,0.0,79.94,23.815086079708315
1765219161136,0.0,0.0,1.0,10.0,0.0,0.0,0.0,0.0,0.0,0.0,0.0,0.0,0.0,0.0,0.0,0.0,-0.024766,0.003904,0.994422,-0.6300000000000001,0.42000000000000004,-0.14,29.02734375,3.33,3.33,3.33,3.32,3.32,3.33,3.33,3.32,3.34,3.34,3.34,3.34,3.32,3.33,3.33,3.32,3.33,3.33,3.33,3.32,3.34,3.34,3.34,3.34,3.34,3.32,45.0,1.0,0.0,0.0,1.0,656110,0.0,79.94,23.815086079708315
1765219161185,0.0,0.0,1.0,10.0,0.0,0.0,0.0,0.0,0.0,0.0,0.0,0.0,0.0,0.0,0.0,0.0,-0.024766,0.003904,0.994422,-0.6300000000000001,0.42000000000000004,-0.14,29.02734375,3.33,3.33,3.33,3.32,3.32,3.33,3.33,3.32,3.34,3.34,3.34,3.34,3.32,3.33,3.33,3.32,3.33,3.33,3.33,3.32,3.34,3.34,3.34,3.34,3.34,3.32,45.0,1.0,0.0,1.0,1.0,656159,0.0,79.94,23.815086079708315
1765219161218,0.0,0.0,1.0,10.0,0.0,0.0,0.0,0.0,0.0,0.0,0.0,0.0,0.0,0.0,0.0,0.0,-0.024766,0.003904,0.994422,-0.7000000000000001,0.56,-0.07,29.02734375,3.33,3.33,3.33,3.32,3.32,3.33,3.33,3.32,3.34,3.34,3.34,3.34,3.32,3.33,3.33,3.32,3.33,3.33,3.33,3.32,3.34,3.34,3.34,3.34,3.34,3.32,45.0,1.0,0.0,1.0,1.0,656192,0.0,79.94,23.815086079708315
1765219161252,0.0,0.0,1.0,10.0,0.0,0.0,0.0,0.0,0.0,0.0,0.0,0.0,0.0,0.0,0.0,0.0,-0.024766,0.003904,0.994422,-0.7000000000000001,0.56,-0.07,29.02734375,3.33,3.33,3.33,3.32,3.32,3.33,3.33,3.32,3.34,3.34,3.34,3.34,3.32,3.33,3.33,3.32,3.33,3.33,3.33,3.32,3.34,3.34,3.34,3.34,3.34,3.32,45.0,1.0,0.0,1.0,1.0,656226,0.0,79.94,23.815086079708315
1765219161285,0.0,0.0,1.0,10.0,0.0,0.0,0.0,0.0,0.0,0.0,0.0,0.0,0.0,0.0,0.0,0.0,-0.024766,0.003904,0.994422,-0.7000000000000001,0.56,-0.07,29.01953125,3.33,3.33,3.33,3.32,3.32,3.33,3.33,3.32,3.34,3.34,3.34,3.34,3.32,3.33,3.33,3.32,3.33,3.33,3.33,3.32,3.34,3.34,3.34,3.34,3.34,3.32,45.0,1.0,0.0,1.0,1.0,656259,0.0,79.94,23.815086079708315
1765219161354,0.0,0.0,1.0,10.0,0.0,0.0,0.0,0.0,0.0,0.0,0.0,0.0,0.0,0.0,0.0,0.0,-0.025131999999999998,0.0075639999999999995,0.99308,-0.6300000000000001,0.28,-0.07,29.01953125,3.33,3.33,3.33,3.32,3.32,3.33,3.33,3.32,3.34,3.34,3.34,3.34,3.32,3.33,3.33,3.32,3.33,3.33,3.33,3.32,3.34,3.34,3.34,3.34,3.34,3.32,45.0,1.0,0.0,1.0,1.0,656328,0.0,79.94,23.815086079708315
1765219161372,0.0,0.0,1.0,10.0,0.0,0.0,0.0,0.0,0.0,0.0,0.0,0.0,0.0,0.0,0.0,0.0,-0.025131999999999998,0.0075639999999999995,0.99308,-0.6300000000000001,0.28,-0.07,29.01171875,3.33,3.33,3.33,3.32,3.32,3.33,3.33,3.32,3.34,3.34,3.34,3.34,3.32,3.33,3.33,3.32,3.33,3.33,3.33,3.32,3.34,3.34,3.34,3.34,3.34,3.32,45.0,1.0,0.0,1.0,1.0,656346,0.0,79.94,23.815086079708315
1765219161404,0.0,0.0,1.0,10.0,0.0,0.0,0.0,0.0,0.0,0.0,0.0,0.0,0.0,0.0,0.0,0.0,-0.025131999999999998,0.0075639999999999995,0.99308,-0.6300000000000001,0.28,-0.07,29.01171875,3.33,3.33,3.33,3.32,3.32,3.33,3.33,3.32,3.34,3.34,3.34,3.34,3.32,3.33,3.33,3.32,3.33,3.33,3.33,3.32,3.34,3.34,3.34,3.34,3.34,3.32,45.0,1.0,0.0,1.0,1.0,656378,0.0,79.94,23.815086079708315
1765219161420,0.0,0.0,1.0,10.0,0.0,0.0,0.0,0.0,0.0,0.0,0.0,0.0,0.0,0.0,0.0,0.0,-0.025131999999999998,0.0075639999999999995,0.99308,-0.6300000000000001,0.28,-0.07,29.01171875,3.33,3.33,3.33,3.32,3.32,3.33,3.33,3.32,3.34,3.34,3.34,3.34,3.32,3.33,3.33,3.32,3.33,3.33,3.33,3.32,3.34,3.34,3.34,3.34,3.34,3.32,45.0,1.0,0.0,1.0,1.0,656394,0.0,79.94,23.815086079708315
1765219161436,0.0,0.0,1.0,10.0,0.0,0.0,0.0,0.0,0.0,0.0,0.0,0.0,0.0,0.0,0.0,0.0,-0.025131999999999998,0.0075639999999999995,0.99308,-0.6300000000000001,0.28,-0.07,29.01171875,3.33,3.33,3.33,3.32,3.32,3.33,3.33,3.32,3.34,3.34,3.34,3.34,3.32,3.33,3.33,3.32,3.33,3.33,3.33,3.32,3.34,3.34,3.34,3.34,3.34,3.32,45.0,1.0,0.0,1.0,1.0,656410,0.0,79.94,23.815086079708315
1765219161471,0.0,0.0,1.0,10.0,0.0,0.0,0.0,0.0,0.0,0.0,0.0,0.0,0.0,0.0,0.0,0.0,-0.025131999999999998,0.0075639999999999995,0.99308,-0.6300000000000001,0.28,-0.07,29.01171875,3.33,3.33,3.33,3.32,3.32,3.33,3.33,3.32,3.34,3.34,3.34,3.34,3.32,3.33,3.33,3.32,3.33,3.33,3.33,3.32,3.34,3.34,3.34,3.34,3.34,3.32,45.0,1.0,0.0,1.0,1.0,656445,0.0,79.94,23.815086079708315
1765219161504,0.0,0.0,1.0,10.0,0.0,0.0,0.0,0.0,0.0,0.0,0.0,0.0,0.0,0.0,0.0,0.0,-0.023912,0.0053679999999999995,0.99308,-0.6300000000000001,0.28,-0.07,29.01171875,3.33,3.33,3.33,3.32,3.32,3.33,3.33,3.32,3.34,3.34,3.34,3.34,3.32,3.33,3.33,3.32,3.33,3.33,3.33,3.32,3.34,3.34,3.34,3.34,3.34,3.32,45.0,1.0,0.0,1.0,1.0,656478,0.0,79.94,23.815086079708315
1765219161522,0.0,0.0,1.0,10.0,0.0,0.0,0.0,0.0,0.0,0.0,0.0,0.0,0.0,0.0,0.0,0.0,-0.023912,0.0053679999999999995,0.99308,-0.6300000000000001,0.28,-0.07,29.01171875,3.33,3.33,3.33,3.32,3.32,3.33,3.33,3.32,3.34,3.34,3.34,3.34,3.32,3.33,3.33,3.32,3.33,3.33,3.33,3.32,3.34,3.34,3.34,3.34,3.34,3.32,45.0,1.0,0.0,1.0,1.0,656496,0.0,79.94,23.815086079708315
1765219161555,0.0,0.0,1.0,10.0,0.0,0.0,0.0,0.0,0.0,0.0,0.0,0.0,0.0,0.0,0.0,0.0,-0.023912,0.0053679999999999995,0.99308,-0.6300000000000001,0.28,-0.07,29.0234375,3.33,3.33,3.33,3.32,3.32,3.33,3.33,3.32,3.34,3.34,3.34,3.34,3.32,3.33,3.33,3.32,3.33,3.33,3.33,3.32,3.34,3.34,3.34,3.34,3.34,3.32,45.0,1.0,0.0,1.0,1.0,656529,0.0,79.94,23.815086079708315
1765219161572,0.0,0.0,1.0,10.0,0.0,0.0,0.0,0.0,0.0,0.0,0.0,0.0,0.0,0.0,0.0,0.0,-0.023912,0.0053679999999999995,0.99308,-0.6300000000000001,0.28,-0.07,29.0234375,3.33,3.33,3.33,3.32,3.32,3.33,3.33,3.32,3.34,3.34,3.34,3.34,3.32,3.33,3.33,3.32,3.33,3.33,3.33,3.32,3.34,3.34,3.34,3.34,3.34,3.32,45.0,1.0,0.0,1.0,1.0,656546,0.0,79.94,23.815086079708315
1765219161605,0.0,0.0,1.0,10.0,0.0,0.0,0.0,0.0,0.0,0.0,0.0,0.0,0.0,0.0,0.0,0.0,-0.023912,0.0053679999999999995,0.99308,-0.6300000000000001,0.28,-0.07,29.0234375,3.33,3.33,3.33,3.32,3.32,3.33,3.33,3.32,3.34,3.34,3.34,3.34,3.32,3.33,3.33,3.32,3.33,3.33,3.33,3.32,3.34,3.34,3.34,3.34,3.34,3.32,45.0,1.0,0.0,1.0,1.0,656579,0.0,79.94,23.815086079708315
1765219161655,0.0,0.0,1.0,10.0,0.0,0.0,0.0,0.0,0.0,0.0,0.0,0.0,0.0,0.0,0.0,0.0,-0.023912,0.0053679999999999995,0.99308,-0.6300000000000001,0.28,-0.07,29.0234375,3.33,3.33,3.33,3.32,3.32,3.33,3.33,3.32,3.34,3.34,3.34,3.34,3.32,3.33,3.33,3.32,3.33,3.33,3.33,3.32,3.34,3.34,3.34,3.34,3.34,3.32,45.0,1.0,0.0,1.0,1.0,656629,0.0,79.94,23.815086079708315
1765219161720,0.0,0.0,1.0,10.0,0.0,0.0,0.0,0.0,0.0,0.0,0.0,0.0,0.0,0.0,0.0,0.0,-0.025863999999999998,0.004392,0.992714,-0.7000000000000001,0.56,-0.07,29.0234375,3.33,3.33,3.33,3.32,3.32,3.33,3.33,3.32,3.34,3.34,3.34,3.34,3.32,3.33,3.33,3.32,3.33,3.33,3.33,3.32,3.34,3.34,3.34,3.34,3.34,3.32,45.0,1.0,0.0,1.0,1.0,656694,0.0,79.94,23.815086079708315
1765219161755,0.0,0.0,1.0,10.0,0.0,0.0,0.0,0.0,0.0,0.0,0.0,0.0,0.0,0.0,0.0,0.0,-0.025863999999999998,0.004392,0.992714,-0.7000000000000001,0.56,-0.07,29.01953125,3.33,3.33,3.33,3.32,3.32,3.33,3.33,3.32,3.34,3.34,3.34,3.34,3.32,3.33,3.33,3.32,3.33,3.33,3.33,3.32,3.34,3.34,3.34,3.34,3.34,3.32,45.0,1.0,0.0,1.0,1.0,656729,0.0,79.94,23.815086079708315
1765219161788,0.0,0.0,1.0,10.0,0.0,0.0,0.0,0.0,0.0,0.0,0.0,0.0,0.0,0.0,0.0,0.0,-0.022448,0.0046359999999999995,0.9922259999999999,-0.7000000000000001,0.56,-0.07,29.01953125,3.33,3.33,3.33,3.32,3.32,3.33,3.33,3.32,3.34,3.34,3.34,3.34,3.32,3.33,3.33,3.32,3.33,3.33,3.33,3.32,3.34,3.34,3.34,3.34,3.34,3.32,45.0,1.0,0.0,1.0,1.0,656762,0.0,79.94,23.815086079708315
1765219161804,0.0,0.0,1.0,10.0,0.0,0.0,0.0,0.0,0.0,0.0,0.0,0.0,0.0,0.0,0.0,0.0,-0.022448,0.0046359999999999995,0.9922259999999999,-0.7000000000000001,0.56,-0.07,29.01953125,3.33,3.33,3.33,3.32,3.32,3.33,3.33,3.32,3.34,3.34,3.34,3.34,3.32,3.33,3.33,3.32,3.33,3.33,3.33,3.32,3.34,3.34,3.34,3.34,3.34,3.32,45.0,1.0,0.0,1.0,1.0,656778,0.0,79.94,23.815086079708315
1765219161820,0.0,0.0,1.0,10.0,0.0,0.0,0.0,0.0,0.0,0.0,0.0,0.0,0.0,0.0,0.0,0.0,-0.022448,0.0046359999999999995,0.9922259999999999,-0.7000000000000001,0.56,-0.07,29.01953125,3.33,3.33,3.33,3.32,3.32,3.33,3.33,3.32,3.34,3.34,3.34,3.34,3.32,3.33,3.33,3.32,3.33,3.33,3.33,3.32,3.34,3.34,3.34,3.34,3.34,3.32,45.0,1.0,0.0,1.0,1.0,656794,0.0,79.94,23.815086079708315
1765219161837,0.0,0.0,1.0,10.0,0.0,0.0,0.0,0.0,0.0,0.0,0.0,0.0,0.0,0.0,0.0,0.0,-0.022448,0.0046359999999999995,0.9922259999999999,-0.7000000000000001,0.42000000000000004,-0.07,29.01953125,3.33,3.33,3.33,3.32,3.32,3.33,3.33,3.32,3.34,3.34,3.34,3.34,3.32,3.33,3.33,3.32,3.33,3.33,3.33,3.32,3.34,3.34,3.34,3.34,3.34,3.32,45.0,1.0,0.0,1.0,1.0,656811,0.0,79.94,23.815086079708315
1765219161854,0.0,0.0,1.0,10.0,0.0,0.0,0.0,0.0,0.0,0.0,0.0,0.0,0.0,0.0,0.0,0.0,-0.022448,0.0046359999999999995,0.9922259999999999,-0.7000000000000001,0.42000000000000004,-0.07,29.01953125,3.33,3.33,3.33,3.32,3.32,3.33,3.33,3.32,3.34,3.34,3.34,3.34,3.32,3.33,3.33,3.32,3.33,3.33,3.33,3.32,3.34,3.34,3.34,3.34,3.34,3.32,45.0,1.0,0.0,1.0,1.0,656828,0.0,79.94,23.815086079708315
1765219161886,0.0,0.0,1.0,10.0,0.0,0.0,0.0,0.0,0.0,0.0,0.0,0.0,0.0,0.0,0.0,0.0,-0.022448,0.0046359999999999995,0.9922259999999999,-0.7000000000000001,0.42000000000000004,-0.07,29.01953125,3.33,3.33,3.33,3.32,3.32,3.33,3.33,3.32,3.34,3.34,3.34,3.34,3.32,3.33,3.33,3.32,3.33,3.33,3.33,3.32,3.34,3.34,3.34,3.34,3.34,3.32,45.0,1.0,0.0,1.0,1.0,656860,0.0,79.94,23.815086079708315
1765219161918,0.0,0.0,1.0,10.0,0.0,0.0,0.0,0.0,0.0,0.0,0.0,0.0,0.0,0.0,0.0,0.0,-0.022448,0.0046359999999999995,0.9922259999999999,-0.7000000000000001,0.42000000000000004,-0.07,29.01953125,3.33,3.33,3.33,3.32,3.33,3.33,3.33,3.32,3.34,3.34,3.34,3.34,3.32,3.33,3.33,3.32,3.33,3.33,3.33,3.32,3.34,3.34,3.34,3.34,3.34,3.32,45.0,1.0,0.0,1.0,1.0,656892,0.0,79.95,23.815086079708315
1765219161936,0.0,0.0,1.0,10.0,0.0,0.0,0.0,0.0,0.0,0.0,0.0,0.0,0.0,0.0,0.0,0.0,-0.022448,0.0046359999999999995,0.9922259999999999,-0.7000000000000001,0.42000000000000004,-0.07,29.01953125,3.33,3.33,3.33,3.32,3.33,3.33,3.33,3.32,3.34,3.34,3.34,3.34,3.32,3.33,3.33,3.32,3.33,3.33,3.33,3.32,3.34,3.34,3.34,3.34,3.34,3.32,45.0,1.0,0.0,1.0,1.0,656910,0.0,79.95,23.815086079708315
1765219161952,0.0,0.0,1.0,10.0,0.0,0.0,0.0,0.0,0.0,0.0,0.0,0.0,0.0,0.0,0.0,0.0,-0.022448,0.0046359999999999995,0.9922259999999999,-0.7000000000000001,0.42000000000000004,-0.07,29.01953125,3.33,3.33,3.33,3.32,3.33,3.33,3.33,3.32,3.34,3.34,3.34,3.34,3.32,3.33,3.33,3.32,3.33,3.33,3.33,3.32,3.34,3.34,3.34,3.34,3.34,3.32,45.0,1.0,0.0,1.0,1.0,656926,0.0,79.95,23.815086079708315
1765219161986,0.0,0.0,1.0,10.0,0.0,0.0,0.0,0.0,0.0,0.0,0.0,0.0,0.0,0.0,0.0,0.0,-0.022448,0.0046359999999999995,0.9922259999999999,-0.7000000000000001,0.42000000000000004,-0.07,29.01953125,3.33,3.33,3.33,3.32,3.33,3.33,3.33,3.32,3.34,3.34,3.34,3.34,3.32,3.33,3.33,3.32,3.33,3.33,3.33,3.32,3.34,3.34,3.34,3.34,3.34,3.32,45.0,1.0,0.0,1.0,1.0,656960,0.0,79.95,23.815086079708315
1765219162019,0.0,0.0,1.0,10.0,0.0,0.0,0.0,0.0,0.0,0.0,0.0,0.0,0.0,0.0,0.0,0.0,-0.022448,0.0046359999999999995,0.9922259999999999,-0.7000000000000001,0.42000000000000004,-0.07,29.01953125,3.33,3.33,3.33,3.32,3.33,3.33,3.33,3.32,3.34,3.34,3.34,3.34,3.32,3.33,3.33,3.32,3.33,3.33,3.33,3.32,3.34,3.34,3.34,3.34,3.34,3.32,45.0,1.0,0.0,1.0,1.0,656993,0.0,79.95,23.815086079708315
1765219162037,0.0,0.0,1.0,10.0,0.0,0.0,0.0,0.0,0.0,0.0,0.0,0.0,0.0,0.0,0.0,0.0,-0.022448,0.0046359999999999995,0.9922259999999999,-0.7000000000000001,0.42000000000000004,-0.07,29.01171875,3.33,3.33,3.33,3.32,3.33,3.33,3.33,3.32,3.34,3.34,3.34,3.34,3.32,3.33,3.33,3.32,3.33,3.33,3.33,3.32,3.34,3.34,3.34,3.34,3.34,3.32,45.0,1.0,0.0,1.0,1.0,657011,0.0,79.95,23.815086079708315
1765219162087,0.0,0.0,1.0,10.0,0.0,0.0,0.0,0.0,0.0,0.0,0.0,0.0,0.0,0.0,0.0,0.0,-0.025498,0.0037819999999999998,0.996008,-0.7000000000000001,0.42000000000000004,-0.07,29.01171875,3.33,3.33,3.33,3.32,3.33,3.33,3.33,3.32,3.34,3.34,3.34,3.34,3.32,3.33,3.33,3.32,3.33,3.33,3.33,3.32,3.34,3.34,3.34,3.34,3.34,3.32,45.0,1.0,0.0,1.0,1.0,657061,0.0,79.95,23.815086079708315
1765219162104,0.0,0.0,1.0,10.0,0.0,0.0,0.0,0.0,0.0,0.0,0.0,0.0,0.0,0.0,0.0,0.0,-0.025498,0.0037819999999999998,0.996008,-0.77,0.49000000000000005,-0.07,29.01171875,3.33,3.33,3.33,3.32,3.33,3.33,3.33,3.32,3.34,3.34,3.34,3.34,3.32,3.33,3.33,3.32,3.33,3.33,3.33,3.32,3.34,3.34,3.34,3.34,3.34,3.32,45.0,1.0,0.0,1.0,1.0,657078,0.0,79.95,23.815086079708315
1765219162138,0.0,0.0,1.0,10.0,0.0,0.0,0.0,0.0,0.0,0.0,0.0,0.0,0.0,0.0,0.0,0.0,-0.025498,0.0037819999999999998,0.996008,-0.77,0.49000000000000005,-0.07,29.01171875,3.33,3.33,3.33,3.32,3.33,3.33,3.33,3.32,3.34,3.34,3.34,3.34,3.32,3.33,3.33,3.32,3.33,3.33,3.33,3.32,3.34,3.34,3.34,3.34,3.34,3.32,45.0,1.0,0.0,1.0,1.0,657112,0.0,79.95,23.815086079708315
1765219162153,0.0,0.0,1.0,10.0,0.0,0.0,0.0,0.0,0.0,0.0,0.0,0.0,0.0,0.0,0.0,0.0,-0.025498,0.0037819999999999998,0.996008,-0.77,0.49000000000000005,-0.07,29.01171875,3.33,3.33,3.33,3.32,3.33,3.33,3.33,3.32,3.34,3.34,3.34,3.34,3.32,3.33,3.33,3.32,3.33,3.33,3.33,3.32,3.34,3.34,3.34,3.34,3.34,3.32,45.0,1.0,0.0,1.0,1.0,657127,0.0,79.95,23.815086079708315
1765219162170,0.0,0.0,1.0,10.0,0.0,0.0,0.0,0.0,0.0,0.0,0.0,0.0,0.0,0.0,0.0,0.0,-0.025498,0.0037819999999999998,0.996008,-0.77,0.49000000000000005,-0.07,29.01171875,3.33,3.33,3.33,3.32,3.33,3.33,3.33,3.32,3.34,3.34,3.34,3.34,3.32,3.33,3.33,3.32,3.33,3.33,3.33,3.32,3.34,3.34,3.34,3.34,3.34,3.32,45.0,1.0,0.0,1.0,1.0,657144,0.0,79.95,23.815086079708315
1765219162187,0.0,0.0,1.0,10.0,0.0,0.0,0.0,0.0,0.0,0.0,0.0,0.0,0.0,0.0,0.0,0.0,-0.025498,0.0037819999999999998,0.996008,-0.77,0.49000000000000005,-0.07,29.01171875,3.33,3.33,3.33,3.32,3.33,3.33,3.33,3.32,3.34,3.34,3.34,3.34,3.32,3.33,3.33,3.32,3.33,3.33,3.33,3.32,3.34,3.34,3.34,3.34,3.34,3.32,45.0,1.0,0.0,1.0,1.0,657161,0.0,79.95,23.815086079708315
1765219162204,0.0,0.0,1.0,10.0,0.0,0.0,0.0,0.0,0.0,0.0,0.0,0.0,0.0,0.0,0.0,0.0,-0.025498,0.0037819999999999998,0.996008,-0.77,0.49000000000000005,-0.07,29.0703125,3.33,3.33,3.33,3.32,3.33,3.33,3.33,3.32,3.34,3.34,3.34,3.34,3.32,3.33,3.33,3.32,3.33,3.33,3.33,3.32,3.34,3.34,3.34,3.34,3.34,3.32,45.0,1.0,0.0,1.0,1.0,657178,0.0,79.95,23.815086079708315
1765219162237,0.0,0.0,1.0,10.0,0.0,0.0,0.0,0.0,0.0,0.0,0.0,0.0,0.0,0.0,0.0,0.0,-0.023546,0.007808,0.98942,-0.77,0.49000000000000005,-0.07,29.0703125,3.33,3.33,3.33,3.32,3.33,3.33,3.33,3.32,3.34,3.34,3.34,3.34,3.32,3.33,3.33,3.32,3.33,3.33,3.33,3.32,3.34,3.34,3.34,3.34,3.34,3.32,45.0,1.0,0.0,1.0,1.0,657211,0.0,79.95,23.815086079708315
1765219162271,0.0,0.0,1.0,10.0,0.0,0.0,0.0,0.0,0.0,0.0,0.0,0.0,0.0,0.0,0.0,0.0,-0.023546,0.007808,0.98942,-0.77,0.49000000000000005,-0.07,29.0703125,3.33,3.33,3.33,3.32,3.33,3.33,3.33,3.32,3.34,3.34,3.34,3.34,3.32,3.33,3.33,3.32,3.33,3.33,3.33,3.32,3.34,3.34,3.34,3.34,3.34,3.32,45.0,1.0,0.0,1.0,1.0,657245,0.0,79.95,23.815086079708315
1765219162287,0.0,0.0,1.0,10.0,0.0,0.0,0.0,0.0,0.0,0.0,0.0,0.0,0.0,0.0,0.0,0.0,-0.023546,0.007808,0.98942,-0.77,0.42000000000000004,-0.07,29.0703125,3.33,3.33,3.33,3.32,3.33,3.33,3.33,3.32,3.34,3.34,3.34,3.34,3.32,3.33,3.33,3.32,3.33,3.33,3.33,3.32,3.34,3.34,3.34,3.34,3.34,3.32,45.0,1.0,0.0,1.0,1.0,657261,0.0,79.95,23.815086079708315
1765219162321,0.0,0.0,1.0,10.0,0.0,0.0,0.0,0.0,0.0,0.0,0.0,0.0,0.0,0.0,0.0,0.0,-0.023546,0.007808,0.98942,-0.77,0.42000000000000004,-0.07,29.0703125,3.33,3.33,3.33,3.32,3.33,3.33,3.33,3.32,3.34,3.34,3.34,3.34,3.32,3.33,3.33,3.32,3.33,3.33,3.33,3.32,3.34,3.34,3.34,3.34,3.34,3.32,45.0,1.0,0.0,1.0,1.0,657295,0.0,79.95,23.815086079708315
1765219162337,0.0,0.0,1.0,10.0,0.0,0.0,0.0,0.0,0.0,0.0,0.0,0.0,0.0,0.0,0.0,0.0,-0.023546,0.007808,0.98942,-0.77,0.42000000000000004,-0.07,29.0703125,3.33,3.33,3.33,3.32,3.33,3.33,3.33,3.32,3.34,3.34,3.34,3.34,3.32,3.33,3.33,3.32,3.33,3.33,3.33,3.32,3.34,3.34,3.34,3.34,3.34,3.32,45.0,1.0,0.0,1.0,1.0,657311,0.0,79.95,23.815086079708315
1765219162355,0.0,0.0,1.0,10.0,0.0,0.0,0.0,0.0,0.0,0.0,0.0,0.0,0.0,0.0,0.0,0.0,-0.023546,0.007808,0.98942,-0.77,0.42000000000000004,-0.07,29.00390625,3.33,3.33,3.33,3.32,3.33,3.33,3.33,3.32,3.34,3.34,3.34,3.34,3.32,3.33,3.33,3.32,3.33,3.33,3.33,3.32,3.34,3.34,3.34,3.34,3.34,3.32,45.0,1.0,0.0,1.0,1.0,657329,0.0,79.95,23.815086079708315
1765219162403,0.0,0.0,1.0,10.0,0.0,0.0,0.0,0.0,0.0,0.0,0.0,0.0,0.0,0.0,0.0,0.0,-0.023546,0.007808,0.98942,-0.77,0.42000000000000004,-0.07,29.00390625,3.33,3.33,3.33,3.32,3.33,3.33,3.33,3.32,3.34,3.34,3.34,3.34,3.32,3.33,3.33,3.32,3.33,3.33,3.33,3.32,3.34,3.34,3.34,3.34,3.34,3.32,45.0,1.0,0.0,1.0,1.0,657377,0.0,79.95,23.815086079708315
1765219162469,0.0,0.0,1.0,10.0,0.0,0.0,0.0,0.0,0.0,0.0,0.0,0.0,0.0,0.0,0.0,0.0,-0.022692,0.005124,0.99735,-0.77,0.42000000000000004,-0.07,29.00390625,3.33,3.33,3.33,3.32,3.33,3.33,3.33,3.32,3.34,3.34,3.34,3.34,3.32,3.33,3.33,3.32,3.33,3.33,3.33,3.32,3.34,3.34,3.34,3.34,3.34,3.32,45.0,1.0,0.0,1.0,1.0,657443,0.0,79.95,23.815086079708315
1765219162486,0.0,0.0,1.0,10.0,0.0,0.0,0.0,0.0,0.0,0.0,0.0,0.0,0.0,0.0,0.0,0.0,-0.022692,0.005124,0.99735,-0.7000000000000001,0.49000000000000005,-0.07,29.00390625,3.33,3.33,3.33,3.32,3.33,3.33,3.33,3.32,3.34,3.34,3.34,3.34,3.32,3.33,3.33,3.32,3.33,3.33,3.33,3.32,3.34,3.34,3.34,3.34,3.34,3.32,45.0,1.0,0.0,1.0,1.0,657460,0.0,79.95,23.815086079708315
1765219162502,0.0,0.0,1.0,10.0,0.0,0.0,0.0,0.0,0.0,0.0,0.0,0.0,0.0,0.0,0.0,0.0,-0.022692,0.005124,0.99735,-0.7000000000000001,0.49000000000000005,-0.07,28.98046875,3.33,3.33,3.33,3.32,3.33,3.33,3.33,3.32,3.34,3.34,3.34,3.34,3.32,3.33,3.33,3.32,3.33,3.33,3.33,3.32,3.34,3.34,3.34,3.34,3.34,3.32,45.0,1.0,0.0,1.0,1.0,657476,0.0,79.95,23.815086079708315
1765219162536,0.0,0.0,1.0,10.0,0.0,0.0,0.0,0.0,0.0,0.0,0.0,0.0,0.0,0.0,0.0,0.0,-0.022692,0.005124,0.99735,-0.7000000000000001,0.49000000000000005,-0.07,28.98046875,3.33,3.33,3.33,3.32,3.33,3.33,3.33,3.32,3.34,3.34,3.34,3.34,3.32,3.33,3.33,3.32,3.33,3.33,3.33,3.32,3.34,3.34,3.34,3.34,3.34,3.32,45.0,1.0,0.0,1.0,1.0,657510,0.0,79.95,23.815086079708315
1765219162553,0.0,0.0,1.0,10.0,0.0,0.0,0.0,0.0,0.0,0.0,0.0,0.0,0.0,0.0,0.0,0.0,-0.022692,0.005124,0.99735,-0.7000000000000001,0.49000000000000005,-0.07,28.98046875,3.33,3.33,3.33,3.32,3.33,3.33,3.33,3.32,3.34,3.34,3.34,3.34,3.32,3.33,3.33,3.32,3.33,3.33,3.33,3.32,3.34,3.34,3.34,3.34,3.34,3.32,45.0,1.0,0.0,1.0,1.0,657527,0.0,79.95,23.815086079708315
1765219162569,0.0,0.0,1.0,10.0,0.0,0.0,0.0,0.0,0.0,0.0,0.0,0.0,0.0,0.0,0.0,0.0,-0.022692,0.005124,0.99735,-0.7000000000000001,0.49000000000000005,-0.07,28.98046875,3.33,3.33,3.33,3.32,3.33,3.33,3.33,3.32,3.34,3.34,3.34,3.34,3.32,3.33,3.33,3.32,3.33,3.33,3.33,3.32,3.34,3.34,3.34,3.34,3.34,3.32,45.0,1.0,0.0,1.0,1.0,657543,0.0,79.95,23.815086079708315
1765219162587,0.0,0.0,1.0,10.0,0.0,0.0,0.0,0.0,0.0,0.0,0.0,0.0,0.0,0.0,0.0,0.0,-0.026108,0.0046359999999999995,0.99491,-0.7000000000000001,0.49000000000000005,-0.07,28.98046875,3.33,3.33,3.33,3.32,3.33,3.33,3.33,3.32,3.34,3.34,3.34,3.34,3.32,3.33,3.33,3.32,3.33,3.33,3.33,3.32,3.34,3.34,3.34,3.34,3.34,3.32,45.0,1.0,0.0,1.0,1.0,657561,0.0,79.95,23.815086079708315
1765219162620,0.0,0.0,1.0,10.0,0.0,0.0,0.0,0.0,0.0,0.0,0.0,0.0,0.0,0.0,0.0,0.0,-0.026108,0.0046359999999999995,0.99491,-0.7000000000000001,0.49000000000000005,-0.07,28.98046875,3.33,3.33,3.33,3.32,3.33,3.33,3.33,3.32,3.34,3.34,3.34,3.34,3.32,3.33,3.33,3.32,3.33,3.33,3.33,3.32,3.34,3.34,3.34,3.34,3.34,3.32,45.0,1.0,0.0,1.0,1.0,657594,0.0,79.95,23.815086079708315
1765219162652,0.0,0.0,1.0,10.0,0.0,0.0,0.0,0.0,0.0,0.0,0.0,0.0,0.0,0.0,0.0,0.0,-0.026108,0.0046359999999999995,0.99491,-0.77,0.35000000000000003,-0.14,28.98046875,3.33,3.33,3.33,3.32,3.33,3.33,3.33,3.32,3.34,3.34,3.34,3.34,3.32,3.33,3.33,3.32,3.33,3.33,3.33,3.32,3.34,3.34,3.34,3.34,3.34,3.32,45.0,1.0,0.0,1.0,1.0,657626,0.0,79.95,23.815086079708315
1765219162685,0.0,0.0,1.0,10.0,0.0,0.0,0.0,0.0,0.0,0.0,0.0,0.0,0.0,0.0,0.0,0.0,-0.026108,0.0046359999999999995,0.99491,-0.77,0.35000000000000003,-0.14,28.98828125,3.33,3.33,3.33,3.32,3.33,3.33,3.33,3.32,3.34,3.34,3.34,3.34,3.32,3.33,3.33,3.32,3.33,3.33,3.33,3.32,3.34,3.34,3.34,3.34,3.34,3.32,45.0,1.0,0.0,1.0,1.0,657659,0.0,79.95,23.815086079708315
1765219162785,0.0,0.0,1.0,10.0,0.0,0.0,0.0,0.0,0.0,0.0,0.0,0.0,0.0,0.0,0.0,0.0,-0.026108,0.0046359999999999995,0.99491,-0.77,0.35000000000000003,-0.14,28.98828125,3.33,3.33,3.33,3.32,3.33,3.33,3.33,3.32,3.34,3.34,3.34,3.34,3.32,3.33,3.33,3.32,3.33,3.33,3.33,3.32,3.34,3.34,3.34,3.34,3.34,3.32,45.0,1.0,0.0,1.0,1.0,657759,0.0,79.95,23.815086079708315
1765219162803,0.0,0.0,1.0,10.0,0.0,0.0,0.0,0.0,0.0,0.0,0.0,0.0,0.0,0.0,0.0,0.0,-0.025376,0.0034159999999999998,0.9928359999999999,-0.77,0.35000000000000003,-0.14,28.98828125,3.33,3.33,3.33,3.32,3.33,3.33,3.33,3.32,3.34,3.34,3.34,3.34,3.32,3.33,3.33,3.32,3.33,3.33,3.33,3.32,3.34,3.34,3.34,3.34,3.34,3.32,45.0,1.0,0.0,1.0,1.0,657777,0.0,79.95,23.815086079708315
1765219162851,0.0,0.0,1.0,10.0,0.0,0.0,0.0,0.0,0.0,0.0,0.0,0.0,0.0,0.0,0.0,0.0,-0.025376,0.0034159999999999998,0.9928359999999999,-0.77,0.6300000000000001,0.0,28.98828125,3.33,3.33,3.33,3.32,3.33,3.33,3.33,3.32,3.34,3.34,3.34,3.34,3.32,3.33,3.33,3.32,3.33,3.33,3.33,3.32,3.34,3.34,3.34,3.34,3.34,3.32,45.0,1.0,0.0,1.0,1.0,657825,0.0,79.95,23.815086079708315
1765219162869,0.0,0.0,1.0,10.0,0.0,0.0,0.0,0.0,0.0,0.0,0.0,0.0,0.0,0.0,0.0,0.0,-0.025376,0.0034159999999999998,0.9928359999999999,-0.77,0.6300000000000001,0.0,28.98046875,3.33,3.33,3.33,3.32,3.33,3.33,3.33,3.32,3.34,3.34,3.34,3.34,3.32,3.33,3.33,3.32,3.33,3.33,3.33,3.32,3.34,3.34,3.34,3.34,3.34,3.32,45.0,1.0,0.0,1.0,1.0,657843,0.0,79.95,23.815086079708315
1765219162903,0.0,0.0,1.0,10.0,0.0,0.0,0.0,0.0,0.0,0.0,0.0,0.0,0.0,0.0,0.0,0.0,-0.025376,0.0034159999999999998,0.9928359999999999,-0.77,0.6300000000000001,0.0,28.98046875,3.33,3.33,3.33,3.32,3.33,3.33,3.33,3.32,3.34,3.34,3.34,3.34,3.32,3.33,3.33,3.32,3.33,3.33,3.33,3.32,3.34,3.34,3.34,3.34,3.34,3.32,45.0,1.0,0.0,1.0,1.0,657877,0.0,79.95,23.815086079708315
1765219162918,0.0,0.0,1.0,10.0,0.0,0.0,0.0,0.0,0.0,0.0,0.0,0.0,0.0,0.0,0.0,0.0,-0.025376,0.0034159999999999998,0.9928359999999999,-0.77,0.6300000000000001,0.0,28.98046875,3.33,3.33,3.33,3.32,3.33,3.33,3.33,3.32,3.34,3.34,3.34,3.34,3.32,3.33,3.33,3.32,3.33,3.33,3.33,3.32,3.34,3.34,3.34,3.34,3.34,3.32,45.0,1.0,0.0,1.0,1.0,657892,0.0,79.95,23.815086079708315
1765219162936,0.0,0.0,1.0,10.0,0.0,0.0,0.0,0.0,0.0,0.0,0.0,0.0,0.0,0.0,0.0,0.0,-0.025742,0.007442,0.998692,-0.77,0.6300000000000001,0.0,28.98046875,3.33,3.33,3.33,3.32,3.33,3.33,3.33,3.32,3.34,3.34,3.34,3.34,3.32,3.33,3.33,3.32,3.33,3.33,3.33,3.32,3.34,3.34,3.34,3.34,3.34,3.32,45.0,1.0,0.0,1.0,1.0,657910,0.0,79.95,23.815086079708315
1765219162969,0.0,0.0,1.0,10.0,0.0,0.0,0.0,0.0,0.0,0.0,0.0,0.0,0.0,0.0,0.0,0.0,-0.025742,0.007442,0.998692,-0.77,0.6300000000000001,0.0,28.98046875,3.33,3.33,3.33,3.32,3.33,3.33,3.33,3.32,3.34,3.34,3.34,3.34,3.32,3.33,3.33,3.32,3.33,3.33,3.33,3.32,3.34,3.34,3.34,3.34,3.34,3.32,45.0,1.0,0.0,1.0,1.0,657943,0.0,79.95,23.815086079708315
1765219162985,0.0,0.0,1.0,10.0,0.0,0.0,0.0,0.0,0.0,0.0,0.0,0.0,0.0,0.0,0.0,0.0,-0.025742,0.007442,0.998692,-0.6300000000000001,0.56,0.0,28.98046875,3.33,3.33,3.33,3.32,3.33,3.33,3.33,3.32,3.34,3.34,3.34,3.34,3.32,3.33,3.33,3.32,3.33,3.33,3.33,3.32,3.34,3.34,3.34,3.34,3.34,3.32,45.0,1.0,0.0,1.0,1.0,657959,0.0,79.95,23.815086079708315
1765219163002,0.0,0.0,1.0,10.0,0.0,0.0,0.0,0.0,0.0,0.0,0.0,0.0,0.0,0.0,0.0,0.0,-0.025742,0.007442,0.998692,-0.6300000000000001,0.56,0.0,28.98046875,3.33,3.33,3.33,3.32,3.33,3.33,3.33,3.32,3.34,3.34,3.34,3.34,3.32,3.33,3.33,3.32,3.33,3.33,3.33,3.32,3.34,3.34,3.34,3.34,3.34,3.32,45.0,1.0,0.0,1.0,1.0,657976,0.0,79.95,23.815086079708315
1765219163019,0.0,0.0,1.0,10.0,0.0,0.0,0.0,0.0,0.0,0.0,0.0,0.0,0.0,0.0,0.0,0.0,-0.025742,0.007442,0.998692,-0.6300000000000001,0.56,0.0,29.01953125,3.33,3.33,3.33,3.32,3.33,3.33,3.33,3.32,3.34,3.34,3.34,3.34,3.32,3.33,3.33,3.32,3.33,3.33,3.33,3.32,3.34,3.34,3.34,3.34,3.34,3.32,45.0,1.0,0.0,1.0,1.0,657993,0.0,79.95,23.815086079708315
1765219163053,0.0,0.0,1.0,10.0,0.0,0.0,0.0,0.0,0.0,0.0,0.0,0.0,0.0,0.0,0.0,0.0,-0.025742,0.007442,0.998692,-0.6300000000000001,0.56,0.0,29.01953125,3.33,3.33,3.33,3.32,3.33,3.33,3.33,3.32,3.34,3.34,3.34,3.34,3.32,3.33,3.33,3.32,3.33,3.33,3.33,3.32,3.34,3.34,3.34,3.34,3.34,3.32,45.0,1.0,0.0,1.0,1.0,658027,0.0,79.95,23.815086079708315
1765219163119,0.0,0.0,1.0,10.0,0.0,0.0,0.0,0.0,0.0,0.0,0.0,0.0,0.0,0.0,0.0,0.0,-0.025742,0.007442,0.998692,-0.6300000000000001,0.56,0.0,29.01953125,3.33,3.33,3.33,3.32,3.33,3.33,3.33,3.32,3.34,3.34,3.34,3.34,3.32,3.33,3.33,3.32,3.33,3.33,3.33,3.32,3.34,3.34,3.34,3.34,3.34,3.32,45.0,1.0,0.0,1.0,1.0,658093,0.0,79.95,23.815086079708315
1765219163187,0.0,0.0,1.0,10.0,0.0,0.0,0.0,0.0,0.0,0.0,0.0,0.0,0.0,0.0,0.0,0.0,-0.02623,0.005978,0.9864919999999999,-0.6300000000000001,0.49000000000000005,-0.07,29.01953125,3.33,3.33,3.33,3.32,3.33,3.33,3.33,3.32,3.34,3.34,3.34,3.34,3.32,3.33,3.33,3.32,3.33,3.33,3.33,3.32,3.34,3.34,3.34,3.34,3.34,3.32,45.0,1.0,0.0,1.0,1.0,658161,0.0,79.95,23.815086079708315
1765219163219,0.0,0.0,1.0,10.0,0.0,0.0,0.0,0.0,0.0,0.0,0.0,0.0,0.0,0.0,0.0,0.0,-0.02623,0.005978,0.9864919999999999,-0.6300000000000001,0.49000000000000005,-0.07,29.01953125,3.33,3.33,3.33,3.32,3.33,3.33,3.33,3.32,3.34,3.34,3.34,3.34,3.32,3.33,3.33,3.32,3.33,3.33,3.33,3.32,3.34,3.34,3.34,3.34,3.34,3.32,45.0,1.0,0.0,1.0,1.0,658193,0.0,79.95,23.815086079708315
1765219163253,0.0,0.0,1.0,10.0,0.0,0.0,0.0,0.0,0.0,0.0,0.0,0.0,0.0,0.0,0.0,0.0,-0.028426,0.003294,0.99674,-0.6300000000000001,0.49000000000000005,-0.07,29.01953125,3.33,3.33,3.33,3.32,3.33,3.33,3.33,3.32,3.34,3.34,3.34,3.34,3.32,3.33,3.33,3.32,3.33,3.33,3.33,3.32,3.34,3.34,3.34,3.34,3.34,3.32,45.0,1.0,0.0,1.0,1.0,658227,0.0,79.95,23.815086079708315
1765219163269,0.0,0.0,1.0,10.0,0.0,0.0,0.0,0.0,0.0,0.0,0.0,0.0,0.0,0.0,0.0,0.0,-0.028426,0.003294,0.99674,-0.6300000000000001,0.49000000000000005,-0.07,29.01953125,3.33,3.33,3.33,3.32,3.33,3.33,3.33,3.32,3.34,3.34,3.34,3.34,3.32,3.33,3.33,3.32,3.33,3.33,3.33,3.32,3.34,3.34,3.34,3.34,3.34,3.32,45.0,1.0,0.0,1.0,1.0,658243,0.0,79.95,23.815086079708315
1765219163286,0.0,0.0,1.0,10.0,0.0,0.0,0.0,0.0,0.0,0.0,0.0,0.0,0.0,0.0,0.0,0.0,-0.028426,0.003294,0.99674,-0.6300000000000001,0.49000000000000005,-0.07,29.01953125,3.33,3.33,3.33,3.32,3.33,3.33,3.33,3.32,3.34,3.34,3.34,3.34,3.32,3.33,3.33,3.32,3.33,3.33,3.33,3.32,3.34,3.34,3.34,3.34,3.34,3.32,45.0,1.0,0.0,1.0,1.0,658260,0.0,79.95,23.815086079708315
1765219163302,0.0,0.0,1.0,10.0,0.0,0.0,0.0,0.0,0.0,0.0,0.0,0.0,0.0,0.0,0.0,0.0,-0.028426,0.003294,0.99674,-0.6300000000000001,0.49000000000000005,-0.07,29.01953125,3.33,3.33,3.33,3.32,3.33,3.33,3.33,3.32,3.34,3.34,3.34,3.34,3.32,3.33,3.33,3.32,3.33,3.33,3.33,3.32,3.34,3.34,3.34,3.34,3.34,3.32,45.0,1.0,0.0,1.0,1.0,658276,0.0,79.95,23.815086079708315
1765219163319,0.0,0.0,1.0,10.0,0.0,0.0,0.0,0.0,0.0,0.0,0.0,0.0,0.0,0.0,0.0,0.0,-0.028426,0.003294,0.99674,-0.56,0.35000000000000003,-0.07,29.01953125,3.33,3.33,3.33,3.32,3.33,3.33,3.33,3.32,3.34,3.34,3.34,3.34,3.32,3.33,3.33,3.32,3.33,3.33,3.33,3.32,3.34,3.34,3.34,3.34,3.34,3.32,45.0,1.0,0.0,1.0,1.0,658293,0.0,79.95,23.815086079708315
1765219163336,0.0,0.0,1.0,10.0,0.0,0.0,0.0,0.0,0.0,0.0,0.0,0.0,0.0,0.0,0.0,0.0,-0.028426,0.003294,0.99674,-0.56,0.35000000000000003,-0.07,29.01953125,3.33,3.33,3.33,3.32,3.33,3.33,3.33,3.32,3.34,3.34,3.34,3.34,3.32,3.33,3.33,3.32,3.33,3.33,3.33,3.32,3.34,3.34,3.34,3.34,3.34,3.32,45.0,1.0,0.0,1.0,1.0,658310,0.0,79.95,23.815086079708315
1765219163370,0.0,0.0,1.0,10.0,0.0,0.0,0.0,0.0,0.0,0.0,0.0,0.0,0.0,0.0,0.0,0.0,-0.028426,0.003294,0.99674,-0.56,0.35000000000000003,-0.07,29.0625,3.33,3.33,3.33,3.32,3.33,3.33,3.33,3.32,3.34,3.34,3.34,3.34,3.32,3.33,3.33,3.32,3.33,3.33,3.33,3.32,3.34,3.34,3.34,3.34,3.34,3.32,45.0,1.0,0.0,1.0,1.0,658344,0.0,79.95,23.815086079708315
1765219163402,0.0,0.0,1.0,10.0,0.0,0.0,0.0,0.0,0.0,0.0,0.0,0.0,0.0,0.0,0.0,0.0,-0.028426,0.003294,0.99674,-0.56,0.35000000000000003,-0.07,29.0625,3.33,3.33,3.33,3.32,3.33,3.33,3.33,3.32,3.34,3.34,3.34,3.34,3.32,3.33,3.33,3.32,3.33,3.33,3.33,3.32,3.34,3.34,3.34,3.34,3.34,3.32,45.0,1.0,0.0,1.0,1.0,658376,0.0,79.95,23.815086079708315
1765219163420,0.0,0.0,1.0,10.0,0.0,0.0,0.0,0.0,0.0,0.0,0.0,0.0,0.0,0.0,0.0,0.0,-0.028426,0.003294,0.99674,-0.56,0.35000000000000003,-0.07,29.0625,3.33,3.33,3.33,3.32,3.33,3.33,3.33,3.32,3.34,3.34,3.34,3.34,3.32,3.33,3.33,3.32,3.33,3.33,3.33,3.32,3.34,3.34,3.34,3.34,3.34,3.32,45.0,1.0,0.0,1.0,1.0,658394,0.0,79.95,23.815086079708315
1765219163436,0.0,0.0,1.0,10.0,0.0,0.0,0.0,0.0,0.0,0.0,0.0,0.0,0.0,0.0,0.0,0.0,-0.028426,0.003294,0.99674,-0.56,0.35000000000000003,-0.07,29.0625,3.33,3.33,3.33,3.32,3.33,3.33,3.33,3.32,3.34,3.34,3.34,3.34,3.32,3.33,3.33,3.32,3.33,3.33,3.33,3.32,3.34,3.34,3.34,3.34,3.34,3.32,45.0,1.0,0.0,1.0,1.0,658410,0.0,79.95,23.815086079708315
1765219163506,0.0,0.0,1.0,10.0,0.0,0.0,0.0,0.0,0.0,0.0,0.0,0.0,0.0,0.0,0.0,0.0,-0.019642,0.005856,0.991128,-0.56,0.35000000000000003,-0.07,29.0625,3.33,3.33,3.33,3.32,3.33,3.33,3.33,3.32,3.34,3.34,3.34,3.34,3.32,3.33,3.33,3.32,3.33,3.33,3.33,3.32,3.34,3.34,3.34,3.34,3.34,3.32,45.0,1.0,0.0,1.0,1.0,658480,0.0,79.95,23.815086079708315
1765219163569,0.0,0.0,1.0,10.0,0.0,0.0,0.0,0.0,0.0,0.0,0.0,0.0,0.0,0.0,0.0,0.0,-0.019642,0.005856,0.991128,-0.6300000000000001,0.56,0.0,29.0625,3.33,3.33,3.33,3.32,3.33,3.33,3.33,3.32,3.34,3.34,3.34,3.34,3.32,3.33,3.33,3.32,3.33,3.33,3.33,3.32,3.34,3.34,3.34,3.34,3.34,3.32,45.0,1.0,0.0,1.0,1.0,658543,0.0,79.95,23.815086079708315
1765219163585,0.0,0.0,1.0,10.0,0.0,0.0,0.0,0.0,0.0,0.0,0.0,0.0,0.0,0.0,0.0,0.0,-0.019642,0.005856,0.991128,-0.6300000000000001,0.56,0.0,29.05078125,3.33,3.33,3.33,3.32,3.33,3.33,3.33,3.32,3.34,3.34,3.34,3.34,3.32,3.33,3.33,3.32,3.33,3.33,3.33,3.32,3.34,3.34,3.34,3.34,3.34,3.32,45.0,1.0,0.0,1.0,1.0,658559,0.0,79.95,23.815086079708315
1765219163602,0.0,0.0,1.0,10.0,0.0,0.0,0.0,0.0,0.0,0.0,0.0,0.0,0.0,0.0,0.0,0.0,-0.019642,0.005856,0.991128,-0.6300000000000001,0.56,0.0,29.05078125,3.33,3.33,3.33,3.32,3.33,3.33,3.33,3.32,3.34,3.34,3.34,3.34,3.32,3.33,3.33,3.32,3.33,3.33,3.33,3.32,3.34,3.34,3.34,3.34,3.34,3.32,45.0,1.0,0.0,1.0,1.0,658576,0.0,79.95,23.815086079708315
1765219163618,0.0,0.0,1.0,10.0,0.0,0.0,0.0,0.0,0.0,0.0,0.0,0.0,0.0,0.0,0.0,0.0,-0.019642,0.005856,0.991128,-0.6300000000000001,0.56,0.0,29.05078125,3.33,3.33,3.33,3.32,3.33,3.33,3.33,3.32,3.34,3.34,3.34,3.34,3.32,3.33,3.33,3.32,3.33,3.33,3.33,3.32,3.34,3.34,3.34,3.34,3.34,3.32,45.0,1.0,0.0,1.0,1.0,658592,0.0,79.95,23.815086079708315
1765219163638,0.0,0.0,1.0,10.0,0.0,0.0,0.0,0.0,0.0,0.0,0.0,0.0,0.0,0.0,0.0,0.0,-0.019642,0.005856,0.991128,-0.6300000000000001,0.56,0.0,29.05078125,3.33,3.33,3.33,3.32,3.33,3.33,3.33,3.32,3.34,3.34,3.34,3.34,3.32,3.33,3.33,3.32,3.33,3.33,3.33,3.32,3.34,3.34,3.34,3.34,3.34,3.32,45.0,1.0,0.0,1.0,1.0,658612,0.0,79.95,23.815086079708315
1765219163652,0.0,0.0,1.0,10.0,0.0,0.0,0.0,0.0,0.0,0.0,0.0,0.0,0.0,0.0,0.0,0.0,-0.019642,0.005856,0.991128,-0.6300000000000001,0.56,0.0,29.05078125,3.33,3.33,3.33,3.32,3.33,3.33,3.33,3.32,3.34,3.34,3.34,3.34,3.32,3.33,3.33,3.32,3.33,3.33,3.33,3.32,3.34,3.34,3.34,3.34,3.34,3.32,45.0,1.0,0.0,1.0,1.0,658626,0.0,79.95,23.815086079708315
1765219163669,0.0,0.0,1.0,10.0,0.0,0.0,0.0,0.0,0.0,0.0,0.0,0.0,0.0,0.0,0.0,0.0,-0.019642,0.005856,0.991128,-0.6300000000000001,0.56,0.0,29.05078125,3.33,3.33,3.33,3.32,3.33,3.33,3.33,3.32,3.34,3.34,3.34,3.34,3.32,3.33,3.33,3.32,3.33,3.33,3.33,3.32,3.34,3.34,3.34,3.34,3.34,3.32,45.0,1.0,0.0,1.0,1.0,658643,0.0,79.95,23.815086079708315
1765219163685,0.0,0.0,1.0,10.0,0.0,0.0,0.0,0.0,0.0,0.0,0.0,0.0,0.0,0.0,0.0,0.0,-0.019642,0.005856,0.991128,-0.6300000000000001,0.56,0.0,29.05078125,3.33,3.33,3.33,3.32,3.33,3.33,3.33,3.32,3.34,3.34,3.34,3.34,3.32,3.33,3.33,3.32,3.33,3.33,3.33,3.32,3.34,3.34,3.34,3.34,3.34,3.32,45.0,1.0,0.0,1.0,1.0,658659,0.0,79.95,23.815086079708315
1765219163703,0.0,0.0,1.0,10.0,0.0,0.0,0.0,0.0,0.0,0.0,0.0,0.0,0.0,0.0,0.0,0.0,-0.023912,0.0034159999999999998,0.9934459999999999,-0.6300000000000001,0.56,0.0,29.05078125,3.33,3.33,3.33,3.32,3.33,3.33,3.33,3.32,3.34,3.34,3.34,3.34,3.32,3.33,3.33,3.32,3.33,3.33,3.33,3.32,3.34,3.34,3.34,3.34,3.34,3.32,45.0,1.0,0.0,1.0,1.0,658677,0.0,79.95,23.815086079708315
1765219163718,0.0,0.0,1.0,10.0,0.0,0.0,0.0,0.0,0.0,0.0,0.0,0.0,0.0,0.0,0.0,0.0,-0.023912,0.0034159999999999998,0.9934459999999999,-0.6300000000000001,0.56,0.0,29.05078125,3.33,3.33,3.33,3.32,3.33,3.33,3.33,3.32,3.34,3.34,3.34,3.34,3.32,3.33,3.33,3.32,3.33,3.33,3.33,3.32,3.34,3.34,3.34,3.34,3.34,3.32,45.0,1.0,0.0,1.0,1.0,658692,0.0,79.95,23.815086079708315
1765219163736,0.0,0.0,1.0,10.0,0.0,0.0,0.0,0.0,0.0,0.0,0.0,0.0,0.0,0.0,0.0,0.0,-0.023912,0.0034159999999999998,0.9934459999999999,-0.6300000000000001,0.56,0.0,29.05078125,3.33,3.33,3.33,3.32,3.33,3.33,3.33,3.32,3.34,3.34,3.34,3.34,3.32,3.33,3.33,3.32,3.33,3.33,3.33,3.32,3.34,3.34,3.34,3.34,3.34,3.32,45.0,1.0,0.0,1.0,1.0,658710,0.0,79.95,23.815086079708315
1765219163751,0.0,0.0,1.0,10.0,0.0,0.0,0.0,0.0,0.0,0.0,0.0,0.0,0.0,0.0,0.0,0.0,-0.023912,0.0034159999999999998,0.9934459999999999,-0.6300000000000001,0.56,0.0,29.05078125,3.33,3.33,3.33,3.32,3.33,3.33,3.33,3.32,3.34,3.34,3.34,3.34,3.32,3.33,3.33,3.32,3.33,3.33,3.33,3.32,3.34,3.34,3.34,3.34,3.34,3.32,45.0,1.0,0.0,1.0,1.0,658725,0.0,79.95,23.815086079708315
1765219163785,0.0,0.0,1.0,10.0,0.0,0.0,0.0,0.0,0.0,0.0,0.0,0.0,0.0,0.0,0.0,0.0,-0.023912,0.0034159999999999998,0.9934459999999999,-0.6300000000000001,0.56,0.0,29.05078125,3.33,3.33,3.33,3.32,3.33,3.33,3.33,3.32,3.34,3.34,3.34,3.34,3.32,3.33,3.33,3.32,3.33,3.33,3.33,3.32,3.34,3.34,3.34,3.34,3.34,3.32,45.0,1.0,0.0,1.0,1.0,658759,0.0,79.95,23.815086079708315
1765219163803,0.0,0.0,1.0,10.0,0.0,0.0,0.0,0.0,0.0,0.0,0.0,0.0,0.0,0.0,0.0,0.0,-0.023912,0.0034159999999999998,0.9934459999999999,-0.7000000000000001,0.56,0.0,29.05078125,3.33,3.33,3.33,3.32,3.33,3.33,3.33,3.32,3.34,3.34,3.34,3.34,3.32,3.33,3.33,3.32,3.33,3.33,3.33,3.32,3.34,3.34,3.34,3.34,3.34,3.32,45.0,1.0,0.0,1.0,1.0,658777,0.0,79.95,23.815086079708315
1765219163836,0.0,0.0,1.0,10.0,0.0,0.0,0.0,0.0,0.0,0.0,0.0,0.0,0.0,0.0,0.0,0.0,-0.023912,0.0034159999999999998,0.9934459999999999,-0.7000000000000001,0.56,0.0,29.05078125,3.33,3.33,3.33,3.32,3.33,3.33,3.33,3.32,3.34,3.34,3.34,3.34,3.32,3.33,3.33,3.32,3.33,3.33,3.33,3.32,3.34,3.34,3.34,3.34,3.34,3.32,45.0,1.0,0.0,1.0,1.0,658810,0.0,79.95,23.815086079708315
1765219163852,0.0,0.0,1.0,10.0,0.0,0.0,0.0,0.0,0.0,0.0,0.0,0.0,0.0,0.0,0.0,0.0,-0.023912,0.0034159999999999998,0.9934459999999999,-0.7000000000000001,0.56,0.0,28.99609375,3.33,3.33,3.33,3.32,3.33,3.33,3.33,3.32,3.34,3.34,3.34,3.34,3.32,3.33,3.33,3.32,3.33,3.33,3.33,3.32,3.34,3.34,3.34,3.34,3.34,3.32,45.0,1.0,0.0,1.0,1.0,658826,0.0,79.95,23.815086079708315
1765219163918,0.0,0.0,1.0,10.0,0.0,0.0,0.0,0.0,0.0,0.0,0.0,0.0,0.0,0.0,0.0,0.0,-0.027206,0.00488,0.990274,-0.7000000000000001,0.56,0.0,28.99609375,3.33,3.33,3.33,3.32,3.33,3.33,3.33,3.32,3.34,3.34,3.34,3.34,3.32,3.33,3.33,3.32,3.33,3.33,3.33,3.32,3.34,3.34,3.34,3.34,3.34,3.32,45.0,1.0,0.0,1.0,1.0,658892,0.0,79.95,23.815086079708315
1765219163951,0.0,0.0,1.0,10.0,0.0,0.0,0.0,0.0,0.0,0.0,0.0,0.0,0.0,0.0,0.0,0.0,-0.027206,0.00488,0.990274,-0.6300000000000001,0.42000000000000004,-0.07,29.01171875,3.33,3.33,3.33,3.32,3.33,3.33,3.33,3.32,3.34,3.34,3.34,3.34,3.32,3.33,3.33,3.32,3.33,3.33,3.33,3.32,3.34,3.34,3.34,3.34,3.34,3.32,45.0,1.0,0.0,1.0,1.0,658925,0.0,79.95,23.815086079708315
1765219164003,0.0,0.0,1.0,10.0,0.0,0.0,0.0,0.0,0.0,0.0,0.0,0.0,0.0,0.0,0.0,0.0,-0.027206,0.00488,0.990274,-0.6300000000000001,0.42000000000000004,-0.07,29.01171875,3.33,3.33,3.33,3.32,3.33,3.33,3.33,3.32,3.34,3.34,3.34,3.34,3.32,3.33,3.33,3.32,3.33,3.33,3.33,3.32,3.34,3.34,3.34,3.34,3.34,3.32,45.0,1.0,0.0,1.0,1.0,658977,0.0,79.95,23.815086079708315
1765219164052,0.0,0.0,1.0,10.0,0.0,0.0,0.0,0.0,0.0,0.0,0.0,0.0,0.0,0.0,0.0,0.0,-0.020496,0.0026839999999999998,0.989664,-0.6300000000000001,0.42000000000000004,-0.07,29.01171875,3.33,3.33,3.33,3.32,3.33,3.33,3.33,3.32,3.34,3.34,3.34,3.34,3.32,3.33,3.33,3.32,3.33,3.33,3.33,3.32,3.34,3.34,3.34,3.34,3.34,3.32,45.0,1.0,0.0,1.0,1.0,659026,0.0,79.95,23.815086079708315
1765219164069,0.0,0.0,1.0,10.0,0.0,0.0,0.0,0.0,0.0,0.0,0.0,0.0,0.0,0.0,0.0,0.0,-0.020496,0.0026839999999999998,0.989664,-0.7000000000000001,0.42000000000000004,-0.07,29.00390625,3.33,3.33,3.33,3.32,3.33,3.33,3.33,3.32,3.34,3.34,3.34,3.34,3.32,3.33,3.33,3.32,3.33,3.33,3.33,3.32,3.34,3.34,3.34,3.34,3.34,3.32,45.0,1.0,0.0,1.0,1.0,659043,0.0,79.95,23.815086079708315
1765219164104,0.0,0.0,1.0,10.0,0.0,0.0,0.0,0.0,0.0,0.0,0.0,0.0,0.0,0.0,0.0,0.0,-0.020496,0.0026839999999999998,0.989664,-0.7000000000000001,0.42000000000000004,-0.07,29.00390625,3.33,3.33,3.33,3.32,3.33,3.33,3.33,3.32,3.34,3.34,3.34,3.34,3.32,3.33,3.33,3.32,3.33,3.33,3.33,3.32,3.34,3.34,3.34,3.34,3.34,3.32,45.0,1.0,0.0,1.0,1.0,659078,0.0,79.95,23.815086079708315
1765219164120,0.0,0.0,1.0,10.0,0.0,0.0,0.0,0.0,0.0,0.0,0.0,0.0,0.0,0.0,0.0,0.0,-0.020496,0.0026839999999999998,0.989664,-0.7000000000000001,0.42000000000000004,-0.07,29.00390625,3.33,3.33,3.33,3.32,3.33,3.33,3.33,3.32,3.34,3.34,3.34,3.34,3.32,3.33,3.33,3.32,3.33,3.33,3.33,3.32,3.34,3.34,3.34,3.34,3.34,3.32,45.0,1.0,0.0,1.0,1.0,659094,0.0,79.95,23.815086079708315
1765219164138,0.0,0.0,1.0,10.0,0.0,0.0,0.0,0.0,0.0,0.0,0.0,0.0,0.0,0.0,0.0,0.0,-0.020496,0.0026839999999999998,0.989664,-0.7000000000000001,0.42000000000000004,-0.07,29.00390625,3.33,3.33,3.33,3.32,3.33,3.33,3.33,3.32,3.34,3.34,3.34,3.34,3.32,3.33,3.33,3.32,3.33,3.33,3.33,3.32,3.34,3.34,3.34,3.34,3.34,3.32,45.0,1.0,0.0,1.0,1.0,659112,0.0,79.95,23.815086079708315
1765219164171,0.0,0.0,1.0,10.0,0.0,0.0,0.0,0.0,0.0,0.0,0.0,0.0,0.0,0.0,0.0,0.0,-0.020496,0.0026839999999999998,0.989664,-0.7000000000000001,0.42000000000000004,-0.07,29.00390625,3.33,3.33,3.33,3.32,3.33,3.33,3.33,3.32,3.34,3.34,3.34,3.34,3.32,3.33,3.33,3.32,3.33,3.33,3.33,3.32,3.34,3.34,3.34,3.34,3.34,3.32,45.0,1.0,0.0,1.0,1.0,659145,0.0,79.95,23.815086079708315
1765219164219,0.0,0.0,1.0,10.0,0.0,0.0,0.0,0.0,0.0,0.0,0.0,0.0,0.0,0.0,0.0,0.0,-0.024644,-0.0017079999999999999,0.995032,-0.7000000000000001,0.42000000000000004,-0.07,29.00390625,3.33,3.33,3.33,3.32,3.33,3.33,3.33,3.32,3.34,3.34,3.34,3.34,3.32,3.33,3.33,3.32,3.33,3.33,3.33,3.32,3.34,3.34,3.34,3.34,3.34,3.32,45.0,1.0,0.0,1.0,1.0,659193,0.0,79.95,23.815086079708315
1765219164237,0.0,0.0,1.0,10.0,0.0,0.0,0.0,0.0,0.0,0.0,0.0,0.0,0.0,0.0,0.0,0.0,-0.024644,-0.0017079999999999999,0.995032,-0.7000000000000001,0.42000000000000004,-0.07,29.00390625,3.33,3.33,3.33,3.32,3.33,3.33,3.33,3.32,3.34,3.34,3.34,3.34,3.32,3.33,3.33,3.32,3.33,3.33,3.33,3.32,3.34,3.34,3.34,3.34,3.34,3.32,45.0,1.0,0.0,1.0,1.0,659211,0.0,79.95,23.815086079708315
1765219164286,0.0,0.0,1.0,10.0,0.0,0.0,0.0,0.0,0.0,0.0,0.0,0.0,0.0,0.0,0.0,0.0,-0.024644,-0.0017079999999999999,0.995032,-0.77,0.42000000000000004,0.07,29.00390625,3.33,3.33,3.33,3.32,3.33,3.33,3.33,3.32,3.34,3.34,3.34,3.34,3.32,3.33,3.33,3.32,3.33,3.33,3.33,3.32,3.34,3.34,3.34,3.34,3.34,3.32,45.0,1.0,0.0,1.0,1.0,659260,0.0,79.95,23.815086079708315
1765219164320,0.0,0.0,1.0,10.0,0.0,0.0,0.0,0.0,0.0,0.0,0.0,0.0,0.0,0.0,0.0,0.0,-0.024644,-0.0017079999999999999,0.995032,-0.77,0.42000000000000004,0.07,29.03515625,3.33,3.33,3.33,3.32,3.33,3.33,3.33,3.32,3.34,3.34,3.34,3.34,3.32,3.33,3.33,3.32,3.33,3.33,3.33,3.32,3.34,3.34,3.34,3.34,3.34,3.32,45.0,1.0,0.0,1.0,1.0,659294,0.0,79.95,23.815086079708315
1765219164337,0.0,0.0,1.0,10.0,0.0,0.0,0.0,0.0,0.0,0.0,0.0,0.0,0.0,0.0,0.0,0.0,-0.0305,0.008173999999999999,0.996862,-0.77,0.42000000000000004,0.07,29.03515625,3.33,3.33,3.33,3.32,3.33,3.33,3.33,3.32,3.34,3.34,3.34,3.34,3.32,3.33,3.33,3.32,3.33,3.33,3.33,3.32,3.34,3.34,3.34,3.34,3.34,3.32,45.0,1.0,0.0,1.0,1.0,659311,0.0,79.95,23.815086079708315
1765219164371,0.0,0.0,1.0,10.0,0.0,0.0,0.0,0.0,0.0,0.0,0.0,0.0,0.0,0.0,0.0,0.0,-0.0305,0.008173999999999999,0.996862,-0.7000000000000001,0.42000000000000004,0.0,29.03515625,3.33,3.33,3.33,3.32,3.33,3.33,3.33,3.32,3.34,3.34,3.34,3.34,3.32,3.33,3.33,3.32,3.33,3.33,3.33,3.32,3.34,3.34,3.34,3.34,3.34,3.32,45.0,1.0,0.0,1.0,1.0,659345,0.0,79.95,23.815086079708315
1765219164386,0.0,0.0,1.0,10.0,0.0,0.0,0.0,0.0,0.0,0.0,0.0,0.0,0.0,0.0,0.0,0.0,-0.0305,0.008173999999999999,0.996862,-0.7000000000000001,0.42000000000000004,0.0,29.03515625,3.33,3.33,3.33,3.32,3.33,3.33,3.33,3.32,3.34,3.34,3.34,3.34,3.32,3.33,3.33,3.32,3.33,3.33,3.33,3.32,3.34,3.34,3.34,3.34,3.34,3.32,45.0,1.0,0.0,1.0,1.0,659360,0.0,79.95,23.815086079708315
1765219164420,0.0,0.0,1.0,10.0,0.0,0.0,0.0,0.0,0.0,0.0,0.0,0.0,0.0,0.0,0.0,0.0,-0.0305,0.008173999999999999,0.996862,-0.7000000000000001,0.42000000000000004,0.0,29.01953125,3.33,3.33,3.33,3.32,3.33,3.33,3.33,3.32,3.34,3.34,3.34,3.34,3.32,3.33,3.33,3.32,3.33,3.33,3.33,3.32,3.34,3.34,3.34,3.34,3.34,3.32,45.0,1.0,0.0,1.0,1.0,659394,0.0,79.95,23.815086079708315
1765219164437,0.0,0.0,1.0,10.0,0.0,0.0,0.0,0.0,0.0,0.0,0.0,0.0,0.0,0.0,0.0,0.0,-0.0305,0.008173999999999999,0.996862,-0.7000000000000001,0.42000000000000004,0.0,29.01953125,3.33,3.33,3.33,3.32,3.33,3.33,3.33,3.32,3.34,3.34,3.34,3.34,3.32,3.33,3.33,3.32,3.33,3.33,3.33,3.32,3.34,3.34,3.34,3.34,3.34,3.32,45.0,1.0,0.0,1.0,1.0,659411,0.0,79.95,23.815086079708315
1765219164454,0.0,0.0,1.0,10.0,0.0,0.0,0.0,0.0,0.0,0.0,0.0,0.0,0.0,0.0,0.0,0.0,-0.0305,0.008173999999999999,0.996862,-0.7000000000000001,0.42000000000000004,0.0,29.01953125,3.33,3.33,3.33,3.32,3.33,3.33,3.33,3.32,3.34,3.34,3.34,3.34,3.32,3.33,3.33,3.32,3.33,3.33,3.33,3.32,3.34,3.34,3.34,3.34,3.34,3.32,45.0,1.0,0.0,1.0,1.0,659428,0.0,79.95,23.815086079708315
1765219164487,0.0,0.0,1.0,10.0,0.0,0.0,0.0,0.0,0.0,0.0,0.0,0.0,0.0,0.0,0.0,0.0,-0.0305,0.008173999999999999,0.996862,-0.7000000000000001,0.42000000000000004,0.0,29.01953125,3.33,3.33,3.33,3.32,3.33,3.33,3.33,3.32,3.34,3.34,3.34,3.34,3.32,3.33,3.33,3.32,3.33,3.33,3.33,3.32,3.34,3.34,3.34,3.34,3.34,3.32,46.0,1.0,0.0,1.0,1.0,659461,0.0,79.95,23.815086079708315
1765219164555,0.0,0.0,1.0,10.0,0.0,0.0,0.0,0.0,0.0,0.0,0.0,0.0,0.0,0.0,0.0,0.0,-0.0305,0.008173999999999999,0.996862,-0.7000000000000001,0.42000000000000004,0.0,29.01953125,3.33,3.33,3.33,3.32,3.33,3.33,3.33,3.32,3.34,3.34,3.34,3.34,3.32,3.33,3.33,3.32,3.33,3.33,3.33,3.32,3.34,3.34,3.34,3.34,3.34,3.32,46.0,1.0,0.0,1.0,1.0,659529,0.0,79.95,23.815086079708315
1765219164619,0.0,0.0,1.0,10.0,0.0,0.0,0.0,0.0,0.0,0.0,0.0,0.0,0.0,0.0,0.0,0.0,-0.030378,0.005124,0.994788,-0.7000000000000001,0.42000000000000004,0.0,29.01953125,3.33,3.33,3.33,3.32,3.33,3.33,3.33,3.32,3.34,3.34,3.34,3.34,3.32,3.33,3.33,3.32,3.33,3.33,3.33,3.32,3.34,3.34,3.34,3.34,3.34,3.32,46.0,1.0,0.0,1.0,1.0,659593,0.0,79.95,23.815086079708315
1765219164651,0.0,0.0,1.0,10.0,0.0,0.0,0.0,0.0,0.0,0.0,0.0,0.0,0.0,0.0,0.0,0.0,-0.030378,0.005124,0.994788,-0.7000000000000001,0.42000000000000004,0.0,29.01953125,3.33,3.33,3.33,3.32,3.33,3.33,3.33,3.32,3.34,3.34,3.34,3.34,3.32,3.33,3.33,3.32,3.33,3.33,3.33,3.32,3.34,3.34,3.34,3.34,3.34,3.32,45.0,1.0,0.0,1.0,1.0,659625,0.0,79.95,23.815086079708315
1765219164669,0.0,0.0,1.0,10.0,0.0,0.0,0.0,0.0,0.0,0.0,0.0,0.0,0.0,0.0,0.0,0.0,-0.030378,0.005124,0.994788,-0.7000000000000001,0.42000000000000004,0.0,29.01953125,3.33,3.33,3.33,3.32,3.33,3.33,3.33,3.32,3.34,3.34,3.34,3.34,3.32,3.33,3.33,3.32,3.33,3.33,3.33,3.32,3.34,3.34,3.34,3.34,3.34,3.32,45.0,1.0,0.0,1.0,1.0,659643,0.0,79.95,23.815086079708315
1765219164737,0.0,0.0,1.0,10.0,0.0,0.0,0.0,0.0,0.0,0.0,0.0,0.0,0.0,0.0,0.0,0.0,-0.021594,0.010614,0.980758,-0.77,0.42000000000000004,-0.07,29.01953125,3.33,3.33,3.33,3.32,3.33,3.33,3.33,3.32,3.34,3.34,3.34,3.34,3.32,3.33,3.33,3.32,3.33,3.33,3.33,3.32,3.34,3.34,3.34,3.34,3.34,3.32,45.0,1.0,0.0,1.0,1.0,659711,0.0,79.95,23.815086079708315
1765219164769,0.0,0.0,1.0,10.0,0.0,0.0,0.0,0.0,0.0,0.0,0.0,0.0,0.0,0.0,0.0,0.0,-0.021594,0.010614,0.980758,-0.77,0.42000000000000004,-0.07,29.01171875,3.33,3.33,3.33,3.32,3.33,3.33,3.33,3.32,3.34,3.34,3.34,3.34,3.32,3.33,3.33,3.32,3.33,3.33,3.33,3.32,3.34,3.34,3.34,3.34,3.34,3.32,45.0,1.0,0.0,1.0,1.0,659743,0.0,79.95,23.815086079708315
1765219164803,0.0,0.0,1.0,10.0,0.0,0.0,0.0,0.0,0.0,0.0,0.0,0.0,0.0,0.0,0.0,0.0,-0.021594,0.010614,0.980758,-0.77,0.42000000000000004,-0.07,29.01171875,3.33,3.33,3.33,3.32,3.33,3.33,3.33,3.32,3.34,3.34,3.34,3.34,3.32,3.33,3.33,3.32,3.33,3.33,3.33,3.32,3.34,3.34,3.34,3.34,3.34,3.32,45.0,1.0,0.0,1.0,1.0,659777,0.0,79.95,23.815086079708315
1765219164836,0.0,0.0,1.0,10.0,0.0,0.0,0.0,0.0,0.0,0.0,0.0,0.0,0.0,0.0,0.0,0.0,-0.021594,0.010614,0.980758,-0.77,0.42000000000000004,-0.07,29.01171875,3.33,3.33,3.33,3.32,3.33,3.33,3.33,3.32,3.34,3.34,3.34,3.34,3.32,3.33,3.33,3.32,3.33,3.33,3.33,3.32,3.34,3.34,3.34,3.34,3.34,3.32,45.0,1.0,0.0,1.0,1.0,659810,0.0,79.95,23.815086079708315
1765219164852,0.0,0.0,1.0,10.0,0.0,0.0,0.0,0.0,0.0,0.0,0.0,0.0,0.0,0.0,0.0,0.0,-0.017811999999999998,0.00244,1.002962,-0.77,0.42000000000000004,-0.07,29.01171875,3.33,3.33,3.33,3.32,3.33,3.33,3.33,3.32,3.34,3.34,3.34,3.34,3.32,3.33,3.33,3.32,3.33,3.33,3.33,3.32,3.34,3.34,3.34,3.34,3.34,3.32,45.0,1.0,0.0,1.0,1.0,659826,0.0,79.95,23.815086079708315
1765219164870,0.0,0.0,1.0,10.0,0.0,0.0,0.0,0.0,0.0,0.0,0.0,0.0,0.0,0.0,0.0,0.0,-0.017811999999999998,0.00244,1.002962,-0.77,0.42000000000000004,-0.07,29.01171875,3.33,3.33,3.33,3.32,3.33,3.33,3.33,3.32,3.34,3.34,3.34,3.34,3.32,3.33,3.33,3.32,3.33,3.33,3.33,3.32,3.34,3.34,3.34,3.34,3.34,3.32,45.0,1.0,0.0,1.0,1.0,659844,0.0,79.95,23.815086079708315
