timestamp,THROTTLE,BRAKE,ECU_MODE_ID,TORQUE_GAIN,TORQUE_REF_LEFT_MOTOR,TORQUE_REF_RIGHT_MOTOR,LEFT_MOTOR_RPM,LEFT_MOTOR_TORQUE,LEFT_MOTOR_CURRENT,RIGHT_MOTOR_RPM,RIGHT_MOTOR_TORQUE,RIGHT_MOTOR_CURRENT,REAR_LEFT_WHEEL_SPEED,REAR_RIGHT_WHEEL_SPEED,FRONT_LEFT_WHEEL_SPEED,FRONT_RIGHT_WHEEL_SPEED,ACCEL_LONGITUDINAL,ACCEL_LATERAL,ACCEL_NORMAL,VEL_ANGULAR_YAW,VEL_ANGULAR_PITCH,VEL_ANGULAR_ROLL,ELETROBUILD_TEMPERATURE,STACK_1_CELL_1,STACK_1_CELL_2,STACK_1_CELL_3,STACK_1_CELL_4,STACK_2_CELL_1,STACK_2_CELL_2,STACK_2_CELL_3,STACK_2_CELL_4,STACK_3_CELL_1,STACK_3_CELL_2,STACK_3_CELL_3,STACK_3_CELL_4,STACK_4_CELL_1,STACK_4_CELL_2,STACK_4_CELL_3,STACK_4_CELL_4,STACK_5_CELL_1,STACK_5_CELL_2,STACK_5_CELL_3,STACK_5_CELL_4,STACK_6_CELL_1,STACK_6_CELL_2,STACK_6_CELL_3,STACK_6_CELL_4,MAX_VOLTAGE,MIN_VOLTAGE,SHUNT_CURRENT,BMS_MODE_ID,BMS_ERROR_ID,AIR_P,AIR_N,t,VEHICLE_SPEED,TOTAL_VOLTAGE,HODOMETRO
1765218505026,0.0,0.0,0.0,0.0,0.0,0.0,0.0,0.0,0.0,0.0,0.0,0.0,0.0,0.0,0.0,0.0,0.0,0.0,0.0,-34.720000000000006,4.2,1.7500000000000002,25.0,0.0,0.0,0.0,0.0,0.0,0.0,0.0,0.0,0.0,0.0,0.0,0.0,0.0,0.0,0.0,0.0,0.0,0.0,0.0,0.0,0.0,0.0,0.0,0.0,0.0,0.0,0.0,0.0,0.0,0.0,0.0,0,0.0,0.0,0.0
1765218505060,0.0,0.0,0.0,0.0,0.0,0.0,0.0,0.0,0.0,0.0,0.0,0.0,0.0,0.0,0.0,0.0,0.0,0.0,0.0,-34.720000000000006,4.2,1.7500000000000002,25.0,0.0,0.0,0.0,0.0,0.0,0.0,0.0,0.0,0.0,0.0,0.0,0.0,0.0,0.0,0.0,0.0,0.0,0.0,0.0,0.0,0.0,0.0,0.0,0.0,0.0,0.0,0.0,0.0,0.0,0.0,0.0,34,0.0,0.0,0.0
1765218505077,0.0,0.0,0.0,0.0,0.0,0.0,0.0,0.0,0.0,0.0,0.0,0.0,0.0,0.0,0.0,0.0,-0.021716,-0.24888,0.98149,-34.720000000000006,4.2,1.7500000000000002,25.0,0.0,0.0,0.0,0.0,0.0,0.0,0.0,0.0,0.0,0.0,0.0,0.0,0.0,0.0,0.0,0.0,0.0,0.0,0.0,0.0,0.0,0.0,0.0,0.0,0.0,0.0,0.0,0.0,0.0,0.0,0.0,51,0.0,0.0,0.0
1765218505109,569.0,0.0,0.0,0.0,0.0,0.0,0.0,0.0,0.0,0.0,0.0,0.0,0.0,0.0,0.0,0.0,-0.021716,-0.24888,0.98149,-34.720000000000006,4.2,1.7500000000000002,25.0,0.0,0.0,0.0,0.0,0.0,0.0,0.0,0.0,0.0,0.0,0.0,0.0,0.0,0.0,0.0,0.0,0.0,0.0,0.0,0.0,0.0,0.0,0.0,0.0,0.0,0.0,0.0,0.0,0.0,0.0,0.0,83,0.0,0.0,0.0
1765218505126,569.0,0.0,1.0,10.0,0.0,0.0,0.0,0.0,0.0,0.0,0.0,0.0,0.0,0.0,0.0,0.0,-0.021716,-0.24888,0.98149,-35.35,4.760000000000001,4.130000000000001,25.0,0.0,0.0,0.0,0.0,0.0,0.0,0.0,0.0,0.0,0.0,0.0,0.0,0.0,0.0,0.0,0.0,0.0,0.0,0.0,0.0,0.0,0.0,0.0,0.0,0.0,0.0,0.0,0.0,0.0,0.0,0.0,100,0.0,0.0,0.0
1765218505143,569.0,0.0,1.0,10.0,567.0,567.0,0.0,0.0,0.0,0.0,0.0,0.0,0.0,0.0,0.0,0.0,-0.021716,-0.24888,0.98149,-35.35,4.760000000000001,4.130000000000001,25.0,0.0,0.0,0.0,0.0,0.0,0.0,0.0,0.0,0.0,0.0,0.0,0.0,0.0,0.0,0.0,0.0,0.0,0.0,0.0,0.0,0.0,0.0,0.0,0.0,0.0,0.0,0.0,0.0,0.0,0.0,0.0,117,0.0,0.0,0.0
1765218505159,569.0,0.0,1.0,10.0,567.0,567.0,0.0,0.0,0.0,0.0,0.0,0.0,922.0,677.0,0.1,0.0,-0.021716,-0.24888,0.98149,-35.35,4.760000000000001,4.130000000000001,25.0,0.0,0.0,0.0,0.0,0.0,0.0,0.0,0.0,0.0,0.0,0.0,0.0,0.0,0.0,0.0,0.0,0.0,0.0,0.0,0.0,0.0,0.0,0.0,0.0,0.0,0.0,0.0,0.0,0.0,0.0,0.0,133,0.0,0.0,0.0
1765218505177,569.0,0.0,1.0,10.0,567.0,567.0,0.0,0.0,0.0,0.0,0.0,0.0,922.0,677.0,0.1,0.0,-0.021716,-0.24888,0.98149,-35.35,4.760000000000001,4.130000000000001,25.0,0.0,0.0,0.0,0.0,0.0,0.0,0.0,0.0,0.0,0.0,0.0,0.0,0.0,0.0,0.0,0.0,0.0,0.0,0.0,0.0,0.0,0.0,0.0,0.0,0.0,0.0,0.0,0.0,0.0,0.0,0.0,151,0.0,0.0,0.0
1765218505194,569.0,0.0,1.0,10.0,567.0,567.0,922.0,5.356,103.7,0.0,0.0,0.0,922.0,677.0,0.1,0.0,-0.021716,-0.24888,0.98149,-35.35,4.760000000000001,4.130000000000001,25.0,0.0,0.0,0.0,0.0,0.0,0.0,0.0,0.0,0.0,0.0,0.0,0.0,0.0,0.0,0.0,0.0,0.0,0.0,0.0,0.0,0.0,0.0,0.0,0.0,0.0,0.0,0.0,0.0,0.0,0.0,0.0,168,5.089499271428572,0.0,0.0
1765218505243,569.0,0.0,1.0,10.0,567.0,567.0,922.0,5.356,103.7,677.0,5.420999999999999,103.80000000000001,922.0,677.0,0.1,0.0,-0.021716,-0.24888,0.98149,-35.35,4.760000000000001,4.130000000000001,25.0,0.0,0.0,0.0,0.0,0.0,0.0,0.0,0.0,0.0,0.0,0.0,0.0,0.0,0.0,0.0,0.0,0.0,0.0,0.0,0.0,0.0,0.0,0.0,0.0,0.0,0.0,0.0,0.0,0.0,0.0,0.0,217,8.826582792857145,0.0,0.0
1765218505310,569.0,0.0,1.0,10.0,567.0,567.0,922.0,5.356,103.7,677.0,5.420999999999999,103.80000000000001,922.0,677.0,0.1,0.0,-0.027084,-0.131882,0.8805959999999999,-35.35,4.760000000000001,4.130000000000001,25.0,0.0,0.0,0.0,0.0,0.0,0.0,0.0,0.0,0.0,0.0,0.0,0.0,0.0,0.0,0.0,0.0,0.0,0.0,0.0,0.0,0.0,0.0,0.0,0.0,0.0,0.0,0.0,0.0,0.0,0.0,0.0,284,8.826582792857145,0.0,0.0
1765218505326,569.0,0.0,1.0,10.0,567.0,567.0,922.0,5.356,103.7,677.0,5.420999999999999,103.80000000000001,922.0,677.0,0.1,0.0,-0.027084,-0.131882,0.8805959999999999,-32.410000000000004,1.4000000000000001,3.8500000000000005,25.0,0.0,0.0,0.0,0.0,0.0,0.0,0.0,0.0,0.0,0.0,0.0,0.0,0.0,0.0,0.0,0.0,0.0,0.0,0.0,0.0,0.0,0.0,0.0,0.0,0.0,0.0,0.0,0.0,0.0,0.0,0.0,300,8.826582792857145,0.0,0.0
1765218505343,569.0,0.0,1.0,10.0,567.0,567.0,922.0,5.356,103.7,677.0,5.420999999999999,103.80000000000001,922.0,677.0,0.1,0.0,-0.027084,-0.131882,0.8805959999999999,-32.410000000000004,1.4000000000000001,3.8500000000000005,25.0,0.0,0.0,0.0,0.0,0.0,0.0,0.0,0.0,0.0,0.0,0.0,0.0,0.0,0.0,0.0,0.0,0.0,0.0,0.0,0.0,0.0,0.0,0.0,0.0,0.0,0.0,0.0,0.0,0.0,0.0,0.0,317,8.826582792857145,0.0,0.0
1765218505376,564.0,0.0,1.0,10.0,567.0,567.0,922.0,5.356,103.7,677.0,5.420999999999999,103.80000000000001,922.0,677.0,0.1,0.0,-0.027084,-0.131882,0.8805959999999999,-32.410000000000004,1.4000000000000001,3.8500000000000005,25.0,0.0,0.0,0.0,0.0,0.0,0.0,0.0,0.0,0.0,0.0,0.0,0.0,0.0,0.0,0.0,0.0,0.0,0.0,0.0,0.0,0.0,0.0,0.0,0.0,0.0,0.0,0.0,0.0,0.0,0.0,0.0,350,8.826582792857145,0.0,0.0
1765218505393,564.0,0.0,1.0,10.0,567.0,567.0,922.0,5.356,103.7,677.0,5.420999999999999,103.80000000000001,922.0,677.0,0.1,0.0,-0.019642,-0.165066,0.983686,-32.410000000000004,1.4000000000000001,3.8500000000000005,25.0,0.0,0.0,0.0,0.0,0.0,0.0,0.0,0.0,0.0,0.0,0.0,0.0,0.0,0.0,0.0,0.0,0.0,0.0,0.0,0.0,0.0,0.0,0.0,0.0,0.0,0.0,0.0,0.0,0.0,0.0,0.0,367,8.826582792857145,0.0,0.0
1765218505410,564.0,0.0,1.0,10.0,567.0,567.0,922.0,5.356,103.7,677.0,5.420999999999999,103.80000000000001,922.0,677.0,0.1,0.0,-0.019642,-0.165066,0.983686,-32.410000000000004,1.4000000000000001,3.8500000000000005,25.0,0.0,0.0,0.0,0.0,0.0,0.0,0.0,0.0,0.0,0.0,0.0,0.0,0.0,0.0,0.0,0.0,0.0,0.0,0.0,0.0,0.0,0.0,0.0,0.0,0.0,0.0,0.0,0.0,0.0,0.0,0.0,384,8.826582792857145,0.0,0.0
1765218505460,564.0,0.0,1.0,10.0,567.0,567.0,922.0,5.356,103.7,677.0,5.420999999999999,103.80000000000001,922.0,677.0,0.1,0.0,-0.019642,-0.165066,0.983686,-30.730000000000004,2.7300000000000004,1.05,25.0,0.0,0.0,0.0,0.0,0.0,0.0,0.0,0.0,0.0,0.0,0.0,0.0,0.0,0.0,0.0,0.0,0.0,0.0,0.0,0.0,0.0,0.0,0.0,0.0,0.0,0.0,0.0,0.0,0.0,0.0,0.0,434,8.826582792857145,0.0,0.0
1765218505476,564.0,0.0,1.0,10.0,567.0,567.0,922.0,5.356,103.7,677.0,5.420999999999999,103.80000000000001,922.0,677.0,0.1,0.0,-0.019642,-0.165066,0.983686,-30.730000000000004,2.7300000000000004,1.05,25.0,0.0,0.0,0.0,0.0,0.0,0.0,0.0,0.0,0.0,0.0,0.0,0.0,0.0,0.0,0.0,0.0,0.0,0.0,0.0,0.0,0.0,0.0,0.0,0.0,0.0,0.0,0.0,0.0,0.0,0.0,0.0,450,8.826582792857145,0.0,0.0
1765218505509,330.0,0.0,1.0,10.0,567.0,567.0,922.0,5.356,103.7,677.0,5.420999999999999,103.80000000000001,922.0,677.0,0.1,0.0,-0.019642,-0.165066,0.983686,-30.730000000000004,2.7300000000000004,1.05,25.0,0.0,0.0,0.0,0.0,0.0,0.0,0.0,0.0,0.0,0.0,0.0,0.0,0.0,0.0,0.0,0.0,0.0,0.0,0.0,0.0,0.0,0.0,0.0,0.0,0.0,0.0,0.0,0.0,0.0,0.0,0.0,483,8.826582792857145,0.0,0.0
1765218505544,330.0,0.0,1.0,10.0,329.0,329.0,922.0,5.356,103.7,677.0,5.420999999999999,103.80000000000001,862.0,630.0,0.0,0.0,-0.019642,-0.165066,0.983686,-30.730000000000004,2.7300000000000004,1.05,25.0,0.0,0.0,0.0,0.0,0.0,0.0,0.0,0.0,0.0,0.0,0.0,0.0,0.0,0.0,0.0,0.0,0.0,0.0,0.0,0.0,0.0,0.0,0.0,0.0,0.0,0.0,0.0,0.0,0.0,0.0,0.0,518,8.826582792857145,0.0,0.0
1765218505576,330.0,0.0,1.0,10.0,329.0,329.0,862.0,5.785,99.60000000000001,677.0,5.420999999999999,103.80000000000001,862.0,630.0,0.0,0.0,-0.019642,-0.165066,0.983686,-30.730000000000004,2.7300000000000004,1.05,25.0,0.0,0.0,0.0,0.0,0.0,0.0,0.0,0.0,0.0,0.0,0.0,0.0,0.0,0.0,0.0,0.0,0.0,0.0,0.0,0.0,0.0,0.0,0.0,0.0,0.0,0.0,0.0,0.0,0.0,0.0,0.0,550,8.495378935714287,0.0,0.0
1765218505593,330.0,0.0,1.0,10.0,329.0,329.0,862.0,5.785,99.60000000000001,677.0,5.420999999999999,103.80000000000001,862.0,630.0,0.0,0.0,-0.094428,-0.137128,0.992104,-30.730000000000004,2.7300000000000004,1.05,25.0,0.0,0.0,0.0,0.0,0.0,0.0,0.0,0.0,0.0,0.0,0.0,0.0,0.0,0.0,0.0,0.0,0.0,0.0,0.0,0.0,0.0,0.0,0.0,0.0,0.0,0.0,0.0,0.0,0.0,0.0,0.0,567,8.495378935714287,0.0,0.0
1765218505643,330.0,0.0,1.0,10.0,329.0,329.0,862.0,5.785,99.60000000000001,630.0,5.733,100.30000000000001,862.0,630.0,0.0,0.0,-0.094428,-0.137128,0.992104,-30.730000000000004,2.7300000000000004,1.05,25.0,0.0,0.0,0.0,0.0,0.0,0.0,0.0,0.0,0.0,0.0,0.0,0.0,0.0,0.0,0.0,0.0,0.0,0.0,0.0,0.0,0.0,0.0,0.0,0.0,0.0,0.0,0.0,0.0,0.0,0.0,0.0,617,8.235935914285715,0.0,0.0
1765218505660,330.0,0.0,1.0,10.0,329.0,329.0,862.0,5.785,99.60000000000001,630.0,5.733,100.30000000000001,862.0,630.0,0.0,0.0,-0.094428,-0.137128,0.992104,-32.690000000000005,3.3600000000000003,2.87,25.0,0.0,0.0,0.0,0.0,0.0,0.0,0.0,0.0,0.0,0.0,0.0,0.0,0.0,0.0,0.0,0.0,0.0,0.0,0.0,0.0,0.0,0.0,0.0,0.0,0.0,0.0,0.0,0.0,0.0,0.0,0.0,634,8.235935914285715,0.0,0.0
1765218505710,330.0,0.0,1.0,10.0,329.0,329.0,862.0,5.785,99.60000000000001,630.0,5.733,100.30000000000001,862.0,630.0,0.0,0.0,-0.094428,-0.137128,0.992104,-32.690000000000005,3.3600000000000003,2.87,25.0,0.0,0.0,0.0,0.0,0.0,0.0,0.0,0.0,0.0,0.0,0.0,0.0,0.0,0.0,0.0,0.0,0.0,0.0,0.0,0.0,0.0,0.0,0.0,0.0,0.0,0.0,0.0,0.0,0.0,0.0,0.0,684,8.235935914285715,0.0,0.0
1765218505727,330.0,0.0,1.0,10.0,329.0,329.0,862.0,5.785,99.60000000000001,630.0,5.733,100.30000000000001,862.0,630.0,0.0,0.0,-0.094428,-0.137128,0.992104,-32.690000000000005,3.3600000000000003,2.87,25.0,0.0,0.0,0.0,0.0,0.0,0.0,0.0,0.0,0.0,0.0,0.0,0.0,0.0,0.0,0.0,0.0,0.0,0.0,0.0,0.0,0.0,0.0,0.0,0.0,3.34,3.17,76.0,0.0,0.0,0.0,0.0,701,8.235935914285715,0.0,0.0
1765218505743,330.0,0.0,1.0,10.0,329.0,329.0,862.0,5.785,99.60000000000001,630.0,5.733,100.30000000000001,862.0,630.0,0.0,0.0,-0.094428,-0.137128,0.992104,-32.690000000000005,3.3600000000000003,2.87,25.0,0.0,0.0,0.0,0.0,0.0,0.0,0.0,0.0,0.0,0.0,0.0,0.0,0.0,0.0,0.0,0.0,0.0,0.0,0.0,0.0,0.0,0.0,0.0,0.0,3.34,3.17,76.0,1.0,0.0,1.0,1.0,717,8.235935914285715,0.0,0.03660415961904762
1765218505776,330.0,0.0,1.0,10.0,329.0,329.0,862.0,5.785,99.60000000000001,630.0,5.733,100.30000000000001,862.0,630.0,0.0,0.0,-0.091012,-0.141764,1.004304,-32.690000000000005,3.3600000000000003,2.87,25.0,0.0,0.0,0.0,0.0,0.0,0.0,0.0,0.0,0.0,0.0,0.0,0.0,0.0,0.0,0.0,0.0,0.0,0.0,0.0,0.0,0.0,0.0,0.0,0.0,3.34,3.17,76.0,1.0,0.0,1.0,1.0,750,8.235935914285715,0.0,0.11210023883333334
1765218505793,330.0,0.0,1.0,10.0,329.0,329.0,862.0,5.785,99.60000000000001,630.0,5.733,100.30000000000001,862.0,630.0,0.0,0.0,-0.091012,-0.141764,1.004304,-29.050000000000004,0.56,2.45,25.0,0.0,0.0,0.0,0.0,0.0,0.0,0.0,0.0,0.0,0.0,0.0,0.0,0.0,0.0,0.0,0.0,0.0,0.0,0.0,0.0,0.0,0.0,0.0,0.0,3.34,3.17,76.0,1.0,0.0,1.0,1.0,767,8.235935914285715,0.0,0.15099215842857144
1765218505827,331.0,0.0,1.0,10.0,329.0,329.0,862.0,5.785,99.60000000000001,630.0,5.733,100.30000000000001,862.0,630.0,0.0,0.0,-0.091012,-0.141764,1.004304,-29.050000000000004,0.56,2.45,25.0,0.0,0.0,0.0,0.0,0.0,0.0,0.0,0.0,0.0,0.0,0.0,0.0,0.0,0.0,0.0,0.0,0.0,0.0,0.0,0.0,0.0,0.0,0.0,0.0,3.34,3.17,76.0,1.0,0.0,1.0,1.0,801,8.235935914285715,0.0,0.22877599761904766
1765218505843,331.0,0.0,1.0,10.0,329.0,329.0,862.0,5.785,99.60000000000001,630.0,5.733,100.30000000000001,862.0,630.0,0.0,0.0,-0.091012,-0.141764,1.004304,-29.050000000000004,0.56,2.45,25.0,0.0,0.0,0.0,0.0,0.0,0.0,0.0,0.0,0.0,0.0,0.0,0.0,0.0,0.0,0.0,0.0,0.0,0.0,0.0,0.0,0.0,0.0,0.0,0.0,3.34,3.17,76.0,1.0,0.0,1.0,1.0,817,8.235935914285715,0.0,0.26538015723809527
1765218505860,331.0,0.0,1.0,10.0,331.0,331.0,862.0,5.785,99.60000000000001,630.0,5.733,100.30000000000001,846.0,618.0,0.0,0.0,-0.091012,-0.141764,1.004304,-29.050000000000004,0.56,2.45,25.0,0.0,0.0,0.0,0.0,0.0,0.0,0.0,0.0,0.0,0.0,0.0,0.0,0.0,0.0,0.0,0.0,0.0,0.0,0.0,0.0,0.0,0.0,0.0,0.0,3.34,3.17,76.0,1.0,0.0,1.0,1.0,834,8.235935914285715,0.0,0.30427207683333335
1765218505894,331.0,0.0,1.0,10.0,331.0,331.0,846.0,5.5249999999999995,98.30000000000001,630.0,5.733,100.30000000000001,846.0,618.0,0.0,0.0,-0.091012,-0.141764,1.004304,-29.050000000000004,0.56,2.45,25.0,0.0,0.0,0.0,0.0,0.0,0.0,0.0,0.0,0.0,0.0,0.0,0.0,0.0,0.0,0.0,0.0,0.0,0.0,0.0,0.0,0.0,0.0,0.0,0.0,3.34,3.17,76.0,1.0,0.0,1.0,1.0,868,8.147614885714287,0.0,0.3816388445
1765218505944,331.0,0.0,1.0,10.0,331.0,331.0,846.0,5.5249999999999995,98.30000000000001,618.0,5.473,98.60000000000001,846.0,618.0,0.0,0.0,-0.091012,-0.141764,1.004304,-29.050000000000004,0.56,2.45,25.0,0.0,0.0,0.0,0.0,0.0,0.0,0.0,0.0,0.0,0.0,0.0,0.0,0.0,0.0,0.0,0.0,0.0,0.0,0.0,0.0,0.0,0.0,0.0,0.0,3.34,3.17,76.0,1.0,0.0,1.0,1.0,918,8.081374114285714,0.0,0.494340157
1765218505993,331.0,0.0,1.0,10.0,331.0,331.0,846.0,5.5249999999999995,98.30000000000001,618.0,5.473,98.60000000000001,846.0,618.0,0.0,0.0,-0.063196,-0.131028,1.0389519999999999,-29.050000000000004,0.56,2.45,25.0,0.0,0.0,0.0,0.0,0.0,0.0,0.0,0.0,0.0,0.0,0.0,0.0,0.0,0.0,0.0,0.0,0.0,0.0,0.0,0.0,0.0,0.0,0.0,0.0,3.34,3.17,76.0,1.0,0.0,1.0,1.0,967,8.081374114285714,0.0,0.604336638
1765218506026,331.0,0.0,1.0,10.0,331.0,331.0,846.0,5.5249999999999995,98.30000000000001,618.0,5.473,98.60000000000001,846.0,618.0,0.0,0.0,-0.063196,-0.131028,1.0389519999999999,-29.540000000000003,3.43,1.2600000000000002,25.0,0.0,0.0,0.0,0.0,0.0,0.0,0.0,0.0,0.0,0.0,0.0,0.0,0.0,0.0,0.0,0.0,0.0,0.0,0.0,0.0,0.0,0.0,0.0,0.0,3.34,3.17,76.0,1.0,0.0,1.0,1.0,1000,8.081374114285714,0.0,0.6784159007142858
1765218506043,331.0,0.0,1.0,10.0,331.0,331.0,846.0,5.5249999999999995,98.30000000000001,618.0,5.473,98.60000000000001,846.0,618.0,0.0,0.0,-0.063196,-0.131028,1.0389519999999999,-29.540000000000003,3.43,1.2600000000000002,25.0,0.0,0.0,0.0,0.0,0.0,0.0,0.0,0.0,0.0,0.0,0.0,0.0,0.0,0.0,0.0,0.0,0.0,0.0,0.0,0.0,0.0,0.0,0.0,0.0,3.34,3.17,76.0,1.0,0.0,1.0,1.0,1017,8.081374114285714,0.0,0.7165779451428572
1765218506060,331.0,0.0,1.0,10.0,331.0,331.0,846.0,5.5249999999999995,98.30000000000001,559.0,5.59,102.2,846.0,618.0,0.0,0.0,-0.063196,-0.131028,1.0389519999999999,-29.540000000000003,3.43,1.2600000000000002,25.0,0.0,0.0,0.0,0.0,0.0,0.0,0.0,0.0,0.0,0.0,0.0,0.0,0.0,0.0,0.0,0.0,0.0,0.0,0.0,0.0,0.0,0.0,0.0,0.0,3.34,3.17,76.0,1.0,0.0,1.0,1.0,1034,7.755690321428573,0.0,0.7539710139494048
1765218506077,331.0,0.0,1.0,10.0,331.0,331.0,846.0,5.5249999999999995,98.30000000000001,559.0,5.59,102.2,846.0,618.0,0.0,0.0,-0.063196,-0.131028,1.0389519999999999,-29.540000000000003,3.43,1.2600000000000002,25.0,0.0,0.0,0.0,0.0,0.0,0.0,0.0,0.0,0.0,0.0,0.0,0.0,0.0,0.0,0.0,0.0,0.0,0.0,0.0,0.0,0.0,0.0,0.0,0.0,3.34,3.17,76.0,1.0,0.0,1.0,1.0,1051,7.755690321428573,0.0,0.7905951071339287
1765218506143,331.0,0.0,1.0,10.0,331.0,331.0,846.0,5.5249999999999995,98.30000000000001,559.0,5.59,102.2,846.0,618.0,0.0,0.0,-0.005246,-0.095038,0.99064,-29.540000000000003,3.43,1.2600000000000002,25.0,0.0,0.0,0.0,0.0,0.0,0.0,0.0,0.0,0.0,0.0,0.0,0.0,0.0,0.0,0.0,0.0,0.0,0.0,0.0,0.0,0.0,0.0,0.0,0.0,3.34,3.17,76.0,1.0,0.0,1.0,1.0,1117,7.755690321428573,0.0,0.9327827630267859
1765218506160,331.0,0.0,1.0,10.0,331.0,331.0,846.0,5.5249999999999995,98.30000000000001,559.0,5.59,102.2,846.0,618.0,0.0,0.0,-0.005246,-0.095038,0.99064,-27.300000000000004,0.9800000000000001,-0.21000000000000002,25.0,0.0,0.0,0.0,0.0,0.0,0.0,0.0,0.0,0.0,0.0,0.0,0.0,0.0,0.0,0.0,0.0,0.0,0.0,0.0,0.0,0.0,0.0,0.0,0.0,3.34,3.17,76.0,1.0,0.0,1.0,1.0,1134,7.755690321428573,0.0,0.9694068562113097
1765218506177,331.0,0.0,1.0,10.0,331.0,331.0,846.0,5.5249999999999995,98.30000000000001,559.0,5.59,102.2,846.0,618.0,0.0,0.0,-0.005246,-0.095038,0.99064,-27.300000000000004,0.9800000000000001,-0.21000000000000002,25.0,0.0,0.0,0.0,0.0,0.0,0.0,0.0,0.0,0.0,0.0,0.0,0.0,0.0,0.0,0.0,0.0,0.0,0.0,0.0,0.0,0.0,0.0,0.0,0.0,3.34,3.17,76.0,1.0,0.0,1.0,1.0,1151,7.755690321428573,0.0,1.0060309493958335
1765218506210,544.0,0.0,1.0,10.0,331.0,331.0,846.0,5.5249999999999995,98.30000000000001,559.0,5.59,102.2,846.0,618.0,0.0,0.0,-0.005246,-0.095038,0.99064,-27.300000000000004,0.9800000000000001,-0.21000000000000002,25.0,0.0,0.0,0.0,0.0,0.0,0.0,0.0,0.0,0.0,0.0,0.0,0.0,0.0,0.0,0.0,0.0,0.0,0.0,0.0,0.0,0.0,0.0,0.0,0.0,3.34,3.17,76.0,1.0,0.0,1.0,1.0,1184,7.755690321428573,0.0,1.077124777342262
1765218506226,544.0,0.0,1.0,10.0,331.0,331.0,846.0,5.5249999999999995,98.30000000000001,559.0,5.59,102.2,846.0,618.0,0.0,0.0,-0.005246,-0.095038,0.99064,-27.300000000000004,0.9800000000000001,-0.21000000000000002,25.0,0.0,0.0,0.0,0.0,0.0,0.0,0.0,0.0,0.0,0.0,0.0,0.0,0.0,0.0,0.0,0.0,0.0,0.0,0.0,0.0,0.0,0.0,0.0,0.0,3.34,3.17,76.0,1.0,0.0,1.0,1.0,1200,7.755690321428573,0.0,1.1115945121041668
1765218506243,544.0,0.0,1.0,10.0,544.0,544.0,846.0,5.5249999999999995,98.30000000000001,559.0,5.59,102.2,743.0,547.0,0.0,0.0,-0.005246,-0.095038,0.99064,-27.300000000000004,0.9800000000000001,-0.21000000000000002,25.0,0.0,0.0,0.0,0.0,0.0,0.0,0.0,0.0,0.0,0.0,0.0,0.0,0.0,0.0,0.0,0.0,0.0,0.0,0.0,0.0,0.0,0.0,0.0,0.0,3.34,3.17,76.0,1.0,0.0,1.0,1.0,1217,7.755690321428573,0.0,1.1482186052886907
1765218506276,544.0,0.0,1.0,10.0,544.0,544.0,750.0,5.8629999999999995,102.5,559.0,5.59,102.2,743.0,547.0,0.0,0.0,-0.005246,-0.095038,0.99064,-27.300000000000004,0.9800000000000001,-0.21000000000000002,25.0,0.0,0.0,0.0,0.0,0.0,0.0,0.0,0.0,0.0,0.0,0.0,0.0,0.0,0.0,0.0,0.0,0.0,0.0,0.0,0.0,0.0,0.0,0.0,0.0,3.34,3.17,76.0,1.0,0.0,1.0,1.0,1250,7.225764150000001,0.0,1.216883604949405
1765218506310,544.0,0.0,1.0,10.0,544.0,544.0,750.0,5.8629999999999995,102.5,559.0,5.59,102.2,743.0,547.0,0.0,0.0,-0.021228,-0.137616,0.94184,-27.300000000000004,0.9800000000000001,-0.21000000000000002,25.0,0.0,0.0,0.0,0.0,0.0,0.0,0.0,0.0,0.0,0.0,0.0,0.0,0.0,0.0,0.0,0.0,0.0,0.0,0.0,0.0,0.0,0.0,0.0,0.0,3.34,3.17,76.0,1.0,0.0,1.0,1.0,1284,7.225764150000001,0.0,1.2851269330327384
1765218506343,544.0,0.0,1.0,10.0,544.0,544.0,750.0,5.8629999999999995,102.5,547.0,5.902,104.10000000000001,743.0,547.0,0.0,0.0,-0.021228,-0.137616,0.94184,-27.300000000000004,0.9800000000000001,-0.21000000000000002,25.0,0.0,0.0,0.0,0.0,0.0,0.0,0.0,0.0,0.0,0.0,0.0,0.0,0.0,0.0,0.0,0.0,0.0,0.0,0.0,0.0,0.0,0.0,0.0,0.0,3.34,3.17,76.0,1.0,0.0,1.0,1.0,1317,7.15952337857143,0.0,1.351059500872024
1765218506376,544.0,0.0,1.0,10.0,544.0,544.0,750.0,5.8629999999999995,102.5,547.0,5.902,104.10000000000001,743.0,547.0,0.0,0.0,-0.021228,-0.137616,0.94184,-26.6,1.8900000000000001,0.28,25.0,0.0,0.0,0.0,0.0,0.0,0.0,0.0,0.0,0.0,0.0,0.0,0.0,0.0,0.0,0.0,0.0,0.0,0.0,0.0,0.0,0.0,0.0,0.0,0.0,3.34,3.17,76.0,1.0,0.0,1.0,1.0,1350,7.15952337857143,0.0,1.4166884651755955
1765218506427,544.0,0.0,1.0,10.0,544.0,544.0,750.0,5.8629999999999995,102.5,547.0,5.902,104.10000000000001,743.0,547.0,0.0,0.0,-0.021228,-0.137616,0.94184,-26.6,1.8900000000000001,0.28,25.0,3.31,3.32,3.23,3.28,0.0,0.0,0.0,0.0,0.0,0.0,0.0,0.0,0.0,0.0,0.0,0.0,0.0,0.0,0.0,0.0,0.0,0.0,0.0,0.0,3.34,3.17,76.0,1.0,0.0,1.0,1.0,1401,7.15952337857143,13.139999999999999,1.518115046372024
1765218506443,544.0,0.0,1.0,10.0,544.0,544.0,750.0,5.8629999999999995,102.5,547.0,5.902,104.10000000000001,743.0,547.0,0.0,0.0,-0.021228,-0.137616,0.94184,-26.6,1.8900000000000001,0.28,25.0,3.31,3.32,3.23,3.28,3.3,3.3,3.19,3.25,0.0,0.0,0.0,0.0,0.0,0.0,0.0,0.0,0.0,0.0,0.0,0.0,0.0,0.0,0.0,0.0,3.34,3.17,76.0,1.0,0.0,1.0,1.0,1417,7.15952337857143,26.18,1.549935150276786
1765218506460,544.0,0.0,1.0,10.0,544.0,544.0,750.0,5.8629999999999995,102.5,547.0,5.902,104.10000000000001,743.0,547.0,0.0,0.0,-0.021228,-0.137616,0.94184,-26.6,1.8900000000000001,0.28,25.0,3.31,3.32,3.23,3.28,3.3,3.3,3.19,3.25,3.34,3.35,3.33,3.32,0.0,0.0,0.0,0.0,0.0,0.0,0.0,0.0,0.0,0.0,0.0,0.0,3.34,3.17,76.0,1.0,0.0,1.0,1.0,1434,7.15952337857143,39.519999999999996,1.5837440106755956
1765218506477,544.0,0.0,1.0,10.0,544.0,544.0,750.0,5.8629999999999995,102.5,547.0,5.902,104.10000000000001,743.0,547.0,0.0,0.0,-0.021228,-0.137616,0.94184,-26.6,1.8900000000000001,0.28,25.0,3.31,3.32,3.23,3.28,3.3,3.3,3.19,3.25,3.34,3.35,3.33,3.32,3.31,3.29,3.22,3.33,0.0,0.0,0.0,0.0,0.0,0.0,0.0,0.0,3.34,3.17,76.0,1.0,0.0,1.0,1.0,1451,7.15952337857143,52.669999999999995,1.6175528710744052
1765218506494,544.0,0.0,1.0,10.0,544.0,544.0,750.0,5.8629999999999995,102.5,547.0,5.902,104.10000000000001,743.0,547.0,0.0,0.0,-0.021228,-0.137616,0.94184,-26.6,1.8900000000000001,0.28,25.0,3.31,3.32,3.23,3.28,3.3,3.3,3.19,3.25,3.34,3.35,3.33,3.32,3.31,3.29,3.22,3.33,3.32,3.28,3.27,3.31,3.34,3.34,3.29,3.31,3.34,3.17,76.0,1.0,0.0,1.0,1.0,1468,7.15952337857143,79.13000000000001,1.6513617314732147
1765218506526,544.0,0.0,1.0,10.0,544.0,544.0,750.0,5.8629999999999995,102.5,547.0,5.902,104.10000000000001,743.0,547.0,0.0,0.0,-0.036356,-0.162382,0.979904,-26.6,1.8900000000000001,0.28,25.0,3.31,3.32,3.23,3.28,3.3,3.3,3.19,3.25,3.34,3.35,3.33,3.32,3.31,3.29,3.22,3.33,3.32,3.28,3.27,3.31,3.34,3.34,3.29,3.31,3.34,3.17,76.0,1.0,0.0,1.0,1.0,1500,7.15952337857143,79.13000000000001,1.7150019392827385
1765218506543,527.0,0.0,1.0,10.0,544.0,544.0,750.0,5.8629999999999995,102.5,547.0,5.902,104.10000000000001,743.0,547.0,0.0,0.0,-0.036356,-0.162382,0.979904,-26.6,1.8900000000000001,0.28,25.0,3.31,3.32,3.23,3.28,3.3,3.3,3.19,3.25,3.34,3.35,3.33,3.32,3.31,3.29,3.22,3.33,3.32,3.28,3.27,3.31,3.34,3.34,3.29,3.31,3.34,3.17,76.0,1.0,0.0,1.0,1.0,1517,7.15952337857143,79.13000000000001,1.748810799681548
1765218506560,527.0,0.0,1.0,10.0,542.0,542.0,750.0,5.8629999999999995,102.5,547.0,5.902,104.10000000000001,743.0,547.0,0.0,0.0,-0.036356,-0.162382,0.979904,-26.6,1.8900000000000001,0.28,25.0,3.31,3.32,3.23,3.28,3.3,3.3,3.19,3.25,3.34,3.35,3.33,3.32,3.31,3.29,3.22,3.33,3.32,3.28,3.27,3.31,3.34,3.34,3.29,3.31,3.34,3.17,76.0,1.0,0.0,1.0,1.0,1534,7.15952337857143,79.13000000000001,1.7826196600803577
1765218506593,527.0,0.0,1.0,10.0,542.0,542.0,750.0,5.8629999999999995,102.5,547.0,5.902,104.10000000000001,728.0,536.0,7.300000000000001,0.0,-0.036356,-0.162382,0.979904,-26.6,1.8900000000000001,0.28,25.0,3.31,3.32,3.23,3.28,3.3,3.3,3.19,3.25,3.34,3.35,3.33,3.32,3.31,3.29,3.22,3.33,3.32,3.28,3.27,3.31,3.34,3.34,3.29,3.31,3.34,3.17,76.0,1.0,0.0,1.0,1.0,1567,7.15952337857143,79.13000000000001,1.8482486243839291
1765218506610,527.0,0.0,1.0,10.0,542.0,542.0,750.0,5.8629999999999995,102.5,547.0,5.902,104.10000000000001,728.0,536.0,7.300000000000001,0.0,-0.036356,-0.162382,0.979904,-27.020000000000003,3.8500000000000005,2.66,25.0,3.31,3.32,3.23,3.28,3.3,3.3,3.19,3.25,3.34,3.35,3.33,3.32,3.31,3.29,3.22,3.33,3.32,3.28,3.27,3.31,3.34,3.34,3.29,3.31,3.34,3.17,76.0,1.0,0.0,1.0,1.0,1584,7.15952337857143,79.13000000000001,1.8820574847827387
1765218506627,527.0,0.0,1.0,10.0,542.0,542.0,734.0,6.084,102.9,547.0,5.902,104.10000000000001,728.0,536.0,7.300000000000001,0.0,-0.036356,-0.162382,0.979904,-27.020000000000003,3.8500000000000005,2.66,25.0,3.31,3.32,3.23,3.28,3.3,3.3,3.19,3.25,3.34,3.35,3.33,3.32,3.31,3.29,3.22,3.33,3.32,3.28,3.27,3.31,3.34,3.34,3.29,3.31,3.34,3.17,76.0,1.0,0.0,1.0,1.0,1601,7.071202350000001,79.13000000000001,1.9156578094196435
1765218506676,527.0,0.0,1.0,10.0,542.0,542.0,734.0,6.084,102.9,536.0,6.109999999999999,104.30000000000001,728.0,536.0,7.300000000000001,0.0,-0.036356,-0.162382,0.979904,-27.020000000000003,3.8500000000000005,2.66,25.0,3.31,3.32,3.23,3.28,3.3,3.3,3.19,3.25,3.34,3.35,3.33,3.32,3.31,3.29,3.22,3.33,3.32,3.28,3.27,3.31,3.34,3.34,3.29,3.31,3.34,3.17,76.0,1.0,0.0,1.0,1.0,1650,7.010481642857145,79.13000000000001,2.01149149214881
1765218506693,527.0,0.0,1.0,10.0,299.0,299.0,734.0,6.084,102.9,536.0,6.109999999999999,104.30000000000001,728.0,536.0,7.300000000000001,0.0,-0.036356,-0.162382,0.979904,-27.020000000000003,3.8500000000000005,2.66,25.0,3.31,3.32,3.23,3.28,3.3,3.3,3.19,3.25,3.34,3.35,3.33,3.32,3.31,3.29,3.22,3.33,3.32,3.28,3.27,3.31,3.34,3.34,3.29,3.31,3.34,3.17,76.0,1.0,0.0,1.0,1.0,1667,7.010481642857145,79.13000000000001,2.044596544351191
1765218506710,527.0,0.0,1.0,10.0,299.0,299.0,734.0,6.084,102.9,536.0,6.109999999999999,104.30000000000001,667.0,484.0,3.5,0.0,-0.036356,-0.162382,0.979904,-27.020000000000003,3.8500000000000005,2.66,25.0,3.31,3.32,3.23,3.28,3.3,3.3,3.19,3.25,3.34,3.35,3.33,3.32,3.31,3.29,3.22,3.33,3.32,3.28,3.27,3.31,3.34,3.34,3.29,3.31,3.34,3.17,76.0,1.0,0.0,1.0,1.0,1684,7.010481642857145,79.13000000000001,2.077701596553572
1765218506743,527.0,0.0,1.0,10.0,299.0,299.0,667.0,6.109999999999999,97.5,536.0,6.109999999999999,104.30000000000001,667.0,484.0,3.5,0.0,-0.036356,-0.162382,0.979904,-27.020000000000003,3.8500000000000005,2.66,25.0,3.31,3.32,3.23,3.28,3.3,3.3,3.19,3.25,3.34,3.35,3.33,3.32,3.31,3.29,3.22,3.33,3.32,3.28,3.27,3.31,3.34,3.34,3.29,3.31,3.34,3.17,76.0,1.0,0.0,1.0,1.0,1717,6.640637335714286,79.13000000000001,2.140269225205358
1765218506793,527.0,0.0,1.0,10.0,299.0,299.0,667.0,6.109999999999999,97.5,484.0,5.9799999999999995,99.5,667.0,484.0,3.5,0.0,-0.036356,-0.162382,0.979904,-27.020000000000003,3.8500000000000005,2.66,25.0,3.31,3.32,3.23,3.28,3.3,3.3,3.19,3.25,3.34,3.35,3.33,3.32,3.31,3.29,3.22,3.33,3.32,3.28,3.27,3.31,3.34,3.34,3.29,3.31,3.34,3.17,76.0,1.0,0.0,1.0,1.0,1767,6.353593992857143,79.13000000000001,2.230506942764882
1765218506810,527.0,0.0,1.0,10.0,299.0,299.0,667.0,6.109999999999999,97.5,484.0,5.9799999999999995,99.5,667.0,484.0,3.5,0.0,-0.075152,-0.07076,0.945744,-27.020000000000003,3.8500000000000005,2.66,25.0,3.31,3.32,3.23,3.28,3.3,3.3,3.19,3.25,3.34,3.35,3.33,3.32,3.31,3.29,3.22,3.33,3.32,3.28,3.27,3.31,3.34,3.34,3.29,3.31,3.34,3.17,76.0,1.0,0.0,1.0,1.0,1784,6.353593992857143,79.13000000000001,2.2605100255089297
1765218506877,527.0,0.0,1.0,10.0,299.0,299.0,667.0,6.109999999999999,97.5,484.0,5.9799999999999995,99.5,667.0,484.0,3.5,0.0,-0.075152,-0.07076,0.945744,-22.470000000000002,-2.7300000000000004,2.45,25.0,3.31,3.32,3.23,3.28,3.3,3.3,3.19,3.25,3.34,3.35,3.33,3.32,3.31,3.29,3.22,3.33,3.32,3.28,3.27,3.31,3.34,3.34,3.29,3.31,3.34,3.17,76.0,1.0,0.0,1.0,1.0,1851,6.353593992857143,79.13000000000001,2.378757469264882
1765218506910,527.0,0.0,1.0,10.0,299.0,299.0,667.0,6.109999999999999,97.5,484.0,5.9799999999999995,99.5,667.0,484.0,3.5,0.0,-0.104188,-0.065148,1.048712,-22.470000000000002,-2.7300000000000004,2.45,25.0,3.31,3.32,3.23,3.28,3.3,3.3,3.19,3.25,3.34,3.35,3.33,3.32,3.31,3.29,3.22,3.33,3.32,3.28,3.27,3.31,3.34,3.34,3.29,3.31,3.34,3.17,76.0,1.0,0.0,1.0,1.0,1884,6.353593992857143,79.13000000000001,2.436998747532739
1765218506943,212.0,0.0,1.0,10.0,299.0,299.0,667.0,6.109999999999999,97.5,484.0,5.9799999999999995,99.5,667.0,484.0,3.5,0.0,-0.104188,-0.065148,1.048712,-22.330000000000002,3.5000000000000004,2.7300000000000004,25.0,3.31,3.32,3.23,3.28,3.3,3.3,3.19,3.25,3.34,3.35,3.33,3.32,3.31,3.29,3.22,3.33,3.32,3.28,3.27,3.31,3.34,3.34,3.29,3.31,3.34,3.17,76.0,1.0,0.0,1.0,1.0,1917,6.353593992857143,79.13000000000001,2.495240025800596
1765218506976,212.0,0.0,1.0,10.0,233.0,233.0,667.0,6.109999999999999,97.5,484.0,5.9799999999999995,99.5,667.0,484.0,3.5,0.0,-0.104188,-0.065148,1.048712,-22.330000000000002,3.5000000000000004,2.7300000000000004,25.0,3.31,3.32,3.23,3.28,3.3,3.3,3.19,3.25,3.34,3.35,3.33,3.32,3.31,3.29,3.22,3.33,3.32,3.28,3.27,3.31,3.34,3.34,3.29,3.31,3.34,3.17,76.0,1.0,0.0,1.0,1.0,1950,6.353593992857143,79.13000000000001,2.5534813040684528
1765218506993,212.0,0.0,1.0,10.0,233.0,233.0,667.0,6.109999999999999,97.5,484.0,5.9799999999999995,99.5,667.0,484.0,3.5,0.0,-0.104188,-0.065148,1.048712,-22.330000000000002,3.5000000000000004,2.7300000000000004,25.0,3.31,3.32,3.23,3.28,3.3,3.3,3.19,3.25,3.34,3.35,3.33,3.32,3.31,3.29,3.22,3.33,3.32,3.28,3.27,3.31,3.34,3.34,3.29,3.31,3.34,3.17,76.0,1.0,0.0,1.0,1.0,1967,6.353593992857143,79.13000000000001,2.5834843868125006
1765218507010,212.0,0.0,1.0,10.0,233.0,233.0,667.0,6.109999999999999,97.5,484.0,5.9799999999999995,99.5,636.0,465.0,3.5,0.0,-0.104188,-0.065148,1.048712,-22.330000000000002,3.5000000000000004,2.7300000000000004,25.0,3.31,3.32,3.23,3.28,3.3,3.3,3.19,3.25,3.34,3.35,3.33,3.32,3.31,3.29,3.22,3.33,3.32,3.28,3.27,3.31,3.34,3.34,3.29,3.31,3.34,3.17,76.0,1.0,0.0,1.0,1.0,1984,6.353593992857143,79.13000000000001,2.6134874695565484
1765218507027,212.0,0.0,1.0,10.0,233.0,233.0,649.0,5.837,95.80000000000001,484.0,5.9799999999999995,99.5,636.0,465.0,3.5,0.0,-0.104188,-0.065148,1.048712,-22.330000000000002,3.5000000000000004,2.7300000000000004,25.0,3.31,3.32,3.23,3.28,3.3,3.3,3.19,3.25,3.34,3.35,3.33,3.32,3.31,3.29,3.22,3.33,3.32,3.28,3.27,3.31,3.34,3.34,3.29,3.31,3.34,3.17,76.0,1.0,0.0,1.0,1.0,2001,6.254232835714286,79.13000000000001,2.643255949568453
1765218507077,212.0,0.0,1.0,10.0,233.0,233.0,649.0,5.837,95.80000000000001,471.0,5.694,97.2,636.0,465.0,3.5,0.0,-0.104188,-0.065148,1.048712,-22.330000000000002,3.5000000000000004,2.7300000000000004,25.0,3.31,3.32,3.23,3.28,3.3,3.3,3.19,3.25,3.34,3.35,3.33,3.32,3.31,3.29,3.22,3.33,3.32,3.28,3.27,3.31,3.34,3.34,3.29,3.31,3.34,3.17,76.0,1.0,0.0,1.0,1.0,2051,6.182472,79.13000000000001,2.7296219553720245
1765218507143,212.0,0.0,1.0,10.0,233.0,233.0,649.0,5.837,95.80000000000001,471.0,5.694,97.2,636.0,465.0,3.5,0.0,-0.078324,-0.06039,0.935008,-22.330000000000002,3.5000000000000004,2.7300000000000004,25.0,3.31,3.32,3.23,3.28,3.3,3.3,3.19,3.25,3.34,3.35,3.33,3.32,3.31,3.29,3.22,3.33,3.32,3.28,3.27,3.31,3.34,3.34,3.29,3.31,3.34,3.17,76.0,1.0,0.0,1.0,1.0,2117,6.182472,79.13000000000001,2.8429672753720245
1765218507160,212.0,0.0,1.0,10.0,233.0,233.0,649.0,5.837,95.80000000000001,471.0,5.694,97.2,636.0,465.0,3.5,0.0,-0.078324,-0.06039,0.935008,-20.37,-0.9800000000000001,1.9600000000000002,25.0,3.31,3.32,3.23,3.28,3.3,3.3,3.19,3.25,3.34,3.35,3.33,3.32,3.31,3.29,3.22,3.33,3.32,3.28,3.27,3.31,3.34,3.34,3.29,3.31,3.34,3.17,76.0,1.0,0.0,1.0,1.0,2134,6.182472,79.13000000000001,2.8721622820386914
1765218507176,212.0,0.0,1.0,10.0,233.0,233.0,649.0,5.837,95.80000000000001,471.0,5.694,97.2,636.0,465.0,3.5,0.0,-0.078324,-0.06039,0.935008,-20.37,-0.9800000000000001,1.9600000000000002,25.0,3.31,3.32,3.23,3.28,3.3,3.3,3.19,3.25,3.34,3.35,3.33,3.32,3.31,3.29,3.22,3.33,3.32,3.28,3.27,3.31,3.34,3.34,3.29,3.31,3.34,3.17,76.0,1.0,0.0,1.0,1.0,2150,6.182472,79.13000000000001,2.899639935372025
1765218507226,212.0,0.0,1.0,10.0,233.0,233.0,649.0,5.837,95.80000000000001,471.0,5.694,97.2,636.0,465.0,3.5,0.0,-0.078324,-0.06039,0.935008,-20.37,-0.9800000000000001,1.9600000000000002,25.0,3.31,3.32,3.23,3.28,3.3,3.3,3.19,3.25,3.34,3.35,3.33,3.32,3.31,3.29,3.22,3.33,3.32,3.28,3.27,3.31,3.34,3.34,3.29,3.31,3.35,3.22,65.0,1.0,0.0,1.0,1.0,2200,6.182472,79.13000000000001,2.9855076020386915
1765218507260,143.0,0.0,1.0,10.0,233.0,233.0,649.0,5.837,95.80000000000001,471.0,5.694,97.2,636.0,465.0,3.5,0.0,-0.078324,-0.06039,0.935008,-20.37,-0.9800000000000001,1.9600000000000002,25.0,3.31,3.32,3.23,3.28,3.3,3.3,3.19,3.25,3.34,3.35,3.33,3.32,3.31,3.29,3.22,3.33,3.32,3.28,3.27,3.31,3.34,3.34,3.29,3.31,3.35,3.22,65.0,1.0,0.0,1.0,1.0,2234,6.182472,79.13000000000001,3.0438976153720247
1765218507276,143.0,0.0,1.0,10.0,233.0,233.0,649.0,5.837,95.80000000000001,471.0,5.694,97.2,636.0,465.0,3.5,0.0,-0.078324,-0.06039,0.935008,-20.37,-0.9800000000000001,1.9600000000000002,25.0,3.31,3.32,3.23,3.28,3.3,3.3,3.19,3.25,3.34,3.35,3.33,3.32,3.31,3.29,3.22,3.33,3.32,3.28,3.27,3.31,3.34,3.34,3.29,3.31,3.35,3.22,65.0,1.0,0.0,1.0,1.0,2250,6.182472,79.13000000000001,3.071375268705358
1765218507293,143.0,0.0,1.0,10.0,153.0,153.0,649.0,5.837,95.80000000000001,471.0,5.694,97.2,636.0,465.0,3.5,0.0,-0.101992,-0.071004,1.035536,-20.37,-0.9800000000000001,1.9600000000000002,25.0,3.31,3.32,3.23,3.28,3.3,3.3,3.19,3.25,3.34,3.35,3.33,3.32,3.31,3.29,3.22,3.33,3.32,3.28,3.27,3.31,3.34,3.34,3.29,3.31,3.35,3.22,65.0,1.0,0.0,1.0,1.0,2267,6.182472,79.13000000000001,3.100570275372025
1765218507310,143.0,0.0,1.0,10.0,153.0,153.0,649.0,5.837,95.80000000000001,471.0,5.694,97.2,614.0,447.0,0.0,0.0,-0.101992,-0.071004,1.035536,-20.37,-0.9800000000000001,1.9600000000000002,25.0,3.31,3.32,3.23,3.28,3.3,3.3,3.19,3.25,3.34,3.35,3.33,3.32,3.31,3.29,3.22,3.33,3.32,3.28,3.27,3.31,3.34,3.34,3.29,3.31,3.35,3.22,65.0,1.0,0.0,1.0,1.0,2284,6.182472,79.13000000000001,3.129765282038692
1765218507327,143.0,0.0,1.0,10.0,153.0,153.0,649.0,5.837,95.80000000000001,471.0,5.694,97.2,614.0,447.0,0.0,0.0,-0.101992,-0.071004,1.035536,-20.37,-0.9800000000000001,1.9600000000000002,25.0,3.31,3.32,3.23,3.28,3.3,3.3,3.19,3.25,3.34,3.35,3.33,3.32,3.31,3.29,3.22,3.33,3.32,3.28,3.27,3.31,3.34,3.34,3.29,3.31,3.35,3.22,65.0,1.0,0.0,1.0,1.0,2301,6.182472,79.13000000000001,3.1589602887053587
1765218507360,0.0,0.0,1.0,10.0,153.0,153.0,649.0,5.837,95.80000000000001,471.0,5.694,97.2,614.0,447.0,0.0,0.0,-0.101992,-0.071004,1.035536,-20.37,-0.9800000000000001,1.9600000000000002,25.0,3.31,3.32,3.23,3.28,3.3,3.3,3.19,3.25,3.34,3.35,3.33,3.32,3.31,3.29,3.22,3.33,3.32,3.28,3.27,3.31,3.34,3.34,3.29,3.31,3.35,3.22,65.0,1.0,0.0,1.0,1.0,2334,6.182472,79.13000000000001,3.2156329487053585
1765218507377,0.0,0.0,1.0,10.0,0.0,0.0,649.0,5.837,95.80000000000001,471.0,5.694,97.2,614.0,447.0,0.0,0.0,-0.101992,-0.071004,1.035536,-20.37,-0.9800000000000001,1.9600000000000002,25.0,3.31,3.32,3.23,3.28,3.3,3.3,3.19,3.25,3.34,3.35,3.33,3.32,3.31,3.29,3.22,3.33,3.32,3.28,3.27,3.31,3.34,3.34,3.29,3.31,3.35,3.22,65.0,1.0,0.0,1.0,1.0,2351,6.182472,79.13000000000001,3.2448279553720254
1765218507394,0.0,0.0,1.0,10.0,0.0,0.0,649.0,5.837,95.80000000000001,471.0,5.694,97.2,0.0,0.0,0.0,0.0,-0.101992,-0.071004,1.035536,-20.37,-0.9800000000000001,1.9600000000000002,25.0,3.31,3.32,3.23,3.28,3.3,3.3,3.19,3.25,3.34,3.35,3.33,3.32,3.31,3.29,3.22,3.33,3.32,3.28,3.27,3.31,3.34,3.34,3.29,3.31,3.35,3.22,65.0,1.0,0.0,1.0,1.0,2368,6.182472,79.13000000000001,3.2740229620386923
1765218507409,0.0,0.0,1.0,10.0,0.0,0.0,649.0,5.837,95.80000000000001,471.0,5.694,97.2,0.0,0.0,0.0,0.0,-0.101992,-0.071004,1.035536,-20.37,-0.9800000000000001,1.9600000000000002,25.0,3.31,3.32,3.23,3.28,3.3,3.3,3.19,3.25,3.34,3.35,3.33,3.32,3.31,3.29,3.22,3.33,3.32,3.28,3.27,3.31,3.34,3.34,3.29,3.31,3.35,3.22,65.0,1.0,0.0,1.0,1.0,2383,6.182472,79.13000000000001,3.299783262038692
1765218507426,0.0,0.0,1.0,10.0,0.0,0.0,649.0,5.837,95.80000000000001,471.0,5.694,97.2,0.0,0.0,0.0,0.0,-0.101992,-0.071004,1.035536,-20.37,-0.9800000000000001,1.9600000000000002,25.0,3.31,3.32,3.23,3.28,3.3,3.3,3.19,3.25,3.34,3.35,3.33,3.32,3.31,3.29,3.22,3.33,3.32,3.28,3.27,3.31,3.34,3.34,3.29,3.31,3.36,3.27,54.0,1.0,0.0,1.0,1.0,2400,6.182472,79.13000000000001,3.328978268705359
1765218507460,0.0,0.0,1.0,10.0,0.0,0.0,0.0,0.0,0.0,471.0,5.694,97.2,0.0,0.0,0.0,0.0,-0.101992,-0.071004,1.035536,-20.37,-0.9800000000000001,1.9600000000000002,25.0,3.31,3.32,3.23,3.28,3.3,3.3,3.19,3.25,3.34,3.35,3.33,3.32,3.31,3.29,3.22,3.33,3.32,3.28,3.27,3.31,3.34,3.34,3.29,3.31,3.36,3.27,54.0,1.0,0.0,1.0,1.0,2434,2.599950278571429,79.13000000000001,3.3704508183541684
1765218507476,0.0,0.0,1.0,10.0,0.0,0.0,0.0,0.0,0.0,471.0,5.694,97.2,0.0,0.0,0.0,0.0,-0.164944,-0.06831999999999999,0.976366,-20.37,-0.9800000000000001,1.9600000000000002,25.0,3.31,3.32,3.23,3.28,3.3,3.3,3.19,3.25,3.34,3.35,3.33,3.32,3.31,3.29,3.22,3.33,3.32,3.28,3.27,3.31,3.34,3.34,3.29,3.31,3.36,3.27,54.0,1.0,0.0,1.0,1.0,2450,2.599950278571429,79.13000000000001,3.382006152925597
1765218507510,0.0,0.0,1.0,10.0,0.0,0.0,0.0,0.0,0.0,0.0,0.0,0.0,0.0,0.0,0.0,0.0,-0.164944,-0.06831999999999999,0.976366,-20.37,-0.9800000000000001,1.9600000000000002,25.0,3.31,3.32,3.23,3.28,3.3,3.3,3.19,3.25,3.34,3.35,3.33,3.32,3.31,3.29,3.22,3.33,3.32,3.28,3.27,3.31,3.34,3.34,3.29,3.31,3.36,3.27,54.0,1.0,0.0,1.0,1.0,2484,0.0,79.13000000000001,3.39428369590774
1765218507526,0.0,0.0,1.0,10.0,0.0,0.0,0.0,0.0,0.0,0.0,0.0,0.0,0.0,0.0,0.0,0.0,-0.164944,-0.06831999999999999,0.976366,-13.090000000000002,1.61,0.28,25.0,3.31,3.32,3.23,3.28,3.3,3.3,3.19,3.25,3.34,3.35,3.33,3.32,3.31,3.29,3.22,3.33,3.32,3.28,3.27,3.31,3.34,3.34,3.29,3.31,3.36,3.27,54.0,1.0,0.0,1.0,1.0,2500,0.0,79.13000000000001,3.39428369590774
1765218507593,0.0,0.0,1.0,10.0,0.0,0.0,0.0,0.0,0.0,0.0,0.0,0.0,0.0,0.0,0.0,0.0,-0.164944,-0.06831999999999999,0.976366,-13.090000000000002,1.61,0.28,25.0,3.31,3.32,3.23,3.28,3.3,3.3,3.19,3.25,3.34,3.35,3.33,3.32,3.31,3.29,3.22,3.33,3.32,3.28,3.27,3.31,3.34,3.34,3.29,3.31,3.36,3.27,54.0,1.0,0.0,1.0,1.0,2567,0.0,79.13000000000001,3.39428369590774
1765218507643,0.0,0.0,1.0,10.0,0.0,0.0,0.0,0.0,0.0,0.0,0.0,0.0,0.0,0.0,0.0,0.0,-0.164944,-0.06831999999999999,0.976366,-11.270000000000001,1.4700000000000002,-0.14,25.0,3.31,3.32,3.23,3.28,3.3,3.3,3.19,3.25,3.34,3.35,3.33,3.32,3.31,3.29,3.22,3.33,3.32,3.28,3.27,3.31,3.34,3.34,3.29,3.31,3.36,3.27,54.0,1.0,0.0,1.0,1.0,2617,0.0,79.13000000000001,3.39428369590774
1765218507660,0.0,0.0,1.0,10.0,0.0,0.0,0.0,0.0,0.0,0.0,0.0,0.0,0.0,0.0,0.0,0.0,-0.164944,-0.06831999999999999,0.976366,-11.270000000000001,1.4700000000000002,-0.14,25.0,3.31,3.32,3.23,3.28,3.3,3.3,3.19,3.25,3.34,3.35,3.33,3.32,3.31,3.29,3.22,3.33,3.32,3.28,3.27,3.31,3.34,3.34,3.29,3.31,3.36,3.27,54.0,1.0,0.0,1.0,1.0,2634,0.0,79.13000000000001,3.39428369590774
1765218507677,0.0,0.0,1.0,10.0,0.0,0.0,0.0,0.0,0.0,0.0,0.0,0.0,0.0,0.0,0.0,0.0,-0.164944,-0.06831999999999999,0.976366,-11.270000000000001,1.4700000000000002,-0.14,25.0,3.31,3.32,3.23,3.28,3.3,3.3,3.19,3.25,3.34,3.35,3.33,3.32,3.31,3.29,3.22,3.33,3.32,3.28,3.27,3.31,3.34,3.34,3.29,3.31,3.36,3.27,54.0,1.0,0.0,1.0,1.0,2651,0.0,79.13000000000001,3.39428369590774
1765218507694,0.0,0.0,1.0,10.0,0.0,0.0,0.0,0.0,0.0,0.0,0.0,0.0,0.0,0.0,0.0,0.0,-0.164944,-0.06831999999999999,0.976366,-11.270000000000001,1.4700000000000002,-0.14,25.0,3.31,3.32,3.23,3.28,3.3,3.3,3.19,3.25,3.34,3.35,3.33,3.32,3.31,3.29,3.22,3.33,3.32,3.28,3.27,3.31,3.34,3.34,3.29,3.31,3.36,3.27,54.0,1.0,0.0,1.0,1.0,2668,0.0,79.13000000000001,3.39428369590774
1765218507726,0.0,0.0,1.0,10.0,0.0,0.0,0.0,0.0,0.0,0.0,0.0,0.0,0.0,0.0,0.0,0.0,-0.164944,-0.06831999999999999,0.976366,-11.270000000000001,1.4700000000000002,-0.14,25.0,3.31,3.32,3.23,3.28,3.3,3.3,3.19,3.25,3.34,3.35,3.33,3.32,3.31,3.29,3.22,3.33,3.32,3.28,3.27,3.31,3.34,3.34,3.29,3.31,3.36,3.27,54.0,1.0,0.0,1.0,1.0,2700,0.0,79.13000000000001,3.39428369590774
1765218507743,0.0,0.0,1.0,10.0,0.0,0.0,0.0,0.0,0.0,0.0,0.0,0.0,0.0,0.0,0.0,0.0,-0.164944,-0.06831999999999999,0.976366,-11.270000000000001,1.4700000000000002,-0.14,25.0,3.31,3.32,3.23,3.28,3.3,3.3,3.19,3.25,3.34,3.35,3.33,3.32,3.31,3.29,3.22,3.33,3.32,3.28,3.27,3.31,3.34,3.34,3.29,3.31,3.36,3.27,54.0,1.0,0.0,1.0,1.0,2717,0.0,79.13000000000001,3.39428369590774
1765218507809,0.0,0.0,1.0,10.0,0.0,0.0,0.0,0.0,0.0,0.0,0.0,0.0,0.0,0.0,0.0,0.0,-0.08662,-0.01342,1.011014,-11.270000000000001,1.4700000000000002,-0.14,25.0,3.31,3.32,3.23,3.28,3.3,3.3,3.19,3.25,3.34,3.35,3.33,3.32,3.31,3.29,3.22,3.33,3.32,3.28,3.27,3.31,3.34,3.34,3.29,3.31,3.36,3.27,54.0,1.0,0.0,1.0,1.0,2783,0.0,79.13000000000001,3.39428369590774
1765218507876,0.0,0.0,1.0,10.0,0.0,0.0,0.0,0.0,0.0,0.0,0.0,0.0,0.0,0.0,0.0,0.0,-0.08662,-0.01342,1.011014,-8.89,0.6300000000000001,0.42000000000000004,25.0,3.31,3.32,3.23,3.28,3.3,3.3,3.19,3.25,3.34,3.35,3.33,3.32,3.31,3.29,3.22,3.33,3.32,3.28,3.27,3.31,3.34,3.34,3.29,3.31,3.36,3.27,54.0,1.0,0.0,1.0,1.0,2850,0.0,79.13000000000001,3.39428369590774
1765218507893,0.0,0.0,1.0,10.0,0.0,0.0,0.0,0.0,0.0,0.0,0.0,0.0,0.0,0.0,0.0,0.0,-0.08662,-0.01342,1.011014,-8.89,0.6300000000000001,0.42000000000000004,25.0,3.31,3.32,3.23,3.28,3.3,3.3,3.19,3.25,3.34,3.35,3.33,3.32,3.31,3.29,3.22,3.33,3.32,3.28,3.27,3.31,3.34,3.34,3.29,3.31,3.36,3.27,54.0,1.0,0.0,1.0,1.0,2867,0.0,79.13000000000001,3.39428369590774
1765218507926,0.0,0.0,1.0,10.0,0.0,0.0,0.0,0.0,0.0,0.0,0.0,0.0,0.0,0.0,0.0,0.0,-0.067344,-0.015616,0.9767319999999999,-8.89,0.6300000000000001,0.42000000000000004,25.0,3.31,3.32,3.23,3.28,3.3,3.3,3.19,3.25,3.34,3.35,3.33,3.32,3.31,3.29,3.22,3.33,3.32,3.28,3.27,3.31,3.34,3.34,3.29,3.31,3.36,3.27,54.0,1.0,0.0,1.0,1.0,2900,0.0,79.13000000000001,3.39428369590774
1765218507960,0.0,0.0,1.0,10.0,0.0,0.0,0.0,0.0,0.0,0.0,0.0,0.0,0.0,0.0,0.0,0.0,-0.131516,-0.0046359999999999995,0.993202,-8.89,0.6300000000000001,0.42000000000000004,25.0,3.31,3.32,3.23,3.28,3.3,3.3,3.19,3.25,3.34,3.35,3.33,3.32,3.31,3.29,3.22,3.33,3.32,3.28,3.27,3.31,3.34,3.34,3.29,3.31,3.36,3.27,54.0,1.0,0.0,1.0,1.0,2934,0.0,79.13000000000001,3.39428369590774
1765218508010,0.0,0.0,1.0,10.0,0.0,0.0,0.0,0.0,0.0,0.0,0.0,0.0,0.0,0.0,0.0,0.0,-0.131516,-0.0046359999999999995,0.993202,-1.1900000000000002,0.77,-0.42000000000000004,25.0,3.31,3.32,3.23,3.28,3.3,3.3,3.19,3.25,3.34,3.35,3.33,3.32,3.31,3.29,3.22,3.33,3.32,3.28,3.27,3.31,3.34,3.34,3.29,3.31,3.36,3.27,54.0,1.0,0.0,1.0,1.0,2984,0.0,79.13000000000001,3.39428369590774
1765218508060,0.0,0.0,1.0,10.0,0.0,0.0,0.0,0.0,0.0,0.0,0.0,0.0,0.0,0.0,0.0,0.0,-0.118828,0.011833999999999999,0.990518,-1.1900000000000002,0.77,-0.42000000000000004,25.0,3.31,3.32,3.23,3.28,3.3,3.3,3.19,3.25,3.34,3.35,3.33,3.32,3.31,3.29,3.22,3.33,3.32,3.28,3.27,3.31,3.34,3.34,3.29,3.31,3.36,3.27,54.0,1.0,0.0,1.0,1.0,3034,0.0,79.13000000000001,3.39428369590774
1765218508076,0.0,0.0,1.0,10.0,0.0,0.0,0.0,0.0,0.0,0.0,0.0,0.0,0.0,0.0,0.0,0.0,-0.118828,0.011833999999999999,0.990518,-1.05,0.49000000000000005,0.07,25.0,3.31,3.32,3.23,3.28,3.3,3.3,3.19,3.25,3.34,3.35,3.33,3.32,3.31,3.29,3.22,3.33,3.32,3.28,3.27,3.31,3.34,3.34,3.29,3.31,3.36,3.27,54.0,1.0,0.0,1.0,1.0,3050,0.0,79.13000000000001,3.39428369590774
1765218508093,0.0,0.0,1.0,10.0,0.0,0.0,0.0,0.0,0.0,0.0,0.0,0.0,0.0,0.0,0.0,0.0,-0.118828,0.011833999999999999,0.990518,-1.05,0.49000000000000005,0.07,25.0,3.31,3.32,3.23,3.28,3.3,3.3,3.19,3.25,3.34,3.35,3.33,3.32,3.31,3.29,3.22,3.33,3.32,3.28,3.27,3.31,3.34,3.34,3.29,3.31,3.36,3.27,54.0,1.0,0.0,1.0,1.0,3067,0.0,79.13000000000001,3.39428369590774
1765218508110,0.0,0.0,1.0,10.0,0.0,0.0,0.0,0.0,0.0,0.0,0.0,0.0,0.0,0.0,0.0,0.0,-0.118828,0.011833999999999999,0.990518,-1.05,0.49000000000000005,0.07,25.0,3.31,3.32,3.23,3.28,3.3,3.3,3.19,3.25,3.34,3.35,3.33,3.32,3.31,3.29,3.22,3.33,3.32,3.28,3.27,3.31,3.34,3.34,3.29,3.31,3.36,3.27,54.0,1.0,0.0,1.0,1.0,3084,0.0,79.13000000000001,3.39428369590774
1765218508127,0.0,0.0,1.0,10.0,0.0,0.0,0.0,0.0,0.0,0.0,0.0,0.0,0.0,0.0,0.0,0.0,-0.118828,0.011833999999999999,0.990518,-1.05,0.49000000000000005,0.07,25.0,3.31,3.32,3.23,3.28,3.3,3.3,3.19,3.25,3.34,3.35,3.33,3.32,3.31,3.29,3.22,3.33,3.32,3.28,3.27,3.31,3.34,3.34,3.29,3.31,3.36,3.27,54.0,1.0,0.0,1.0,1.0,3101,0.0,79.13000000000001,3.39428369590774
1765218508143,0.0,0.0,1.0,10.0,0.0,0.0,0.0,0.0,0.0,0.0,0.0,0.0,0.0,0.0,0.0,0.0,-0.118828,0.011833999999999999,0.990518,-1.05,0.49000000000000005,0.07,25.0,3.31,3.32,3.23,3.28,3.3,3.3,3.19,3.25,3.34,3.35,3.33,3.32,3.31,3.29,3.22,3.33,3.32,3.28,3.27,3.31,3.34,3.34,3.29,3.31,3.36,3.27,54.0,1.0,0.0,1.0,1.0,3117,0.0,79.13000000000001,3.39428369590774
1765218508160,0.0,0.0,1.0,10.0,0.0,0.0,0.0,0.0,0.0,0.0,0.0,0.0,0.0,0.0,0.0,0.0,-0.118828,0.011833999999999999,0.990518,-1.05,0.49000000000000005,0.07,25.0,3.32,3.33,3.31,3.28,3.3,3.3,3.19,3.25,3.34,3.35,3.33,3.32,3.31,3.29,3.22,3.33,3.32,3.28,3.27,3.31,3.34,3.34,3.29,3.31,3.36,3.27,54.0,1.0,0.0,1.0,1.0,3134,0.0,79.23000000000002,3.39428369590774
1765218508177,0.0,0.0,1.0,10.0,0.0,0.0,0.0,0.0,0.0,0.0,0.0,0.0,0.0,0.0,0.0,0.0,-0.118828,0.011833999999999999,0.990518,-1.05,0.49000000000000005,0.07,25.0,3.32,3.33,3.31,3.28,3.31,3.32,3.31,3.3,3.34,3.35,3.33,3.32,3.31,3.29,3.22,3.33,3.32,3.28,3.27,3.31,3.34,3.34,3.29,3.31,3.36,3.27,54.0,1.0,0.0,1.0,1.0,3151,0.0,79.43000000000002,3.39428369590774
1765218508209,0.0,0.0,1.0,10.0,0.0,0.0,0.0,0.0,0.0,0.0,0.0,0.0,0.0,0.0,0.0,0.0,-0.118828,0.011833999999999999,0.990518,-1.05,0.49000000000000005,0.07,25.0,3.32,3.33,3.31,3.28,3.31,3.32,3.31,3.3,3.35,3.36,3.36,3.33,3.31,3.29,3.22,3.33,3.32,3.28,3.27,3.31,3.34,3.34,3.29,3.31,3.36,3.27,54.0,1.0,0.0,1.0,1.0,3183,0.0,79.49000000000002,3.39428369590774
1765218508243,0.0,0.0,1.0,10.0,0.0,0.0,0.0,0.0,0.0,0.0,0.0,0.0,0.0,0.0,0.0,0.0,-0.118828,0.011833999999999999,0.990518,-1.05,0.49000000000000005,0.07,25.0,3.32,3.33,3.31,3.28,3.31,3.32,3.31,3.3,3.35,3.36,3.36,3.33,3.32,3.32,3.32,3.33,3.32,3.28,3.27,3.31,3.34,3.34,3.29,3.31,3.36,3.27,54.0,1.0,0.0,1.0,1.0,3217,0.0,79.63000000000002,3.39428369590774
1765218508260,0.0,0.0,1.0,10.0,0.0,0.0,0.0,0.0,0.0,0.0,0.0,0.0,0.0,0.0,0.0,0.0,-0.118828,0.011833999999999999,0.990518,-1.05,0.49000000000000005,0.07,25.0,3.32,3.33,3.31,3.28,3.31,3.32,3.31,3.3,3.35,3.36,3.36,3.33,3.32,3.32,3.32,3.33,3.32,3.28,3.27,3.31,3.34,3.34,3.29,3.31,3.36,3.27,54.0,1.0,0.0,1.0,1.0,3234,0.0,79.63000000000002,3.39428369590774
1765218508276,0.0,0.0,1.0,10.0,0.0,0.0,0.0,0.0,0.0,0.0,0.0,0.0,0.0,0.0,0.0,0.0,-0.118828,0.011833999999999999,0.990518,-1.05,0.49000000000000005,0.07,25.0,3.32,3.33,3.31,3.28,3.31,3.32,3.31,3.3,3.35,3.36,3.36,3.33,3.32,3.32,3.32,3.33,3.32,3.32,3.32,3.32,3.34,3.34,3.29,3.31,3.36,3.27,54.0,1.0,0.0,1.0,1.0,3250,0.0,79.73000000000002,3.39428369590774
1765218508293,0.0,0.0,1.0,10.0,0.0,0.0,0.0,0.0,0.0,0.0,0.0,0.0,0.0,0.0,0.0,0.0,-0.118828,0.011833999999999999,0.990518,-1.05,0.49000000000000005,0.07,25.0,3.32,3.33,3.31,3.28,3.31,3.32,3.31,3.3,3.35,3.36,3.36,3.33,3.32,3.32,3.32,3.33,3.32,3.32,3.32,3.32,3.34,3.35,3.33,3.33,3.36,3.27,54.0,1.0,0.0,1.0,1.0,3267,0.0,79.8,3.39428369590774
1765218508360,0.0,0.0,1.0,10.0,0.0,0.0,0.0,0.0,0.0,0.0,0.0,0.0,0.0,0.0,0.0,0.0,-0.010248,-0.024399999999999998,1.016016,-1.05,0.49000000000000005,0.07,25.0,3.32,3.33,3.31,3.28,3.31,3.32,3.31,3.3,3.35,3.36,3.36,3.33,3.32,3.32,3.32,3.33,3.32,3.32,3.32,3.32,3.34,3.35,3.33,3.33,3.36,3.27,54.0,1.0,0.0,1.0,1.0,3334,0.0,79.8,3.39428369590774
1765218508377,0.0,0.0,1.0,10.0,0.0,0.0,0.0,0.0,0.0,0.0,0.0,0.0,0.0,0.0,0.0,0.0,-0.010248,-0.024399999999999998,1.016016,0.07,1.2600000000000002,0.6300000000000001,25.0,3.32,3.33,3.31,3.28,3.31,3.32,3.31,3.3,3.35,3.36,3.36,3.33,3.32,3.32,3.32,3.33,3.32,3.32,3.32,3.32,3.34,3.35,3.33,3.33,3.36,3.27,54.0,1.0,0.0,1.0,1.0,3351,0.0,79.8,3.39428369590774
1765218508394,0.0,0.0,1.0,10.0,0.0,0.0,0.0,0.0,0.0,0.0,0.0,0.0,0.0,0.0,0.0,0.0,-0.010248,-0.024399999999999998,1.016016,0.07,1.2600000000000002,0.6300000000000001,25.0,3.32,3.33,3.31,3.28,3.31,3.32,3.31,3.3,3.35,3.36,3.36,3.33,3.32,3.32,3.32,3.33,3.32,3.32,3.32,3.32,3.34,3.35,3.33,3.33,3.36,3.27,54.0,1.0,0.0,1.0,1.0,3368,0.0,79.8,3.39428369590774
1765218508427,0.0,0.0,1.0,10.0,0.0,0.0,0.0,0.0,0.0,0.0,0.0,0.0,0.0,0.0,0.0,0.0,-0.010248,-0.024399999999999998,1.016016,0.07,1.2600000000000002,0.6300000000000001,25.0,3.32,3.33,3.31,3.28,3.31,3.32,3.31,3.3,3.35,3.36,3.36,3.33,3.32,3.32,3.32,3.33,3.32,3.32,3.32,3.32,3.34,3.35,3.33,3.33,3.36,3.27,54.0,1.0,0.0,1.0,1.0,3401,0.0,79.8,3.39428369590774
1765218508444,0.0,0.0,1.0,10.0,0.0,0.0,0.0,0.0,0.0,0.0,0.0,0.0,0.0,0.0,0.0,0.0,-0.010248,-0.024399999999999998,1.016016,0.07,1.2600000000000002,0.6300000000000001,25.0,3.32,3.33,3.31,3.28,3.31,3.32,3.31,3.3,3.35,3.36,3.36,3.33,3.32,3.32,3.32,3.33,3.32,3.32,3.32,3.32,3.34,3.35,3.33,3.33,3.36,3.27,54.0,1.0,0.0,1.0,1.0,3418,0.0,79.8,3.39428369590774
1765218508461,0.0,0.0,1.0,10.0,0.0,0.0,0.0,0.0,0.0,0.0,0.0,0.0,0.0,0.0,0.0,0.0,-0.010248,-0.024399999999999998,1.016016,0.07,1.2600000000000002,0.6300000000000001,25.0,3.32,3.33,3.31,3.28,3.31,3.32,3.31,3.3,3.35,3.36,3.36,3.33,3.32,3.32,3.32,3.33,3.32,3.32,3.32,3.32,3.34,3.35,3.33,3.33,3.36,3.27,54.0,1.0,0.0,1.0,1.0,3435,0.0,79.8,3.39428369590774
1765218508494,0.0,0.0,1.0,10.0,0.0,0.0,0.0,0.0,0.0,0.0,0.0,0.0,0.0,0.0,0.0,0.0,0.030378,-0.009394,0.99064,0.07,1.2600000000000002,0.6300000000000001,25.0,3.32,3.33,3.31,3.28,3.31,3.32,3.31,3.3,3.35,3.36,3.36,3.33,3.32,3.32,3.32,3.33,3.32,3.32,3.32,3.32,3.34,3.35,3.33,3.33,3.36,3.27,54.0,1.0,0.0,1.0,1.0,3468,0.0,79.8,3.39428369590774
1765218508511,0.0,0.0,1.0,10.0,0.0,0.0,0.0,0.0,0.0,0.0,0.0,0.0,0.0,0.0,0.0,0.0,0.030378,-0.009394,0.99064,0.07,1.2600000000000002,0.6300000000000001,25.0,3.32,3.33,3.31,3.28,3.31,3.32,3.31,3.3,3.35,3.36,3.36,3.33,3.32,3.32,3.32,3.33,3.32,3.32,3.32,3.32,3.34,3.35,3.33,3.33,3.36,3.27,54.0,1.0,0.0,1.0,1.0,3485,0.0,79.8,3.39428369590774
1765218508528,0.0,0.0,1.0,10.0,0.0,0.0,0.0,0.0,0.0,0.0,0.0,0.0,0.0,0.0,0.0,0.0,0.030378,-0.009394,0.99064,-0.07,0.14,-0.28,25.0,3.32,3.33,3.31,3.28,3.31,3.32,3.31,3.3,3.35,3.36,3.36,3.33,3.32,3.32,3.32,3.33,3.32,3.32,3.32,3.32,3.34,3.35,3.33,3.33,3.36,3.27,54.0,1.0,0.0,1.0,1.0,3502,0.0,79.8,3.39428369590774
1765218508561,0.0,0.0,1.0,10.0,0.0,0.0,0.0,0.0,0.0,0.0,0.0,0.0,0.0,0.0,0.0,0.0,0.030378,-0.009394,0.99064,-0.07,0.14,-0.28,25.0,3.32,3.33,3.31,3.28,3.31,3.32,3.31,3.3,3.35,3.36,3.36,3.33,3.32,3.32,3.32,3.33,3.32,3.32,3.32,3.32,3.34,3.35,3.33,3.33,3.36,3.27,54.0,1.0,0.0,1.0,1.0,3535,0.0,79.8,3.39428369590774
1765218508577,0.0,0.0,1.0,10.0,0.0,0.0,0.0,0.0,0.0,0.0,0.0,0.0,0.0,0.0,0.0,0.0,0.030378,-0.009394,0.99064,-0.07,0.14,-0.28,25.0,3.32,3.33,3.31,3.28,3.31,3.32,3.31,3.3,3.35,3.36,3.36,3.33,3.32,3.32,3.32,3.33,3.32,3.32,3.32,3.32,3.34,3.35,3.33,3.33,3.36,3.27,54.0,1.0,0.0,1.0,1.0,3551,0.0,79.8,3.39428369590774
1765218508611,0.0,0.0,1.0,10.0,0.0,0.0,0.0,0.0,0.0,0.0,0.0,0.0,0.0,0.0,0.0,0.0,0.030378,-0.009394,0.99064,-0.07,0.14,-0.28,25.0,3.32,3.33,3.31,3.28,3.31,3.32,3.31,3.3,3.35,3.36,3.36,3.33,3.32,3.32,3.32,3.33,3.32,3.32,3.32,3.32,3.34,3.35,3.33,3.33,3.36,3.27,54.0,1.0,0.0,1.0,1.0,3585,0.0,79.8,3.39428369590774
1765218508661,0.0,0.0,1.0,10.0,0.0,0.0,0.0,0.0,0.0,0.0,0.0,0.0,0.0,0.0,0.0,0.0,0.030378,-0.009394,0.99064,-0.07,0.14,-0.28,25.0,3.32,3.33,3.31,3.28,3.31,3.32,3.31,3.3,3.35,3.36,3.36,3.33,3.32,3.32,3.32,3.33,3.32,3.32,3.32,3.32,3.34,3.35,3.33,3.33,3.36,3.27,54.0,1.0,0.0,1.0,1.0,3635,0.0,79.8,3.39428369590774
1765218508694,0.0,0.0,1.0,10.0,0.0,0.0,0.0,0.0,0.0,0.0,0.0,0.0,0.0,0.0,0.0,0.0,0.016347999999999998,-0.010492,0.996374,-0.07,0.14,-0.28,25.0,3.32,3.33,3.31,3.28,3.31,3.32,3.31,3.3,3.35,3.36,3.36,3.33,3.32,3.32,3.32,3.33,3.32,3.32,3.32,3.32,3.34,3.35,3.33,3.33,3.36,3.27,54.0,1.0,0.0,1.0,1.0,3668,0.0,79.8,3.39428369590774
1765218508727,0.0,0.0,1.0,10.0,0.0,0.0,0.0,0.0,0.0,0.0,0.0,0.0,0.0,0.0,0.0,0.0,0.016347999999999998,-0.010492,0.996374,-0.6300000000000001,0.21000000000000002,-0.14,25.0,3.32,3.33,3.31,3.28,3.31,3.32,3.31,3.3,3.35,3.36,3.36,3.33,3.32,3.32,3.32,3.33,3.32,3.32,3.32,3.32,3.34,3.35,3.33,3.33,3.36,3.27,54.0,1.0,0.0,1.0,1.0,3701,0.0,79.8,3.39428369590774
1765218508744,0.0,0.0,1.0,10.0,0.0,0.0,0.0,0.0,0.0,0.0,0.0,0.0,0.0,0.0,0.0,0.0,0.016347999999999998,-0.010492,0.996374,-0.6300000000000001,0.21000000000000002,-0.14,25.0,3.32,3.33,3.31,3.28,3.31,3.32,3.31,3.3,3.35,3.36,3.36,3.33,3.32,3.32,3.32,3.33,3.32,3.32,3.32,3.32,3.34,3.35,3.33,3.33,3.36,3.27,54.0,1.0,0.0,1.0,1.0,3718,0.0,79.8,3.39428369590774
1765218508777,0.0,0.0,1.0,10.0,0.0,0.0,0.0,0.0,0.0,0.0,0.0,0.0,0.0,0.0,0.0,0.0,0.023302,-0.017811999999999998,0.9983259999999999,-0.6300000000000001,0.21000000000000002,-0.14,25.0,3.32,3.33,3.31,3.28,3.31,3.32,3.31,3.3,3.35,3.36,3.36,3.33,3.32,3.32,3.32,3.33,3.32,3.32,3.32,3.32,3.34,3.35,3.33,3.33,3.36,3.27,54.0,1.0,0.0,1.0,1.0,3751,0.0,79.8,3.39428369590774
1765218508794,0.0,0.0,1.0,10.0,0.0,0.0,0.0,0.0,0.0,0.0,0.0,0.0,0.0,0.0,0.0,0.0,0.023302,-0.017811999999999998,0.9983259999999999,-0.77,0.56,-0.07,25.0,3.32,3.33,3.31,3.28,3.31,3.32,3.31,3.3,3.35,3.36,3.36,3.33,3.32,3.32,3.32,3.33,3.32,3.32,3.32,3.32,3.34,3.35,3.33,3.33,3.36,3.27,54.0,1.0,0.0,1.0,1.0,3768,0.0,79.8,3.39428369590774
1765218508811,0.0,0.0,1.0,10.0,0.0,0.0,0.0,0.0,0.0,0.0,0.0,0.0,0.0,0.0,0.0,0.0,0.023302,-0.017811999999999998,0.9983259999999999,-0.77,0.56,-0.07,25.0,3.32,3.33,3.31,3.28,3.31,3.32,3.31,3.3,3.35,3.36,3.36,3.33,3.32,3.32,3.32,3.33,3.32,3.32,3.32,3.32,3.34,3.35,3.33,3.33,3.36,3.27,54.0,1.0,0.0,1.0,1.0,3785,0.0,79.8,3.39428369590774
1765218508827,0.0,0.0,1.0,10.0,0.0,0.0,0.0,0.0,0.0,0.0,0.0,0.0,0.0,0.0,0.0,0.0,0.023302,-0.017811999999999998,0.9983259999999999,-0.77,0.56,-0.07,25.0,3.32,3.33,3.31,3.28,3.31,3.32,3.31,3.3,3.35,3.36,3.36,3.33,3.32,3.32,3.32,3.33,3.32,3.32,3.32,3.32,3.34,3.35,3.33,3.33,3.36,3.27,54.0,1.0,0.0,1.0,1.0,3801,0.0,79.8,3.39428369590774
1765218508844,0.0,0.0,1.0,10.0,0.0,0.0,0.0,0.0,0.0,0.0,0.0,0.0,0.0,0.0,0.0,0.0,0.023302,-0.017811999999999998,0.9983259999999999,-0.77,0.56,-0.07,25.0,3.32,3.33,3.31,3.28,3.31,3.32,3.31,3.3,3.35,3.36,3.36,3.33,3.32,3.32,3.32,3.33,3.32,3.32,3.32,3.32,3.34,3.35,3.33,3.33,3.36,3.27,54.0,1.0,0.0,1.0,1.0,3818,0.0,79.8,3.39428369590774
1765218508878,0.0,0.0,1.0,10.0,0.0,0.0,0.0,0.0,0.0,0.0,0.0,0.0,0.0,0.0,0.0,0.0,0.023302,-0.017811999999999998,0.9983259999999999,-0.77,0.56,-0.07,25.0,3.32,3.33,3.31,3.28,3.31,3.32,3.31,3.3,3.35,3.36,3.36,3.33,3.32,3.32,3.32,3.33,3.32,3.32,3.32,3.32,3.34,3.35,3.33,3.33,3.36,3.27,54.0,1.0,0.0,1.0,1.0,3852,0.0,79.8,3.39428369590774
1765218508894,0.0,0.0,1.0,10.0,0.0,0.0,0.0,0.0,0.0,0.0,0.0,0.0,0.0,0.0,0.0,0.0,0.023302,-0.017811999999999998,0.9983259999999999,-0.77,0.56,-0.07,25.0,3.32,3.33,3.31,3.28,3.31,3.32,3.31,3.3,3.35,3.36,3.36,3.33,3.32,3.32,3.32,3.33,3.32,3.32,3.32,3.32,3.34,3.35,3.33,3.33,3.36,3.27,54.0,1.0,0.0,1.0,1.0,3868,0.0,79.8,3.39428369590774
1765218508943,0.0,0.0,1.0,10.0,0.0,0.0,0.0,0.0,0.0,0.0,0.0,0.0,0.0,0.0,0.0,0.0,0.023302,-0.017811999999999998,0.9983259999999999,-0.77,0.56,-0.07,25.0,3.32,3.33,3.31,3.28,3.31,3.32,3.31,3.3,3.35,3.36,3.36,3.33,3.32,3.32,3.32,3.33,3.32,3.32,3.32,3.32,3.34,3.35,3.33,3.33,3.36,3.27,54.0,1.0,0.0,1.0,1.0,3917,0.0,79.8,3.39428369590774
1765218509010,0.0,0.0,1.0,10.0,0.0,0.0,0.0,0.0,0.0,0.0,0.0,0.0,0.0,0.0,0.0,0.0,0.008418,-0.014884,0.9946659999999999,-0.77,0.56,-0.07,25.0,3.32,3.33,3.31,3.28,3.31,3.32,3.31,3.3,3.35,3.36,3.36,3.33,3.32,3.32,3.32,3.33,3.32,3.32,3.32,3.32,3.34,3.35,3.33,3.33,3.36,3.27,54.0,1.0,0.0,1.0,1.0,3984,0.0,79.8,3.39428369590774
1765218509026,0.0,0.0,1.0,10.0,0.0,0.0,0.0,0.0,0.0,0.0,0.0,0.0,0.0,0.0,0.0,0.0,0.008418,-0.014884,0.9946659999999999,-0.77,0.56,-0.07,25.0,3.32,3.33,3.31,3.28,3.31,3.32,3.31,3.3,3.35,3.36,3.36,3.33,3.32,3.32,3.32,3.33,3.32,3.32,3.32,3.32,3.34,3.35,3.33,3.33,3.36,3.28,45.0,1.0,0.0,1.0,1.0,4000,0.0,79.8,3.39428369590774
1765218509044,0.0,0.0,1.0,10.0,0.0,0.0,0.0,0.0,0.0,0.0,0.0,0.0,0.0,0.0,0.0,0.0,0.008418,-0.014884,0.9946659999999999,-0.77,0.56,-0.07,25.0,3.32,3.33,3.31,3.28,3.31,3.32,3.31,3.3,3.35,3.36,3.36,3.33,3.32,3.32,3.32,3.33,3.32,3.32,3.32,3.32,3.34,3.35,3.33,3.33,3.36,3.28,45.0,1.0,0.0,1.0,1.0,4018,0.0,79.8,3.39428369590774
1765218509061,0.0,0.0,1.0,10.0,0.0,0.0,0.0,0.0,0.0,0.0,0.0,0.0,0.0,0.0,0.0,0.0,0.008418,-0.014884,0.9946659999999999,-0.7000000000000001,0.6300000000000001,-0.07,25.0,3.32,3.33,3.31,3.28,3.31,3.32,3.31,3.3,3.35,3.36,3.36,3.33,3.32,3.32,3.32,3.33,3.32,3.32,3.32,3.32,3.34,3.35,3.33,3.33,3.36,3.28,45.0,1.0,0.0,1.0,1.0,4035,0.0,79.8,3.39428369590774
1765218509077,0.0,0.0,1.0,10.0,0.0,0.0,0.0,0.0,0.0,0.0,0.0,0.0,0.0,0.0,0.0,0.0,0.008418,-0.014884,0.9946659999999999,-0.7000000000000001,0.6300000000000001,-0.07,25.0,3.32,3.33,3.31,3.28,3.31,3.32,3.31,3.3,3.35,3.36,3.36,3.33,3.32,3.32,3.32,3.33,3.32,3.32,3.32,3.32,3.34,3.35,3.33,3.33,3.36,3.28,45.0,1.0,0.0,1.0,1.0,4051,0.0,79.8,3.39428369590774
1765218509127,0.0,0.0,1.0,10.0,0.0,0.0,0.0,0.0,0.0,0.0,0.0,0.0,0.0,0.0,0.0,0.0,0.008418,-0.014884,0.9946659999999999,-0.7000000000000001,0.6300000000000001,-0.07,25.0,3.32,3.33,3.31,3.28,3.31,3.32,3.31,3.3,3.35,3.36,3.36,3.33,3.32,3.32,3.32,3.33,3.32,3.32,3.32,3.32,3.34,3.35,3.33,3.33,3.36,3.28,45.0,1.0,0.0,1.0,1.0,4101,0.0,79.8,3.39428369590774
1765218509144,0.0,0.0,1.0,10.0,0.0,0.0,0.0,0.0,0.0,0.0,0.0,0.0,0.0,0.0,0.0,0.0,0.011101999999999999,-0.015006,0.992348,-0.7000000000000001,0.6300000000000001,-0.07,25.0,3.32,3.33,3.31,3.28,3.31,3.32,3.31,3.3,3.35,3.36,3.36,3.33,3.32,3.32,3.32,3.33,3.32,3.32,3.32,3.32,3.34,3.35,3.33,3.33,3.36,3.28,45.0,1.0,0.0,1.0,1.0,4118,0.0,79.8,3.39428369590774
1765218509161,0.0,0.0,1.0,10.0,0.0,0.0,0.0,0.0,0.0,0.0,0.0,0.0,0.0,0.0,0.0,0.0,0.011101999999999999,-0.015006,0.992348,-0.7000000000000001,0.6300000000000001,-0.07,25.0,3.32,3.33,3.31,3.28,3.31,3.32,3.31,3.3,3.35,3.36,3.36,3.33,3.32,3.32,3.32,3.33,3.32,3.32,3.32,3.32,3.34,3.35,3.33,3.33,3.36,3.28,45.0,1.0,0.0,1.0,1.0,4135,0.0,79.8,3.39428369590774
1765218509194,0.0,0.0,1.0,10.0,0.0,0.0,0.0,0.0,0.0,0.0,0.0,0.0,0.0,0.0,0.0,0.0,0.011101999999999999,-0.015006,0.992348,-0.7000000000000001,0.49000000000000005,-0.07,25.0,3.32,3.33,3.31,3.28,3.31,3.32,3.31,3.3,3.35,3.36,3.36,3.33,3.32,3.32,3.32,3.33,3.32,3.32,3.32,3.32,3.34,3.35,3.33,3.33,3.36,3.28,45.0,1.0,0.0,1.0,1.0,4168,0.0,79.8,3.39428369590774
1765218509226,0.0,0.0,1.0,10.0,0.0,0.0,0.0,0.0,0.0,0.0,0.0,0.0,0.0,0.0,0.0,0.0,0.011101999999999999,-0.015006,0.992348,-0.7000000000000001,0.49000000000000005,-0.07,25.0,3.32,3.33,3.31,3.28,3.31,3.32,3.31,3.3,3.35,3.36,3.36,3.33,3.32,3.32,3.32,3.33,3.32,3.32,3.32,3.32,3.34,3.35,3.33,3.33,3.36,3.28,45.0,1.0,0.0,1.0,1.0,4200,0.0,79.8,3.39428369590774
1765218509243,0.0,0.0,1.0,10.0,0.0,0.0,0.0,0.0,0.0,0.0,0.0,0.0,0.0,0.0,0.0,0.0,0.011101999999999999,-0.015006,0.992348,-0.7000000000000001,0.49000000000000005,-0.07,25.0,3.32,3.33,3.31,3.28,3.31,3.32,3.31,3.3,3.35,3.36,3.36,3.33,3.32,3.32,3.32,3.33,3.32,3.32,3.32,3.32,3.34,3.35,3.33,3.33,3.36,3.28,45.0,1.0,0.0,1.0,1.0,4217,0.0,79.8,3.39428369590774
1765218509260,0.0,0.0,1.0,10.0,0.0,0.0,0.0,0.0,0.0,0.0,0.0,0.0,0.0,0.0,0.0,0.0,0.011101999999999999,-0.015006,0.992348,-0.7000000000000001,0.49000000000000005,-0.07,25.0,3.32,3.33,3.31,3.28,3.31,3.32,3.31,3.3,3.35,3.36,3.36,3.33,3.32,3.32,3.32,3.33,3.32,3.32,3.32,3.32,3.34,3.35,3.33,3.33,3.36,3.28,45.0,1.0,0.0,1.0,1.0,4234,0.0,79.8,3.39428369590774
1765218509277,0.0,0.0,1.0,10.0,0.0,0.0,0.0,0.0,0.0,0.0,0.0,0.0,0.0,0.0,0.0,0.0,0.011101999999999999,-0.015006,0.992348,-0.7000000000000001,0.49000000000000005,-0.07,25.0,3.32,3.33,3.31,3.28,3.31,3.32,3.31,3.3,3.35,3.36,3.36,3.33,3.32,3.32,3.32,3.33,3.32,3.32,3.32,3.32,3.34,3.35,3.33,3.33,3.36,3.28,45.0,1.0,0.0,1.0,1.0,4251,0.0,79.8,3.39428369590774
1765218509295,0.0,0.0,1.0,10.0,0.0,0.0,0.0,0.0,0.0,0.0,0.0,0.0,0.0,0.0,0.0,0.0,0.011101999999999999,-0.015006,0.992348,-0.7000000000000001,0.49000000000000005,-0.07,25.0,3.32,3.33,3.31,3.28,3.31,3.32,3.31,3.3,3.35,3.36,3.36,3.33,3.32,3.32,3.32,3.33,3.32,3.32,3.32,3.32,3.34,3.35,3.33,3.33,3.36,3.28,45.0,1.0,0.0,1.0,1.0,4269,0.0,79.8,3.39428369590774
1765218509312,0.0,0.0,1.0,10.0,0.0,0.0,0.0,0.0,0.0,0.0,0.0,0.0,0.0,0.0,0.0,0.0,0.011101999999999999,-0.015006,0.992348,-0.7000000000000001,0.49000000000000005,-0.07,25.0,3.32,3.33,3.31,3.28,3.31,3.32,3.31,3.3,3.35,3.36,3.36,3.33,3.32,3.32,3.32,3.33,3.32,3.32,3.32,3.32,3.34,3.35,3.33,3.33,3.36,3.28,45.0,1.0,0.0,1.0,1.0,4286,0.0,79.8,3.39428369590774
1765218509361,0.0,0.0,1.0,10.0,0.0,0.0,0.0,0.0,0.0,0.0,0.0,0.0,0.0,0.0,0.0,0.0,0.019154,-0.013663999999999999,0.9989359999999999,-0.7000000000000001,0.49000000000000005,-0.07,25.0,3.32,3.33,3.31,3.28,3.31,3.32,3.31,3.3,3.35,3.36,3.36,3.33,3.32,3.32,3.32,3.33,3.32,3.32,3.32,3.32,3.34,3.35,3.33,3.33,3.36,3.28,45.0,1.0,0.0,1.0,1.0,4335,0.0,79.8,3.39428369590774
1765218509377,0.0,0.0,1.0,10.0,0.0,0.0,0.0,0.0,0.0,0.0,0.0,0.0,0.0,0.0,0.0,0.0,0.019154,-0.013663999999999999,0.9989359999999999,-0.7000000000000001,0.49000000000000005,-0.07,25.0,3.32,3.33,3.31,3.28,3.31,3.32,3.31,3.3,3.35,3.36,3.36,3.33,3.32,3.32,3.32,3.33,3.32,3.32,3.32,3.32,3.34,3.35,3.33,3.33,3.36,3.28,45.0,1.0,0.0,1.0,1.0,4351,0.0,79.8,3.39428369590774
1765218509427,0.0,0.0,1.0,10.0,0.0,0.0,0.0,0.0,0.0,0.0,0.0,0.0,0.0,0.0,0.0,0.0,0.019154,-0.013663999999999999,0.9989359999999999,-0.7000000000000001,0.56,-0.07,25.0,3.32,3.33,3.31,3.28,3.31,3.32,3.31,3.3,3.35,3.36,3.36,3.33,3.32,3.32,3.32,3.33,3.32,3.32,3.32,3.32,3.34,3.35,3.33,3.33,3.36,3.28,45.0,1.0,0.0,1.0,1.0,4401,0.0,79.8,3.39428369590774
1765218509443,0.0,0.0,1.0,10.0,0.0,0.0,0.0,0.0,0.0,0.0,0.0,0.0,0.0,0.0,0.0,0.0,0.019154,-0.013663999999999999,0.9989359999999999,-0.7000000000000001,0.56,-0.07,25.0,3.32,3.33,3.31,3.28,3.31,3.32,3.31,3.3,3.35,3.36,3.36,3.33,3.32,3.32,3.32,3.33,3.32,3.32,3.32,3.32,3.34,3.35,3.33,3.33,3.36,3.28,45.0,1.0,0.0,1.0,1.0,4417,0.0,79.8,3.39428369590774
1765218509493,0.0,0.0,1.0,10.0,0.0,0.0,0.0,0.0,0.0,0.0,0.0,0.0,0.0,0.0,0.0,0.0,0.010126,-0.014152,0.992104,-0.6300000000000001,0.6300000000000001,-0.14,25.0,3.32,3.33,3.31,3.28,3.31,3.32,3.31,3.3,3.35,3.36,3.36,3.33,3.32,3.32,3.32,3.33,3.32,3.32,3.32,3.32,3.34,3.35,3.33,3.33,3.36,3.28,45.0,1.0,0.0,1.0,1.0,4467,0.0,79.8,3.39428369590774
