timestamp,THROTTLE,BRAKE,ECU_MODE_ID,TORQUE_GAIN,TORQUE_REF_LEFT_MOTOR,TORQUE_REF_RIGHT_MOTOR,LEFT_MOTOR_RPM,LEFT_MOTOR_TORQUE,LEFT_MOTOR_CURRENT,RIGHT_MOTOR_RPM,RIGHT_MOTOR_TORQUE,RIGHT_MOTOR_CURRENT,REAR_LEFT_WHEEL_SPEED,REAR_RIGHT_WHEEL_SPEED,FRONT_LEFT_WHEEL_SPEED,FRONT_RIGHT_WHEEL_SPEED,ACCEL_LONGITUDINAL,ACCEL_LATERAL,ACCEL_NORMAL,VEL_ANGULAR_YAW,VEL_ANGULAR_PITCH,VEL_ANGULAR_ROLL,ELETROBUILD_TEMPERATURE,STACK_1_CELL_1,STACK_1_CELL_2,STACK_1_CELL_3,STACK_1_CELL_4,STACK_2_CELL_1,STACK_2_CELL_2,STACK_2_CELL_3,STACK_2_CELL_4,STACK_3_CELL_1,STACK_3_CELL_2,STACK_3_CELL_3,STACK_3_CELL_4,STACK_4_CELL_1,STACK_4_CELL_2,STACK_4_CELL_3,STACK_4_CELL_4,STACK_5_CELL_1,STACK_5_CELL_2,STACK_5_CELL_3,STACK_5_CELL_4,STACK_6_CELL_1,STACK_6_CELL_2,STACK_6_CELL_3,STACK_6_CELL_4,MAX_VOLTAGE,MIN_VOLTAGE,SHUNT_CURRENT,BMS_MODE_ID,BMS_ERROR_ID,AIR_P,AIR_N,t,VEHICLE_SPEED,TOTAL_VOLTAGE,HODOMETRO
1765219740012,0.0,0.0,0.0,0.0,0.0,0.0,3318.0,26.897,304.8,2158.0,30.666999999999998,289.1,3318.0,2158.0,18.0,17.900000000000002,-0.137738,0.06770999999999999,1.001132,-0.6300000000000001,0.35000000000000003,0.0,29.86328125,3.31,3.31,3.31,3.29,3.3,3.31,3.3,3.32,3.31,3.32,3.32,3.31,3.3,3.31,3.3,3.31,3.31,3.31,3.31,3.31,3.32,3.32,3.31,3.31,3.32,3.29,0.0,1.0,2.0,0.0,0.0,1234986,30.227872028571436,79.42999999999999,328.1900707114882
1765219740044,0.0,0.0,0.0,0.0,0.0,0.0,3318.0,26.897,304.8,0.0,0.0,0.0,3318.0,2158.0,18.0,17.900000000000002,-0.137738,0.06770999999999999,1.001132,-0.7000000000000001,0.42000000000000004,-0.07,29.86328125,3.31,3.31,3.31,3.29,3.3,3.31,3.3,3.32,3.31,3.32,3.32,3.31,3.3,3.31,3.3,3.31,3.31,3.31,3.31,3.31,3.32,3.32,3.31,3.31,3.32,3.29,0.0,1.0,2.0,0.0,0.0,1235018,18.315573300000004,79.42999999999999,328.1900707114882
1765219740079,0.0,0.0,0.0,0.0,0.0,0.0,3318.0,26.897,304.8,0.0,0.0,0.0,3318.0,2158.0,18.0,17.900000000000002,-0.137738,0.06770999999999999,1.001132,-0.7000000000000001,0.42000000000000004,-0.07,29.96875,3.31,3.31,3.31,3.29,3.3,3.31,3.3,3.32,3.31,3.32,3.32,3.31,3.3,3.31,3.3,3.31,3.31,3.31,3.31,3.31,3.32,3.32,3.31,3.31,3.32,3.29,0.0,1.0,2.0,0.0,0.0,1235053,18.315573300000004,79.42999999999999,328.1900707114882
1765219740130,0.0,0.0,0.0,0.0,0.0,0.0,3318.0,26.897,304.8,0.0,0.0,0.0,3318.0,2158.0,18.0,17.900000000000002,-0.137738,0.06770999999999999,1.001132,-0.7000000000000001,0.42000000000000004,-0.07,29.96875,3.31,3.31,3.31,3.29,3.3,3.31,3.3,3.32,3.31,3.32,3.32,3.31,3.3,3.31,3.3,3.31,3.31,3.31,3.31,3.31,3.32,3.32,3.31,3.31,3.33,3.31,46.0,1.0,2.0,0.0,0.0,1235104,18.315573300000004,79.42999999999999,328.1900707114882
1765219740147,0.0,0.0,0.0,0.0,0.0,0.0,3318.0,26.897,304.8,0.0,0.0,0.0,3318.0,2158.0,18.0,17.900000000000002,-0.137738,0.06770999999999999,1.001132,-0.7000000000000001,0.42000000000000004,-0.07,29.96875,3.31,3.31,3.31,3.29,3.3,3.31,3.3,3.32,3.31,3.32,3.32,3.31,3.3,3.31,3.3,3.31,3.31,3.31,3.31,3.31,3.32,3.32,3.31,3.31,3.33,3.31,46.0,1.0,0.0,1.0,1.0,1235121,18.315573300000004,79.42999999999999,328.2765609187382
1765219740179,0.0,0.0,0.0,0.0,0.0,0.0,3318.0,26.897,304.8,0.0,0.0,0.0,3318.0,2158.0,18.0,17.900000000000002,-0.071004,0.011712,0.9903959999999999,-0.7000000000000001,0.42000000000000004,-0.07,29.96875,3.31,3.31,3.31,3.29,3.3,3.31,3.3,3.32,3.31,3.32,3.32,3.31,3.3,3.31,3.3,3.31,3.31,3.31,3.31,3.31,3.32,3.32,3.31,3.31,3.33,3.31,46.0,1.0,0.0,1.0,1.0,1235153,18.315573300000004,79.42999999999999,328.4393660147382
1765219740196,0.0,0.0,0.0,0.0,0.0,0.0,3318.0,26.897,304.8,0.0,0.0,0.0,3318.0,2158.0,18.0,17.900000000000002,-0.071004,0.011712,0.9903959999999999,-0.7000000000000001,0.28,0.0,29.96875,3.31,3.31,3.31,3.29,3.3,3.31,3.3,3.32,3.31,3.32,3.32,3.31,3.3,3.31,3.3,3.31,3.31,3.31,3.31,3.31,3.32,3.32,3.31,3.31,3.33,3.31,46.0,1.0,0.0,1.0,1.0,1235170,18.315573300000004,79.42999999999999,328.5258562219882
1765219740213,0.0,0.0,0.0,0.0,0.0,0.0,3318.0,26.897,304.8,0.0,0.0,0.0,3318.0,2158.0,18.0,17.900000000000002,-0.071004,0.011712,0.9903959999999999,-0.7000000000000001,0.28,0.0,29.96875,3.31,3.31,3.31,3.29,3.3,3.31,3.3,3.32,3.31,3.32,3.32,3.31,3.3,3.31,3.3,3.31,3.31,3.31,3.31,3.31,3.32,3.32,3.31,3.31,3.33,3.31,46.0,1.0,0.0,1.0,1.0,1235187,18.315573300000004,79.42999999999999,328.6123464292382
1765219740245,0.0,0.0,0.0,0.0,0.0,0.0,3318.0,26.897,304.8,0.0,0.0,0.0,3318.0,2158.0,18.0,17.900000000000002,-0.071004,0.011712,0.9903959999999999,-0.7000000000000001,0.28,0.0,29.96875,3.31,3.31,3.31,3.29,3.3,3.31,3.3,3.32,3.31,3.32,3.32,3.31,3.3,3.31,3.3,3.31,3.31,3.31,3.31,3.31,3.32,3.32,3.31,3.31,3.33,3.31,46.0,1.0,0.0,1.0,1.0,1235219,18.315573300000004,79.42999999999999,328.7751515252382
1765219740262,0.0,0.0,1.0,10.0,0.0,0.0,3318.0,26.897,304.8,0.0,0.0,0.0,3318.0,2158.0,18.0,17.900000000000002,-0.071004,0.011712,0.9903959999999999,-0.7000000000000001,0.28,0.0,29.96875,3.31,3.31,3.31,3.29,3.3,3.31,3.3,3.32,3.31,3.32,3.32,3.31,3.3,3.31,3.3,3.31,3.31,3.31,3.31,3.31,3.32,3.32,3.31,3.31,3.33,3.31,46.0,1.0,0.0,1.0,1.0,1235236,18.315573300000004,79.42999999999999,328.8616417324882
1765219740278,0.0,0.0,1.0,10.0,0.0,0.0,3318.0,26.897,304.8,0.0,0.0,0.0,0.0,0.0,0.0,0.0,-0.071004,0.011712,0.9903959999999999,-0.7000000000000001,0.28,0.0,29.96875,3.31,3.31,3.31,3.29,3.3,3.31,3.3,3.32,3.31,3.32,3.32,3.31,3.3,3.31,3.3,3.31,3.31,3.31,3.31,3.31,3.32,3.32,3.31,3.31,3.33,3.31,46.0,1.0,0.0,1.0,1.0,1235252,18.315573300000004,79.42999999999999,328.9430442804882
1765219740313,0.0,0.0,1.0,10.0,0.0,0.0,0.0,0.0,0.0,0.0,0.0,0.0,0.0,0.0,0.0,0.0,-0.071004,0.011712,0.9903959999999999,-0.7000000000000001,0.28,0.0,29.96875,3.31,3.31,3.31,3.29,3.3,3.31,3.3,3.32,3.31,3.32,3.32,3.31,3.3,3.31,3.3,3.31,3.31,3.31,3.31,3.31,3.32,3.32,3.31,3.31,3.33,3.31,46.0,1.0,0.0,1.0,1.0,1235287,0.0,79.42999999999999,329.0320783173632
1765219740361,0.0,0.0,1.0,10.0,0.0,0.0,0.0,0.0,0.0,0.0,0.0,0.0,0.0,0.0,0.0,0.0,-0.076372,0.00671,0.989054,-0.7000000000000001,0.28,0.0,29.96875,3.31,3.31,3.31,3.29,3.3,3.31,3.3,3.32,3.31,3.32,3.32,3.31,3.3,3.31,3.3,3.31,3.31,3.31,3.31,3.31,3.32,3.32,3.31,3.31,3.33,3.31,46.0,1.0,0.0,1.0,1.0,1235335,0.0,79.42999999999999,329.0320783173632
1765219740412,0.0,0.0,1.0,10.0,0.0,0.0,0.0,0.0,0.0,0.0,0.0,0.0,0.0,0.0,0.0,0.0,-0.076372,0.00671,0.989054,-0.7000000000000001,0.42000000000000004,-0.07,29.96875,3.31,3.31,3.31,3.29,3.3,3.31,3.3,3.32,3.31,3.32,3.32,3.31,3.3,3.31,3.3,3.31,3.31,3.31,3.31,3.31,3.32,3.32,3.31,3.31,3.33,3.31,46.0,1.0,0.0,1.0,1.0,1235386,0.0,79.42999999999999,329.0320783173632
1765219740445,0.0,0.0,1.0,10.0,0.0,0.0,0.0,0.0,0.0,0.0,0.0,0.0,0.0,0.0,0.0,0.0,-0.076372,0.00671,0.989054,-0.7000000000000001,0.42000000000000004,-0.07,30.0078125,3.31,3.31,3.31,3.29,3.3,3.31,3.3,3.32,3.31,3.32,3.32,3.31,3.3,3.31,3.3,3.31,3.31,3.31,3.31,3.31,3.32,3.32,3.31,3.31,3.33,3.31,46.0,1.0,0.0,1.0,1.0,1235419,0.0,79.42999999999999,329.0320783173632
1765219740479,0.0,0.0,1.0,10.0,0.0,0.0,0.0,0.0,0.0,0.0,0.0,0.0,0.0,0.0,0.0,0.0,-0.07076,0.011101999999999999,0.98942,-0.7000000000000001,0.42000000000000004,-0.07,30.0078125,3.31,3.31,3.31,3.29,3.3,3.31,3.3,3.32,3.31,3.32,3.32,3.31,3.3,3.31,3.3,3.31,3.31,3.31,3.31,3.31,3.32,3.32,3.31,3.31,3.33,3.31,46.0,1.0,0.0,1.0,1.0,1235453,0.0,79.42999999999999,329.0320783173632
1765219740495,0.0,0.0,1.0,10.0,0.0,0.0,0.0,0.0,0.0,0.0,0.0,0.0,0.0,0.0,0.0,0.0,-0.07076,0.011101999999999999,0.98942,-0.77,0.35000000000000003,0.0,30.0078125,3.31,3.31,3.31,3.29,3.3,3.31,3.3,3.32,3.31,3.32,3.32,3.31,3.3,3.31,3.3,3.31,3.31,3.31,3.31,3.31,3.32,3.32,3.31,3.31,3.33,3.31,46.0,1.0,0.0,1.0,1.0,1235469,0.0,79.42999999999999,329.0320783173632
1765219740511,0.0,0.0,1.0,10.0,0.0,0.0,0.0,0.0,0.0,0.0,0.0,0.0,0.0,0.0,0.0,0.0,-0.07076,0.011101999999999999,0.98942,-0.77,0.35000000000000003,0.0,30.0078125,3.31,3.31,3.31,3.29,3.3,3.31,3.3,3.32,3.31,3.32,3.32,3.31,3.3,3.31,3.3,3.31,3.31,3.31,3.31,3.31,3.32,3.32,3.31,3.31,3.33,3.31,46.0,1.0,0.0,1.0,1.0,1235485,0.0,79.42999999999999,329.0320783173632
1765219740528,0.0,0.0,1.0,10.0,0.0,0.0,0.0,0.0,0.0,0.0,0.0,0.0,0.0,0.0,0.0,0.0,-0.07076,0.011101999999999999,0.98942,-0.77,0.35000000000000003,0.0,29.95703125,3.31,3.31,3.31,3.29,3.3,3.31,3.3,3.32,3.31,3.32,3.32,3.31,3.3,3.31,3.3,3.31,3.31,3.31,3.31,3.31,3.32,3.32,3.31,3.31,3.33,3.31,46.0,1.0,0.0,1.0,1.0,1235502,0.0,79.42999999999999,329.0320783173632
1765219740544,0.0,0.0,1.0,10.0,0.0,0.0,0.0,0.0,0.0,0.0,0.0,0.0,0.0,0.0,0.0,0.0,-0.07076,0.011101999999999999,0.98942,-0.77,0.35000000000000003,0.0,29.95703125,3.31,3.31,3.31,3.29,3.3,3.31,3.3,3.32,3.31,3.32,3.32,3.31,3.3,3.31,3.3,3.31,3.31,3.31,3.31,3.31,3.32,3.32,3.31,3.31,3.33,3.31,46.0,1.0,0.0,1.0,1.0,1235518,0.0,79.42999999999999,329.0320783173632
1765219740579,0.0,0.0,1.0,10.0,0.0,0.0,0.0,0.0,0.0,0.0,0.0,0.0,0.0,0.0,0.0,0.0,-0.07076,0.011101999999999999,0.98942,-0.77,0.35000000000000003,0.0,29.95703125,3.31,3.31,3.31,3.29,3.3,3.31,3.3,3.32,3.31,3.32,3.32,3.31,3.3,3.31,3.3,3.31,3.31,3.31,3.31,3.31,3.32,3.32,3.31,3.31,3.33,3.31,46.0,1.0,0.0,1.0,1.0,1235553,0.0,79.42999999999999,329.0320783173632
1765219740595,0.0,0.0,1.0,10.0,0.0,0.0,0.0,0.0,0.0,0.0,0.0,0.0,0.0,0.0,0.0,0.0,-0.07076,0.011101999999999999,0.98942,-0.77,0.35000000000000003,0.0,29.95703125,3.31,3.31,3.31,3.29,3.3,3.31,3.3,3.32,3.31,3.32,3.32,3.31,3.3,3.31,3.3,3.31,3.31,3.31,3.31,3.31,3.32,3.32,3.31,3.31,3.33,3.31,46.0,1.0,0.0,1.0,1.0,1235569,0.0,79.42999999999999,329.0320783173632
1765219740644,0.0,0.0,1.0,10.0,0.0,0.0,0.0,0.0,0.0,0.0,0.0,0.0,0.0,0.0,0.0,0.0,-0.06709999999999999,0.011224,0.992592,-0.77,0.35000000000000003,0.0,29.95703125,3.31,3.31,3.31,3.29,3.3,3.31,3.3,3.32,3.31,3.32,3.32,3.31,3.3,3.31,3.3,3.31,3.31,3.31,3.31,3.31,3.32,3.32,3.31,3.31,3.33,3.31,46.0,1.0,0.0,1.0,1.0,1235618,0.0,79.42999999999999,329.0320783173632
1765219740664,0.0,0.0,1.0,10.0,0.0,0.0,0.0,0.0,0.0,0.0,0.0,0.0,0.0,0.0,0.0,0.0,-0.06709999999999999,0.011224,0.992592,-0.77,0.35000000000000003,0.0,29.95703125,3.31,3.31,3.31,3.29,3.3,3.31,3.3,3.32,3.31,3.32,3.32,3.31,3.3,3.31,3.3,3.31,3.31,3.31,3.31,3.31,3.32,3.32,3.31,3.31,3.33,3.31,46.0,1.0,0.0,1.0,1.0,1235638,0.0,79.42999999999999,329.0320783173632
1765219740696,0.0,0.0,1.0,10.0,0.0,0.0,0.0,0.0,0.0,0.0,0.0,0.0,0.0,0.0,0.0,0.0,-0.06709999999999999,0.011224,0.992592,-0.6300000000000001,0.28,-0.07,29.95703125,3.31,3.31,3.31,3.29,3.3,3.31,3.3,3.32,3.31,3.32,3.32,3.31,3.3,3.31,3.3,3.31,3.31,3.31,3.31,3.31,3.32,3.32,3.31,3.31,3.33,3.31,46.0,1.0,0.0,1.0,1.0,1235670,0.0,79.42999999999999,329.0320783173632
1765219740711,0.0,0.0,1.0,10.0,0.0,0.0,0.0,0.0,0.0,0.0,0.0,0.0,0.0,0.0,0.0,0.0,-0.06709999999999999,0.011224,0.992592,-0.6300000000000001,0.28,-0.07,29.95703125,3.31,3.31,3.31,3.29,3.3,3.31,3.3,3.32,3.31,3.32,3.32,3.31,3.3,3.31,3.3,3.31,3.31,3.31,3.31,3.31,3.32,3.32,3.31,3.31,3.33,3.31,46.0,1.0,0.0,1.0,1.0,1235685,0.0,79.42999999999999,329.0320783173632
1765219740730,0.0,0.0,1.0,10.0,0.0,0.0,0.0,0.0,0.0,0.0,0.0,0.0,0.0,0.0,0.0,0.0,-0.06709999999999999,0.011224,0.992592,-0.6300000000000001,0.28,-0.07,29.921875,3.31,3.31,3.31,3.29,3.3,3.31,3.3,3.32,3.31,3.32,3.32,3.31,3.3,3.31,3.3,3.31,3.31,3.31,3.31,3.31,3.32,3.32,3.31,3.31,3.33,3.31,46.0,1.0,0.0,1.0,1.0,1235704,0.0,79.42999999999999,329.0320783173632
1765219740779,0.0,0.0,1.0,10.0,0.0,0.0,0.0,0.0,0.0,0.0,0.0,0.0,0.0,0.0,0.0,0.0,-0.06709999999999999,0.011224,0.992592,-0.6300000000000001,0.28,-0.07,29.921875,3.31,3.31,3.31,3.29,3.3,3.31,3.3,3.32,3.31,3.32,3.32,3.31,3.3,3.31,3.3,3.31,3.31,3.31,3.31,3.31,3.32,3.32,3.31,3.31,3.33,3.31,46.0,1.0,0.0,1.0,1.0,1235753,0.0,79.42999999999999,329.0320783173632
1765219740846,0.0,0.0,1.0,10.0,0.0,0.0,0.0,0.0,0.0,0.0,0.0,0.0,0.0,0.0,0.0,0.0,-0.066002,0.007076,0.989908,-0.6300000000000001,0.28,-0.07,29.921875,3.31,3.31,3.31,3.29,3.3,3.31,3.3,3.32,3.31,3.32,3.32,3.31,3.3,3.31,3.3,3.31,3.31,3.31,3.31,3.31,3.32,3.32,3.31,3.31,3.33,3.31,46.0,1.0,0.0,1.0,1.0,1235820,0.0,79.42999999999999,329.0320783173632
1765219740861,0.0,0.0,1.0,10.0,0.0,0.0,0.0,0.0,0.0,0.0,0.0,0.0,0.0,0.0,0.0,0.0,-0.066002,0.007076,0.989908,-0.49000000000000005,0.35000000000000003,0.0,29.921875,3.31,3.31,3.31,3.29,3.3,3.31,3.3,3.32,3.31,3.32,3.32,3.31,3.3,3.31,3.3,3.31,3.31,3.31,3.31,3.31,3.32,3.32,3.31,3.31,3.33,3.31,46.0,1.0,0.0,1.0,1.0,1235835,0.0,79.42999999999999,329.0320783173632
1765219740878,0.0,0.0,1.0,10.0,0.0,0.0,0.0,0.0,0.0,0.0,0.0,0.0,0.0,0.0,0.0,0.0,-0.066002,0.007076,0.989908,-0.49000000000000005,0.35000000000000003,0.0,30.0078125,3.31,3.31,3.31,3.29,3.3,3.31,3.3,3.32,3.31,3.32,3.32,3.31,3.3,3.31,3.3,3.31,3.31,3.31,3.31,3.31,3.32,3.32,3.31,3.31,3.33,3.31,46.0,1.0,0.0,1.0,1.0,1235852,0.0,79.42999999999999,329.0320783173632
1765219740913,0.0,0.0,1.0,10.0,0.0,0.0,0.0,0.0,0.0,0.0,0.0,0.0,0.0,0.0,0.0,0.0,-0.066002,0.007076,0.989908,-0.49000000000000005,0.35000000000000003,0.0,30.0078125,3.31,3.31,3.31,3.29,3.3,3.31,3.3,3.32,3.31,3.32,3.32,3.31,3.3,3.31,3.3,3.31,3.31,3.31,3.31,3.31,3.32,3.32,3.31,3.31,3.33,3.31,46.0,1.0,0.0,1.0,1.0,1235887,0.0,79.42999999999999,329.0320783173632
1765219740929,0.0,0.0,1.0,10.0,0.0,0.0,0.0,0.0,0.0,0.0,0.0,0.0,0.0,0.0,0.0,0.0,-0.066002,0.007076,0.989908,-0.49000000000000005,0.35000000000000003,0.0,30.0078125,3.31,3.31,3.31,3.29,3.3,3.31,3.3,3.32,3.31,3.32,3.32,3.31,3.3,3.31,3.3,3.31,3.31,3.31,3.31,3.31,3.32,3.32,3.31,3.31,3.33,3.31,46.0,1.0,0.0,1.0,1.0,1235903,0.0,79.42999999999999,329.0320783173632
1765219740946,0.0,0.0,1.0,10.0,0.0,0.0,0.0,0.0,0.0,0.0,0.0,0.0,0.0,0.0,0.0,0.0,-0.057096,0.004392,0.987956,-0.49000000000000005,0.35000000000000003,0.0,30.0078125,3.31,3.31,3.31,3.29,3.3,3.31,3.3,3.32,3.31,3.32,3.32,3.31,3.3,3.31,3.3,3.31,3.31,3.31,3.31,3.31,3.32,3.32,3.31,3.31,3.33,3.31,46.0,1.0,0.0,1.0,1.0,1235920,0.0,79.42999999999999,329.0320783173632
1765219740963,0.0,0.0,1.0,10.0,0.0,0.0,0.0,0.0,0.0,0.0,0.0,0.0,0.0,0.0,0.0,0.0,-0.057096,0.004392,0.987956,-0.49000000000000005,0.35000000000000003,0.0,30.0078125,3.31,3.31,3.31,3.29,3.3,3.31,3.3,3.32,3.31,3.32,3.32,3.31,3.3,3.31,3.3,3.31,3.31,3.31,3.31,3.31,3.32,3.32,3.31,3.31,3.33,3.31,46.0,1.0,0.0,1.0,1.0,1235937,0.0,79.42999999999999,329.0320783173632
1765219740995,0.0,0.0,1.0,10.0,0.0,0.0,0.0,0.0,0.0,0.0,0.0,0.0,0.0,0.0,0.0,0.0,-0.057096,0.004392,0.987956,-0.56,0.21000000000000002,0.0,30.0078125,3.31,3.31,3.31,3.29,3.3,3.31,3.3,3.32,3.31,3.32,3.32,3.31,3.3,3.31,3.3,3.31,3.31,3.31,3.31,3.31,3.32,3.32,3.31,3.31,3.33,3.31,46.0,1.0,0.0,1.0,1.0,1235969,0.0,79.42999999999999,329.0320783173632
1765219741044,0.0,0.0,1.0,10.0,0.0,0.0,0.0,0.0,0.0,0.0,0.0,0.0,0.0,0.0,0.0,0.0,-0.057096,0.004392,0.987956,-0.56,0.21000000000000002,0.0,29.96484375,3.31,3.31,3.31,3.29,3.3,3.31,3.3,3.32,3.31,3.32,3.32,3.31,3.3,3.31,3.3,3.31,3.31,3.31,3.31,3.31,3.32,3.32,3.31,3.31,3.33,3.31,46.0,1.0,0.0,1.0,1.0,1236018,0.0,79.42999999999999,329.0320783173632
1765219741062,0.0,0.0,1.0,10.0,0.0,0.0,0.0,0.0,0.0,0.0,0.0,0.0,0.0,0.0,0.0,0.0,-0.057096,0.004392,0.987956,-0.56,0.21000000000000002,0.0,29.96484375,3.31,3.31,3.31,3.29,3.3,3.31,3.3,3.32,3.31,3.32,3.32,3.31,3.3,3.31,3.3,3.31,3.31,3.31,3.31,3.31,3.32,3.32,3.31,3.31,3.33,3.31,46.0,1.0,0.0,1.0,1.0,1236036,0.0,79.42999999999999,329.0320783173632
1765219741129,0.0,0.0,1.0,10.0,0.0,0.0,0.0,0.0,0.0,0.0,0.0,0.0,0.0,0.0,0.0,0.0,-0.05185,0.011467999999999999,0.99674,-0.56,0.21000000000000002,0.0,29.96484375,3.31,3.31,3.31,3.29,3.3,3.31,3.3,3.32,3.31,3.32,3.32,3.31,3.3,3.31,3.3,3.31,3.31,3.31,3.31,3.31,3.32,3.32,3.31,3.31,3.33,3.31,46.0,1.0,0.0,1.0,1.0,1236103,0.0,79.42999999999999,329.0320783173632
1765219741146,0.0,0.0,1.0,10.0,0.0,0.0,0.0,0.0,0.0,0.0,0.0,0.0,0.0,0.0,0.0,0.0,-0.05185,0.011467999999999999,0.99674,-0.7000000000000001,0.42000000000000004,0.0,29.96484375,3.31,3.31,3.31,3.29,3.3,3.31,3.3,3.32,3.31,3.32,3.32,3.31,3.3,3.31,3.3,3.31,3.31,3.31,3.31,3.31,3.32,3.32,3.31,3.31,3.33,3.31,46.0,1.0,0.0,1.0,1.0,1236120,0.0,79.42999999999999,329.0320783173632
1765219741180,0.0,0.0,1.0,10.0,0.0,0.0,0.0,0.0,0.0,0.0,0.0,0.0,0.0,0.0,0.0,0.0,-0.05185,0.011467999999999999,0.99674,-0.7000000000000001,0.42000000000000004,0.0,29.9765625,3.31,3.31,3.31,3.29,3.3,3.31,3.3,3.32,3.31,3.32,3.32,3.31,3.3,3.31,3.3,3.31,3.31,3.31,3.31,3.31,3.32,3.32,3.31,3.31,3.33,3.31,44.0,1.0,0.0,1.0,1.0,1236154,0.0,79.42999999999999,329.0320783173632
1765219741229,0.0,0.0,1.0,10.0,0.0,0.0,0.0,0.0,0.0,0.0,0.0,0.0,0.0,0.0,0.0,0.0,-0.05185,0.011467999999999999,0.99674,-0.7000000000000001,0.42000000000000004,0.0,29.9765625,3.31,3.31,3.31,3.29,3.3,3.31,3.3,3.32,3.31,3.32,3.32,3.31,3.3,3.31,3.3,3.31,3.31,3.31,3.31,3.31,3.32,3.32,3.31,3.31,3.33,3.31,44.0,1.0,0.0,1.0,1.0,1236203,0.0,79.42999999999999,329.0320783173632
1765219741246,0.0,0.0,1.0,10.0,0.0,0.0,0.0,0.0,0.0,0.0,0.0,0.0,0.0,0.0,0.0,0.0,-0.05185,0.011467999999999999,0.99674,-0.56,0.35000000000000003,0.07,29.9765625,3.31,3.31,3.31,3.29,3.3,3.31,3.3,3.32,3.31,3.32,3.32,3.31,3.3,3.31,3.3,3.31,3.31,3.31,3.31,3.31,3.32,3.32,3.31,3.31,3.33,3.31,44.0,1.0,0.0,1.0,1.0,1236220,0.0,79.42999999999999,329.0320783173632
1765219741296,0.0,0.0,1.0,10.0,0.0,0.0,0.0,0.0,0.0,0.0,0.0,0.0,0.0,0.0,0.0,0.0,-0.05185,0.011467999999999999,0.99674,-0.56,0.35000000000000003,0.07,29.9375,3.31,3.31,3.31,3.29,3.3,3.31,3.3,3.32,3.31,3.32,3.32,3.31,3.3,3.31,3.3,3.31,3.31,3.31,3.31,3.31,3.32,3.32,3.31,3.31,3.33,3.31,44.0,1.0,0.0,1.0,1.0,1236270,0.0,79.42999999999999,329.0320783173632
1765219741313,0.0,0.0,1.0,10.0,0.0,0.0,0.0,0.0,0.0,0.0,0.0,0.0,0.0,0.0,0.0,0.0,-0.06893,0.010003999999999999,0.991738,-0.56,0.35000000000000003,0.07,29.9375,3.31,3.31,3.31,3.29,3.3,3.31,3.3,3.32,3.31,3.32,3.32,3.31,3.3,3.31,3.3,3.31,3.31,3.31,3.31,3.31,3.32,3.32,3.31,3.31,3.33,3.31,44.0,1.0,0.0,1.0,1.0,1236287,0.0,79.42999999999999,329.0320783173632
1765219741346,0.0,0.0,1.0,10.0,0.0,0.0,0.0,0.0,0.0,0.0,0.0,0.0,0.0,0.0,0.0,0.0,-0.06893,0.010003999999999999,0.991738,-0.7000000000000001,0.35000000000000003,-0.07,29.9375,3.31,3.31,3.31,3.29,3.3,3.31,3.3,3.32,3.31,3.32,3.32,3.31,3.3,3.31,3.3,3.31,3.31,3.31,3.31,3.31,3.32,3.32,3.31,3.31,3.33,3.31,44.0,1.0,0.0,1.0,1.0,1236320,0.0,79.42999999999999,329.0320783173632
1765219741380,0.0,0.0,1.0,10.0,0.0,0.0,0.0,0.0,0.0,0.0,0.0,0.0,0.0,0.0,0.0,0.0,-0.06893,0.010003999999999999,0.991738,-0.7000000000000001,0.35000000000000003,-0.07,29.94140625,3.31,3.31,3.31,3.29,3.3,3.31,3.3,3.32,3.31,3.32,3.32,3.31,3.3,3.31,3.3,3.31,3.31,3.31,3.31,3.31,3.32,3.32,3.31,3.31,3.33,3.31,44.0,1.0,0.0,1.0,1.0,1236354,0.0,79.42999999999999,329.0320783173632
1765219741396,0.0,0.0,1.0,10.0,0.0,0.0,0.0,0.0,0.0,0.0,0.0,0.0,0.0,0.0,0.0,0.0,-0.06893,0.010003999999999999,0.991738,-0.7000000000000001,0.35000000000000003,-0.07,29.94140625,3.31,3.31,3.31,3.29,3.3,3.31,3.3,3.32,3.31,3.32,3.32,3.31,3.3,3.31,3.3,3.31,3.31,3.31,3.31,3.31,3.32,3.32,3.31,3.31,3.33,3.31,44.0,1.0,0.0,1.0,1.0,1236370,0.0,79.42999999999999,329.0320783173632
1765219741412,0.0,0.0,1.0,10.0,0.0,0.0,0.0,0.0,0.0,0.0,0.0,0.0,0.0,0.0,0.0,0.0,-0.06893,0.010003999999999999,0.991738,-0.7000000000000001,0.35000000000000003,-0.07,29.94140625,3.31,3.31,3.31,3.29,3.3,3.31,3.3,3.32,3.31,3.32,3.32,3.31,3.3,3.31,3.3,3.31,3.31,3.31,3.31,3.31,3.32,3.32,3.31,3.31,3.33,3.31,45.0,1.0,0.0,1.0,1.0,1236386,0.0,79.42999999999999,329.0320783173632
1765219741430,0.0,0.0,1.0,10.0,0.0,0.0,0.0,0.0,0.0,0.0,0.0,0.0,0.0,0.0,0.0,0.0,-0.06893,0.010003999999999999,0.991738,-0.7000000000000001,0.35000000000000003,-0.07,29.94140625,3.31,3.31,3.31,3.29,3.3,3.31,3.3,3.32,3.31,3.32,3.32,3.31,3.3,3.31,3.3,3.31,3.31,3.31,3.31,3.31,3.32,3.32,3.31,3.31,3.33,3.31,45.0,1.0,0.0,1.0,1.0,1236404,0.0,79.42999999999999,329.0320783173632
1765219741446,0.0,0.0,1.0,10.0,0.0,0.0,0.0,0.0,0.0,0.0,0.0,0.0,0.0,0.0,0.0,0.0,-0.06893,0.010003999999999999,0.991738,-0.7000000000000001,0.35000000000000003,-0.07,29.94140625,3.31,3.31,3.31,3.29,3.3,3.31,3.3,3.32,3.31,3.32,3.32,3.31,3.3,3.31,3.3,3.31,3.31,3.31,3.31,3.31,3.32,3.32,3.31,3.31,3.33,3.31,45.0,1.0,0.0,1.0,1.0,1236420,0.0,79.42999999999999,329.0320783173632
1765219741479,0.0,0.0,1.0,10.0,0.0,0.0,0.0,0.0,0.0,0.0,0.0,0.0,0.0,0.0,0.0,0.0,-0.06893,0.010003999999999999,0.991738,-0.7000000000000001,0.35000000000000003,-0.07,29.94140625,3.31,3.31,3.31,3.29,3.3,3.31,3.3,3.32,3.31,3.32,3.32,3.31,3.3,3.31,3.3,3.31,3.31,3.31,3.31,3.31,3.32,3.32,3.31,3.31,3.33,3.31,45.0,1.0,0.0,1.0,1.0,1236453,0.0,79.42999999999999,329.0320783173632
1765219741529,0.0,0.0,1.0,10.0,0.0,0.0,0.0,0.0,0.0,0.0,0.0,0.0,0.0,0.0,0.0,0.0,-0.06893,0.010003999999999999,0.991738,-0.7000000000000001,0.35000000000000003,-0.07,29.94140625,3.31,3.31,3.31,3.29,3.3,3.31,3.3,3.32,3.31,3.32,3.32,3.31,3.3,3.31,3.3,3.31,3.31,3.31,3.31,3.31,3.32,3.32,3.31,3.31,3.33,3.31,45.0,1.0,0.0,1.0,1.0,1236503,0.0,79.42999999999999,329.0320783173632
1765219741563,0.0,0.0,1.0,10.0,0.0,0.0,0.0,0.0,0.0,0.0,0.0,0.0,0.0,0.0,0.0,0.0,-0.07076,0.01098,0.987712,-0.7000000000000001,0.35000000000000003,-0.07,29.94140625,3.31,3.31,3.31,3.29,3.3,3.31,3.3,3.32,3.31,3.32,3.32,3.31,3.3,3.31,3.3,3.31,3.31,3.31,3.31,3.31,3.32,3.32,3.31,3.31,3.33,3.31,45.0,1.0,0.0,1.0,1.0,1236537,0.0,79.42999999999999,329.0320783173632
1765219741596,0.0,0.0,1.0,10.0,0.0,0.0,0.0,0.0,0.0,0.0,0.0,0.0,0.0,0.0,0.0,0.0,-0.07076,0.01098,0.987712,-0.6300000000000001,0.35000000000000003,0.0,29.94140625,3.31,3.31,3.31,3.29,3.3,3.31,3.3,3.32,3.31,3.32,3.32,3.31,3.3,3.31,3.3,3.31,3.31,3.31,3.31,3.31,3.32,3.32,3.31,3.31,3.33,3.31,45.0,1.0,0.0,1.0,1.0,1236570,0.0,79.42999999999999,329.0320783173632
1765219741614,0.0,0.0,1.0,10.0,0.0,0.0,0.0,0.0,0.0,0.0,0.0,0.0,0.0,0.0,0.0,0.0,-0.07076,0.01098,0.987712,-0.6300000000000001,0.35000000000000003,0.0,29.94140625,3.31,3.31,3.31,3.29,3.3,3.31,3.3,3.32,3.31,3.32,3.32,3.31,3.3,3.31,3.3,3.31,3.31,3.31,3.31,3.31,3.32,3.32,3.31,3.31,3.33,3.31,45.0,1.0,0.0,1.0,1.0,1236588,0.0,79.42999999999999,329.0320783173632
1765219741646,0.0,0.0,1.0,10.0,0.0,0.0,0.0,0.0,0.0,0.0,0.0,0.0,0.0,0.0,0.0,0.0,-0.07063799999999999,0.00915,0.9952759999999999,-0.6300000000000001,0.35000000000000003,0.0,29.94140625,3.31,3.31,3.31,3.29,3.3,3.31,3.3,3.32,3.31,3.32,3.32,3.31,3.3,3.31,3.3,3.31,3.31,3.31,3.31,3.31,3.32,3.32,3.31,3.31,3.33,3.31,45.0,1.0,0.0,1.0,1.0,1236620,0.0,79.42999999999999,329.0320783173632
1765219741663,0.0,0.0,1.0,10.0,0.0,0.0,0.0,0.0,0.0,0.0,0.0,0.0,0.0,0.0,0.0,0.0,-0.07063799999999999,0.00915,0.9952759999999999,-0.6300000000000001,0.35000000000000003,0.07,29.94140625,3.31,3.31,3.31,3.29,3.3,3.31,3.3,3.32,3.31,3.32,3.32,3.31,3.3,3.31,3.3,3.31,3.31,3.31,3.31,3.31,3.32,3.32,3.31,3.31,3.33,3.31,45.0,1.0,0.0,1.0,1.0,1236637,0.0,79.42999999999999,329.0320783173632
1765219741696,0.0,0.0,1.0,10.0,0.0,0.0,0.0,0.0,0.0,0.0,0.0,0.0,0.0,0.0,0.0,0.0,-0.07063799999999999,0.00915,0.9952759999999999,-0.6300000000000001,0.35000000000000003,0.07,29.94140625,3.31,3.31,3.31,3.29,3.3,3.31,3.3,3.32,3.31,3.32,3.32,3.31,3.3,3.31,3.3,3.31,3.31,3.31,3.31,3.31,3.32,3.32,3.31,3.31,3.33,3.31,45.0,1.0,0.0,1.0,1.0,1236670,0.0,79.42999999999999,329.0320783173632
1765219741713,0.0,0.0,1.0,10.0,0.0,0.0,0.0,0.0,0.0,0.0,0.0,0.0,0.0,0.0,0.0,0.0,-0.07063799999999999,0.00915,0.9952759999999999,-0.6300000000000001,0.35000000000000003,0.07,29.9375,3.31,3.31,3.31,3.29,3.3,3.31,3.3,3.32,3.31,3.32,3.32,3.31,3.3,3.31,3.3,3.31,3.31,3.31,3.31,3.31,3.32,3.32,3.31,3.31,3.33,3.31,45.0,1.0,0.0,1.0,1.0,1236687,0.0,79.42999999999999,329.0320783173632
1765219741745,0.0,0.0,1.0,10.0,0.0,0.0,0.0,0.0,0.0,0.0,0.0,0.0,0.0,0.0,0.0,0.0,-0.07063799999999999,0.00915,0.9952759999999999,-0.6300000000000001,0.35000000000000003,0.07,29.9375,3.31,3.31,3.31,3.29,3.3,3.31,3.3,3.32,3.31,3.32,3.32,3.31,3.3,3.31,3.3,3.31,3.31,3.31,3.31,3.31,3.32,3.32,3.31,3.31,3.33,3.31,45.0,1.0,0.0,1.0,1.0,1236719,0.0,79.42999999999999,329.0320783173632
1765219741763,0.0,0.0,1.0,10.0,0.0,0.0,0.0,0.0,0.0,0.0,0.0,0.0,0.0,0.0,0.0,0.0,-0.07063799999999999,0.00915,0.9952759999999999,-0.6300000000000001,0.35000000000000003,0.07,29.9375,3.31,3.31,3.31,3.29,3.3,3.31,3.3,3.32,3.31,3.32,3.32,3.31,3.3,3.31,3.3,3.31,3.31,3.31,3.31,3.31,3.32,3.32,3.31,3.31,3.33,3.31,45.0,1.0,0.0,1.0,1.0,1236737,0.0,79.42999999999999,329.0320783173632
1765219741812,0.0,0.0,1.0,10.0,0.0,0.0,0.0,0.0,0.0,0.0,0.0,0.0,0.0,0.0,0.0,0.0,-0.07063799999999999,0.00915,0.9952759999999999,-0.6300000000000001,0.35000000000000003,0.07,29.9375,3.31,3.31,3.31,3.29,3.3,3.31,3.3,3.32,3.31,3.32,3.32,3.31,3.3,3.31,3.3,3.31,3.31,3.31,3.31,3.31,3.32,3.32,3.31,3.31,3.33,3.31,45.0,1.0,0.0,1.0,1.0,1236786,0.0,79.42999999999999,329.0320783173632
1765219741829,0.0,0.0,1.0,10.0,0.0,0.0,0.0,0.0,0.0,0.0,0.0,0.0,0.0,0.0,0.0,0.0,-0.070394,0.008418,0.987834,-0.6300000000000001,0.35000000000000003,0.07,29.9375,3.31,3.31,3.31,3.29,3.3,3.31,3.3,3.32,3.31,3.32,3.32,3.31,3.3,3.31,3.3,3.31,3.31,3.31,3.31,3.31,3.32,3.32,3.31,3.31,3.33,3.31,45.0,1.0,0.0,1.0,1.0,1236803,0.0,79.42999999999999,329.0320783173632
1765219741896,0.0,0.0,1.0,10.0,0.0,0.0,0.0,0.0,0.0,0.0,0.0,0.0,0.0,0.0,0.0,0.0,-0.070394,0.008418,0.987834,-0.6300000000000001,0.35000000000000003,0.07,29.9375,3.31,3.31,3.31,3.29,3.3,3.31,3.3,3.32,3.31,3.32,3.32,3.31,3.3,3.31,3.3,3.31,3.32,3.32,3.32,3.32,3.32,3.32,3.31,3.31,3.33,3.31,45.0,1.0,0.0,1.0,1.0,1236870,0.0,79.46999999999998,329.0320783173632
1765219741946,0.0,0.0,1.0,10.0,0.0,0.0,0.0,0.0,0.0,0.0,0.0,0.0,0.0,0.0,0.0,0.0,-0.070394,0.008418,0.987834,-0.6300000000000001,0.35000000000000003,0.07,29.9375,3.31,3.31,3.31,3.29,3.3,3.31,3.3,3.32,3.31,3.32,3.32,3.31,3.3,3.31,3.3,3.31,3.32,3.32,3.32,3.32,3.33,3.33,3.33,3.32,3.33,3.31,45.0,1.0,0.0,1.0,1.0,1236920,0.0,79.51999999999998,329.0320783173632
1765219742012,0.0,0.0,1.0,10.0,0.0,0.0,0.0,0.0,0.0,0.0,0.0,0.0,0.0,0.0,0.0,0.0,-0.074908,0.009271999999999999,0.990518,-0.6300000000000001,0.35000000000000003,0.07,29.9375,3.31,3.31,3.31,3.29,3.3,3.31,3.3,3.32,3.31,3.32,3.32,3.31,3.3,3.31,3.3,3.31,3.32,3.32,3.32,3.32,3.33,3.33,3.33,3.32,3.33,3.31,45.0,1.0,0.0,1.0,1.0,1236986,0.0,79.51999999999998,329.0320783173632
1765219742047,0.0,0.0,1.0,10.0,0.0,0.0,0.0,0.0,0.0,0.0,0.0,0.0,0.0,0.0,0.0,0.0,-0.074908,0.009271999999999999,0.990518,-0.7000000000000001,0.35000000000000003,-0.14,30.0,3.31,3.31,3.31,3.29,3.3,3.31,3.3,3.32,3.31,3.32,3.32,3.31,3.3,3.31,3.3,3.31,3.32,3.32,3.32,3.32,3.33,3.33,3.33,3.32,3.33,3.31,45.0,1.0,0.0,1.0,1.0,1237021,0.0,79.51999999999998,329.0320783173632
1765219742080,0.0,0.0,1.0,10.0,0.0,0.0,0.0,0.0,0.0,0.0,0.0,0.0,0.0,0.0,0.0,0.0,-0.074908,0.009271999999999999,0.990518,-0.7000000000000001,0.35000000000000003,-0.14,30.0,3.31,3.31,3.31,3.29,3.3,3.31,3.3,3.32,3.31,3.32,3.32,3.31,3.3,3.31,3.3,3.31,3.32,3.32,3.32,3.32,3.33,3.33,3.33,3.32,3.33,3.31,45.0,1.0,0.0,1.0,1.0,1237054,0.0,79.51999999999998,329.0320783173632
1765219742096,0.0,0.0,1.0,10.0,0.0,0.0,0.0,0.0,0.0,0.0,0.0,0.0,0.0,0.0,0.0,0.0,-0.074908,0.009271999999999999,0.990518,-0.7000000000000001,0.35000000000000003,-0.14,30.0,3.31,3.31,3.31,3.29,3.3,3.31,3.3,3.32,3.31,3.32,3.32,3.31,3.3,3.31,3.3,3.31,3.32,3.32,3.32,3.32,3.33,3.33,3.33,3.32,3.33,3.31,45.0,1.0,0.0,1.0,1.0,1237070,0.0,79.51999999999998,329.0320783173632
1765219742112,0.0,0.0,1.0,10.0,0.0,0.0,0.0,0.0,0.0,0.0,0.0,0.0,0.0,0.0,0.0,0.0,-0.074908,0.009271999999999999,0.990518,-0.7000000000000001,0.35000000000000003,-0.14,30.0,3.31,3.31,3.31,3.29,3.3,3.31,3.3,3.32,3.31,3.32,3.32,3.31,3.3,3.31,3.3,3.31,3.32,3.32,3.32,3.32,3.33,3.33,3.33,3.32,3.33,3.31,45.0,1.0,0.0,1.0,1.0,1237086,0.0,79.51999999999998,329.0320783173632
1765219742129,0.0,0.0,1.0,10.0,0.0,0.0,0.0,0.0,0.0,0.0,0.0,0.0,0.0,0.0,0.0,0.0,-0.076372,0.009271999999999999,0.993568,-0.7000000000000001,0.35000000000000003,-0.14,30.0,3.31,3.31,3.31,3.29,3.3,3.31,3.3,3.32,3.31,3.32,3.32,3.31,3.3,3.31,3.3,3.31,3.32,3.32,3.32,3.32,3.33,3.33,3.33,3.32,3.33,3.31,45.0,1.0,0.0,1.0,1.0,1237103,0.0,79.51999999999998,329.0320783173632
1765219742163,0.0,0.0,1.0,10.0,0.0,0.0,0.0,0.0,0.0,0.0,0.0,0.0,0.0,0.0,0.0,0.0,-0.076372,0.009271999999999999,0.993568,-0.6300000000000001,0.28,-0.07,30.0,3.31,3.31,3.31,3.29,3.3,3.31,3.3,3.32,3.31,3.32,3.32,3.31,3.3,3.31,3.3,3.31,3.32,3.32,3.32,3.32,3.33,3.33,3.33,3.32,3.33,3.31,45.0,1.0,0.0,1.0,1.0,1237137,0.0,79.51999999999998,329.0320783173632
1765219742229,0.0,0.0,1.0,10.0,0.0,0.0,0.0,0.0,0.0,0.0,0.0,0.0,0.0,0.0,0.0,0.0,-0.076372,0.009271999999999999,0.993568,-0.6300000000000001,0.28,-0.07,29.98828125,3.31,3.31,3.31,3.29,3.3,3.31,3.3,3.32,3.31,3.32,3.32,3.31,3.3,3.31,3.3,3.31,3.32,3.32,3.32,3.32,3.33,3.33,3.33,3.32,3.33,3.31,45.0,1.0,0.0,1.0,1.0,1237203,0.0,79.51999999999998,329.0320783173632
1765219742313,0.0,0.0,1.0,10.0,0.0,0.0,0.0,0.0,0.0,0.0,0.0,0.0,0.0,0.0,0.0,0.0,-0.072224,0.009028,0.984418,-0.6300000000000001,0.28,-0.07,29.98828125,3.31,3.31,3.31,3.29,3.3,3.31,3.3,3.32,3.31,3.32,3.32,3.31,3.3,3.31,3.3,3.31,3.32,3.32,3.32,3.32,3.33,3.33,3.33,3.32,3.33,3.31,45.0,1.0,0.0,1.0,1.0,1237287,0.0,79.51999999999998,329.0320783173632
1765219742329,0.0,0.0,1.0,10.0,0.0,0.0,0.0,0.0,0.0,0.0,0.0,0.0,0.0,0.0,0.0,0.0,-0.072224,0.009028,0.984418,-0.56,0.42000000000000004,-0.14,29.98828125,3.31,3.31,3.31,3.29,3.3,3.31,3.3,3.32,3.31,3.32,3.32,3.31,3.3,3.31,3.3,3.31,3.32,3.32,3.32,3.32,3.33,3.33,3.33,3.32,3.33,3.31,45.0,1.0,0.0,1.0,1.0,1237303,0.0,79.51999999999998,329.0320783173632
1765219742346,0.0,0.0,1.0,10.0,0.0,0.0,0.0,0.0,0.0,0.0,0.0,0.0,0.0,0.0,0.0,0.0,-0.072224,0.009028,0.984418,-0.56,0.42000000000000004,-0.14,29.9765625,3.31,3.31,3.31,3.29,3.3,3.31,3.3,3.32,3.31,3.32,3.32,3.31,3.3,3.31,3.3,3.31,3.32,3.32,3.32,3.32,3.33,3.33,3.33,3.32,3.33,3.31,45.0,1.0,0.0,1.0,1.0,1237320,0.0,79.51999999999998,329.0320783173632
1765219742379,0.0,0.0,1.0,10.0,0.0,0.0,0.0,0.0,0.0,0.0,0.0,0.0,0.0,0.0,0.0,0.0,-0.072224,0.009028,0.984418,-0.56,0.42000000000000004,-0.14,29.9765625,3.31,3.31,3.31,3.29,3.3,3.31,3.3,3.32,3.31,3.32,3.32,3.31,3.3,3.31,3.3,3.31,3.32,3.32,3.32,3.32,3.33,3.33,3.33,3.32,3.33,3.31,45.0,1.0,0.0,1.0,1.0,1237353,0.0,79.51999999999998,329.0320783173632
1765219742395,0.0,0.0,1.0,10.0,0.0,0.0,0.0,0.0,0.0,0.0,0.0,0.0,0.0,0.0,0.0,0.0,-0.072224,0.009028,0.984418,-0.56,0.42000000000000004,-0.14,29.9765625,3.31,3.31,3.31,3.29,3.3,3.31,3.3,3.32,3.31,3.32,3.32,3.31,3.3,3.31,3.3,3.31,3.32,3.32,3.32,3.32,3.33,3.33,3.33,3.32,3.33,3.31,45.0,1.0,0.0,1.0,1.0,1237369,0.0,79.51999999999998,329.0320783173632
1765219742412,0.0,0.0,1.0,10.0,0.0,0.0,0.0,0.0,0.0,0.0,0.0,0.0,0.0,0.0,0.0,0.0,-0.067832,0.010492,0.988444,-0.56,0.42000000000000004,-0.14,29.9765625,3.31,3.31,3.31,3.29,3.3,3.31,3.3,3.32,3.31,3.32,3.32,3.31,3.3,3.31,3.3,3.31,3.32,3.32,3.32,3.32,3.33,3.33,3.33,3.32,3.33,3.31,45.0,1.0,0.0,1.0,1.0,1237386,0.0,79.51999999999998,329.0320783173632
1765219742429,0.0,0.0,1.0,10.0,0.0,0.0,0.0,0.0,0.0,0.0,0.0,0.0,0.0,0.0,0.0,0.0,-0.067832,0.010492,0.988444,-0.56,0.42000000000000004,-0.14,29.9765625,3.31,3.31,3.31,3.29,3.3,3.31,3.3,3.32,3.31,3.32,3.32,3.31,3.3,3.31,3.3,3.31,3.32,3.32,3.32,3.32,3.33,3.33,3.33,3.32,3.33,3.31,45.0,1.0,0.0,1.0,1.0,1237403,0.0,79.51999999999998,329.0320783173632
1765219742463,0.0,0.0,1.0,10.0,0.0,0.0,0.0,0.0,0.0,0.0,0.0,0.0,0.0,0.0,0.0,0.0,-0.067832,0.010492,0.988444,-0.49000000000000005,0.35000000000000003,-0.07,29.9765625,3.31,3.31,3.31,3.29,3.3,3.31,3.3,3.32,3.31,3.32,3.32,3.31,3.3,3.31,3.3,3.31,3.32,3.32,3.32,3.32,3.33,3.33,3.33,3.32,3.33,3.31,45.0,1.0,0.0,1.0,1.0,1237437,0.0,79.51999999999998,329.0320783173632
1765219742512,0.0,0.0,1.0,10.0,0.0,0.0,0.0,0.0,0.0,0.0,0.0,0.0,0.0,0.0,0.0,0.0,-0.067832,0.010492,0.988444,-0.49000000000000005,0.35000000000000003,-0.07,29.953125,3.31,3.31,3.31,3.29,3.3,3.31,3.3,3.32,3.31,3.32,3.32,3.31,3.3,3.31,3.3,3.31,3.32,3.32,3.32,3.32,3.33,3.33,3.33,3.32,3.33,3.31,45.0,1.0,0.0,1.0,1.0,1237486,0.0,79.51999999999998,329.0320783173632
1765219742528,10.0,0.0,1.0,10.0,0.0,0.0,0.0,0.0,0.0,0.0,0.0,0.0,0.0,0.0,0.0,0.0,-0.067832,0.010492,0.988444,-0.49000000000000005,0.35000000000000003,-0.07,29.953125,3.31,3.31,3.31,3.29,3.3,3.31,3.3,3.32,3.31,3.32,3.32,3.31,3.3,3.31,3.3,3.31,3.32,3.32,3.32,3.32,3.33,3.33,3.33,3.32,3.33,3.31,45.0,1.0,0.0,1.0,1.0,1237502,0.0,79.51999999999998,329.0320783173632
1765219742545,10.0,0.0,1.0,10.0,0.0,0.0,0.0,0.0,0.0,0.0,0.0,0.0,0.0,0.0,0.0,0.0,-0.067832,0.010492,0.988444,-0.49000000000000005,0.35000000000000003,-0.07,29.953125,3.31,3.31,3.31,3.29,3.3,3.31,3.3,3.32,3.31,3.32,3.32,3.31,3.3,3.31,3.3,3.31,3.32,3.32,3.32,3.32,3.33,3.33,3.33,3.32,3.33,3.31,45.0,1.0,0.0,1.0,1.0,1237519,0.0,79.51999999999998,329.0320783173632
1765219742562,10.0,0.0,1.0,10.0,0.0,0.0,0.0,0.0,0.0,0.0,0.0,0.0,0.0,0.0,0.0,0.0,-0.067832,0.010492,0.988444,-0.49000000000000005,0.35000000000000003,-0.07,29.953125,3.31,3.31,3.31,3.29,3.3,3.31,3.3,3.32,3.31,3.32,3.32,3.31,3.3,3.31,3.3,3.31,3.32,3.32,3.32,3.32,3.33,3.33,3.33,3.32,3.33,3.31,45.0,1.0,0.0,1.0,1.0,1237536,0.0,79.51999999999998,329.0320783173632
1765219742580,10.0,0.0,1.0,10.0,0.0,0.0,0.0,0.0,0.0,0.0,0.0,0.0,0.0,0.0,0.0,0.0,-0.067832,0.010492,0.988444,-0.49000000000000005,0.35000000000000003,-0.07,29.953125,3.31,3.31,3.31,3.29,3.3,3.31,3.3,3.32,3.31,3.32,3.32,3.31,3.3,3.31,3.3,3.31,3.32,3.32,3.32,3.32,3.33,3.33,3.33,3.32,3.33,3.31,45.0,1.0,0.0,1.0,1.0,1237554,0.0,79.51999999999998,329.0320783173632
1765219742613,10.0,0.0,1.0,10.0,0.0,0.0,0.0,0.0,0.0,0.0,0.0,0.0,0.0,0.0,0.0,0.0,-0.067832,0.010492,0.988444,-0.49000000000000005,0.35000000000000003,-0.07,29.953125,3.31,3.31,3.31,3.29,3.3,3.31,3.3,3.32,3.31,3.32,3.32,3.31,3.3,3.31,3.3,3.31,3.32,3.32,3.32,3.32,3.33,3.33,3.33,3.32,3.33,3.31,45.0,1.0,0.0,1.0,1.0,1237587,0.0,79.51999999999998,329.0320783173632
1765219742646,10.0,0.0,1.0,10.0,0.0,0.0,0.0,0.0,0.0,0.0,0.0,0.0,0.0,0.0,0.0,0.0,-0.078568,-0.003172,0.98515,-0.49000000000000005,0.35000000000000003,-0.07,29.953125,3.31,3.31,3.31,3.29,3.3,3.31,3.3,3.32,3.31,3.32,3.32,3.31,3.3,3.31,3.3,3.31,3.32,3.32,3.32,3.32,3.33,3.33,3.33,3.32,3.33,3.31,45.0,1.0,0.0,1.0,1.0,1237620,0.0,79.51999999999998,329.0320783173632
1765219742663,10.0,0.0,1.0,10.0,0.0,0.0,0.0,0.0,0.0,0.0,0.0,0.0,0.0,0.0,0.0,0.0,-0.078568,-0.003172,0.98515,-0.49000000000000005,0.35000000000000003,-0.07,29.953125,3.31,3.31,3.31,3.29,3.3,3.31,3.3,3.32,3.31,3.32,3.32,3.31,3.3,3.31,3.3,3.31,3.32,3.32,3.32,3.32,3.33,3.33,3.33,3.32,3.33,3.31,45.0,1.0,0.0,1.0,1.0,1237637,0.0,79.51999999999998,329.0320783173632
1765219742712,10.0,0.0,1.0,10.0,0.0,0.0,0.0,0.0,0.0,0.0,0.0,0.0,0.0,0.0,0.0,0.0,-0.078568,-0.003172,0.98515,-0.7000000000000001,0.35000000000000003,-0.07,29.953125,3.31,3.31,3.31,3.29,3.3,3.31,3.3,3.32,3.31,3.32,3.32,3.31,3.3,3.31,3.3,3.31,3.32,3.32,3.32,3.32,3.33,3.33,3.33,3.32,3.33,3.31,45.0,1.0,0.0,1.0,1.0,1237686,0.0,79.51999999999998,329.0320783173632
1765219742748,10.0,0.0,1.0,10.0,0.0,0.0,0.0,0.0,0.0,0.0,0.0,0.0,0.0,0.0,0.0,0.0,-0.078568,-0.003172,0.98515,-0.7000000000000001,0.35000000000000003,-0.07,29.953125,3.31,3.31,3.31,3.29,3.3,3.31,3.3,3.32,3.31,3.32,3.32,3.31,3.3,3.31,3.3,3.31,3.32,3.32,3.32,3.32,3.33,3.33,3.33,3.32,3.33,3.31,45.0,1.0,0.0,1.0,1.0,1237722,0.0,79.51999999999998,329.0320783173632
1765219742763,10.0,0.0,1.0,10.0,0.0,0.0,0.0,0.0,0.0,0.0,0.0,0.0,0.0,0.0,0.0,0.0,-0.078568,-0.003172,0.98515,-0.7000000000000001,0.35000000000000003,-0.07,29.921875,3.31,3.31,3.31,3.29,3.3,3.31,3.3,3.32,3.31,3.32,3.32,3.31,3.3,3.31,3.3,3.31,3.32,3.32,3.32,3.32,3.33,3.33,3.33,3.32,3.33,3.31,45.0,1.0,0.0,1.0,1.0,1237737,0.0,79.51999999999998,329.0320783173632
1765219742796,10.0,0.0,1.0,10.0,0.0,0.0,0.0,0.0,0.0,0.0,0.0,0.0,0.0,0.0,0.0,0.0,-0.056364,0.011956,0.988444,-0.7000000000000001,0.35000000000000003,-0.07,29.921875,3.31,3.31,3.31,3.29,3.3,3.31,3.3,3.32,3.31,3.32,3.32,3.31,3.3,3.31,3.3,3.31,3.32,3.32,3.32,3.32,3.33,3.33,3.33,3.32,3.33,3.31,45.0,1.0,0.0,1.0,1.0,1237770,0.0,79.51999999999998,329.0320783173632
1765219742814,10.0,0.0,1.0,10.0,0.0,0.0,0.0,0.0,0.0,0.0,0.0,0.0,0.0,0.0,0.0,0.0,-0.056364,0.011956,0.988444,-0.7000000000000001,0.56,0.07,29.921875,3.31,3.31,3.31,3.29,3.3,3.31,3.3,3.32,3.31,3.32,3.32,3.31,3.3,3.31,3.3,3.31,3.32,3.32,3.32,3.32,3.33,3.33,3.33,3.32,3.33,3.31,45.0,1.0,0.0,1.0,1.0,1237788,0.0,79.51999999999998,329.0320783173632
1765219742846,0.0,0.0,1.0,10.0,0.0,0.0,0.0,0.0,0.0,0.0,0.0,0.0,0.0,0.0,0.0,0.0,-0.056364,0.011956,0.988444,-0.7000000000000001,0.56,0.07,29.9375,3.31,3.31,3.31,3.29,3.3,3.31,3.3,3.32,3.31,3.32,3.32,3.31,3.3,3.31,3.3,3.31,3.32,3.32,3.32,3.32,3.33,3.33,3.33,3.32,3.33,3.31,45.0,1.0,0.0,1.0,1.0,1237820,0.0,79.51999999999998,329.0320783173632
1765219742863,0.0,0.0,1.0,10.0,0.0,0.0,0.0,0.0,0.0,0.0,0.0,0.0,0.0,0.0,0.0,0.0,-0.056364,0.011956,0.988444,-0.7000000000000001,0.56,0.07,29.9375,3.31,3.31,3.31,3.29,3.3,3.31,3.3,3.32,3.31,3.32,3.32,3.31,3.3,3.31,3.3,3.31,3.32,3.32,3.32,3.32,3.33,3.33,3.33,3.32,3.33,3.31,45.0,1.0,0.0,1.0,1.0,1237837,0.0,79.51999999999998,329.0320783173632
1765219742896,0.0,0.0,1.0,10.0,0.0,0.0,0.0,0.0,0.0,0.0,0.0,0.0,0.0,0.0,0.0,0.0,-0.056364,0.011956,0.988444,-0.7000000000000001,0.56,0.07,29.9375,3.31,3.31,3.31,3.29,3.3,3.31,3.3,3.32,3.31,3.32,3.32,3.31,3.3,3.31,3.3,3.31,3.32,3.32,3.32,3.32,3.33,3.33,3.33,3.32,3.33,3.31,45.0,1.0,0.0,1.0,1.0,1237870,0.0,79.51999999999998,329.0320783173632
1765219742913,0.0,0.0,1.0,10.0,0.0,0.0,0.0,0.0,0.0,0.0,0.0,0.0,0.0,0.0,0.0,0.0,-0.056364,0.011956,0.988444,-0.7000000000000001,0.56,0.07,29.9375,3.31,3.31,3.31,3.29,3.3,3.31,3.3,3.32,3.31,3.32,3.32,3.31,3.3,3.31,3.3,3.31,3.32,3.32,3.32,3.32,3.33,3.33,3.33,3.32,3.33,3.31,45.0,1.0,0.0,1.0,1.0,1237887,0.0,79.51999999999998,329.0320783173632
1765219742963,0.0,0.0,1.0,10.0,0.0,0.0,0.0,0.0,0.0,0.0,0.0,0.0,0.0,0.0,0.0,0.0,-0.056364,0.011956,0.988444,-0.7000000000000001,0.56,0.07,29.9375,3.31,3.31,3.31,3.29,3.3,3.31,3.3,3.32,3.31,3.32,3.32,3.31,3.3,3.31,3.3,3.31,3.32,3.32,3.32,3.32,3.33,3.33,3.33,3.32,3.33,3.31,45.0,1.0,0.0,1.0,1.0,1237937,0.0,79.51999999999998,329.0320783173632
1765219742980,0.0,0.0,1.0,10.0,0.0,0.0,0.0,0.0,0.0,0.0,0.0,0.0,0.0,0.0,0.0,0.0,-0.06283,0.02013,0.996252,-0.7000000000000001,0.56,0.07,29.9375,3.31,3.31,3.31,3.29,3.3,3.31,3.3,3.32,3.31,3.32,3.32,3.31,3.3,3.31,3.3,3.31,3.32,3.32,3.32,3.32,3.33,3.33,3.33,3.32,3.33,3.31,45.0,1.0,0.0,1.0,1.0,1237954,0.0,79.51999999999998,329.0320783173632
1765219743013,0.0,0.0,1.0,10.0,0.0,0.0,0.0,0.0,0.0,0.0,0.0,0.0,0.0,0.0,0.0,0.0,-0.06283,0.02013,0.996252,-0.35000000000000003,0.7000000000000001,-0.14,29.9375,3.31,3.31,3.31,3.29,3.3,3.31,3.3,3.32,3.31,3.32,3.32,3.31,3.3,3.31,3.3,3.31,3.32,3.32,3.32,3.32,3.33,3.33,3.33,3.32,3.33,3.31,45.0,1.0,0.0,1.0,1.0,1237987,0.0,79.51999999999998,329.0320783173632
1765219743062,0.0,0.0,1.0,10.0,0.0,0.0,0.0,0.0,0.0,0.0,0.0,0.0,0.0,0.0,0.0,0.0,-0.06283,0.02013,0.996252,-0.35000000000000003,0.7000000000000001,-0.14,29.94140625,3.31,3.31,3.31,3.29,3.3,3.31,3.3,3.32,3.31,3.32,3.32,3.31,3.3,3.31,3.3,3.31,3.32,3.32,3.32,3.32,3.33,3.33,3.33,3.32,3.33,3.31,45.0,1.0,0.0,1.0,1.0,1238036,0.0,79.51999999999998,329.0320783173632
1765219743080,0.0,0.0,1.0,10.0,0.0,0.0,0.0,0.0,0.0,0.0,0.0,0.0,0.0,0.0,0.0,0.0,-0.078934,0.002806,0.9989359999999999,-0.35000000000000003,0.7000000000000001,-0.14,29.94140625,3.31,3.31,3.31,3.29,3.3,3.31,3.3,3.32,3.31,3.32,3.32,3.31,3.3,3.31,3.3,3.31,3.32,3.32,3.32,3.32,3.33,3.33,3.33,3.32,3.33,3.31,45.0,1.0,0.0,1.0,1.0,1238054,0.0,79.51999999999998,329.0320783173632
1765219743096,0.0,0.0,1.0,10.0,0.0,0.0,0.0,0.0,0.0,0.0,0.0,0.0,0.0,0.0,0.0,0.0,-0.078934,0.002806,0.9989359999999999,-0.9100000000000001,0.14,-0.14,29.94140625,3.31,3.31,3.31,3.29,3.3,3.31,3.3,3.32,3.31,3.32,3.32,3.31,3.3,3.31,3.3,3.31,3.32,3.32,3.32,3.32,3.33,3.33,3.33,3.32,3.33,3.31,45.0,1.0,0.0,1.0,1.0,1238070,0.0,79.51999999999998,329.0320783173632
1765219743130,0.0,0.0,1.0,10.0,0.0,0.0,0.0,0.0,0.0,0.0,0.0,0.0,0.0,0.0,0.0,0.0,-0.078934,0.002806,0.9989359999999999,-0.49000000000000005,0.35000000000000003,-0.07,29.94140625,3.31,3.31,3.31,3.29,3.3,3.31,3.3,3.32,3.31,3.32,3.32,3.31,3.3,3.31,3.3,3.31,3.32,3.32,3.32,3.32,3.33,3.33,3.33,3.32,3.33,3.31,45.0,1.0,0.0,1.0,1.0,1238104,0.0,79.51999999999998,329.0320783173632
1765219743146,0.0,0.0,1.0,10.0,0.0,0.0,0.0,0.0,0.0,0.0,0.0,0.0,0.0,0.0,0.0,0.0,-0.078934,0.002806,0.9989359999999999,-0.49000000000000005,0.35000000000000003,-0.07,29.94140625,3.31,3.31,3.31,3.29,3.3,3.31,3.3,3.32,3.32,3.33,3.33,3.32,3.3,3.31,3.3,3.31,3.32,3.32,3.32,3.32,3.33,3.33,3.33,3.32,3.33,3.31,45.0,1.0,0.0,1.0,1.0,1238120,0.0,79.55999999999999,329.0320783173632
1765219743163,0.0,0.0,1.0,10.0,0.0,0.0,0.0,0.0,0.0,0.0,0.0,0.0,0.0,0.0,0.0,0.0,-0.078934,0.002806,0.9989359999999999,-0.49000000000000005,0.35000000000000003,-0.07,29.94140625,3.31,3.31,3.31,3.29,3.3,3.31,3.3,3.32,3.32,3.33,3.33,3.32,3.31,3.32,3.31,3.31,3.32,3.32,3.32,3.32,3.33,3.33,3.33,3.32,3.33,3.31,45.0,1.0,0.0,1.0,1.0,1238137,0.0,79.58999999999999,329.0320783173632
1765219743179,0.0,0.0,1.0,10.0,0.0,0.0,0.0,0.0,0.0,0.0,0.0,0.0,0.0,0.0,0.0,0.0,-0.078934,0.002806,0.9989359999999999,-0.49000000000000005,0.35000000000000003,-0.07,29.94140625,3.31,3.31,3.31,3.29,3.3,3.31,3.3,3.32,3.32,3.33,3.33,3.32,3.31,3.32,3.31,3.31,3.32,3.32,3.32,3.32,3.33,3.33,3.33,3.32,3.33,3.31,45.0,1.0,0.0,1.0,1.0,1238153,0.0,79.58999999999999,329.0320783173632
1765219743196,0.0,0.0,1.0,10.0,0.0,0.0,0.0,0.0,0.0,0.0,0.0,0.0,0.0,0.0,0.0,0.0,-0.078934,0.002806,0.9989359999999999,-0.49000000000000005,0.35000000000000003,-0.07,29.96875,3.31,3.31,3.31,3.29,3.3,3.31,3.3,3.32,3.32,3.33,3.33,3.32,3.31,3.32,3.31,3.31,3.32,3.32,3.32,3.32,3.33,3.33,3.33,3.32,3.33,3.31,45.0,1.0,0.0,1.0,1.0,1238170,0.0,79.58999999999999,329.0320783173632
1765219743229,620.0,0.0,1.0,10.0,0.0,0.0,0.0,0.0,0.0,0.0,0.0,0.0,0.0,0.0,0.0,0.0,-0.078934,0.002806,0.9989359999999999,-0.49000000000000005,0.35000000000000003,-0.07,29.96875,3.31,3.31,3.31,3.29,3.3,3.31,3.3,3.32,3.32,3.33,3.33,3.32,3.31,3.32,3.31,3.31,3.32,3.32,3.32,3.32,3.33,3.33,3.33,3.32,3.33,3.31,45.0,1.0,0.0,1.0,1.0,1238203,0.0,79.58999999999999,329.0320783173632
1765219743246,620.0,0.0,1.0,10.0,0.0,0.0,0.0,0.0,0.0,0.0,0.0,0.0,0.0,0.0,0.0,0.0,-0.078934,0.002806,0.9989359999999999,-0.49000000000000005,0.35000000000000003,-0.07,29.96875,3.31,3.31,3.31,3.29,3.3,3.31,3.3,3.32,3.32,3.33,3.33,3.32,3.31,3.32,3.31,3.31,3.32,3.32,3.32,3.32,3.33,3.33,3.33,3.32,3.33,3.31,45.0,1.0,0.0,1.0,1.0,1238220,0.0,79.58999999999999,329.0320783173632
1765219743263,620.0,0.0,1.0,10.0,616.0,616.0,0.0,0.0,0.0,0.0,0.0,0.0,0.0,0.0,0.0,0.0,-0.078934,0.002806,0.9989359999999999,-0.49000000000000005,0.35000000000000003,-0.07,29.96875,3.31,3.31,3.31,3.29,3.3,3.31,3.3,3.32,3.32,3.33,3.33,3.32,3.31,3.32,3.31,3.31,3.32,3.32,3.32,3.32,3.33,3.33,3.33,3.32,3.33,3.31,45.0,1.0,0.0,1.0,1.0,1238237,0.0,79.58999999999999,329.0320783173632
1765219743279,620.0,0.0,1.0,10.0,616.0,616.0,0.0,0.0,0.0,0.0,0.0,0.0,1.0,0.0,0.0,0.0,-0.078934,0.002806,0.9989359999999999,-0.49000000000000005,0.35000000000000003,-0.07,29.96875,3.31,3.31,3.31,3.29,3.3,3.31,3.3,3.32,3.32,3.33,3.33,3.32,3.31,3.32,3.31,3.31,3.32,3.32,3.32,3.32,3.33,3.33,3.33,3.32,3.33,3.31,45.0,1.0,0.0,1.0,1.0,1238253,0.0,79.58999999999999,329.0320783173632
1765219743296,620.0,0.0,1.0,10.0,616.0,616.0,0.0,0.0,0.0,0.0,0.0,0.0,1.0,0.0,0.0,0.0,-0.066612,0.005856,0.99308,-0.49000000000000005,0.35000000000000003,-0.07,29.96875,3.31,3.31,3.31,3.29,3.3,3.31,3.3,3.32,3.32,3.33,3.33,3.32,3.31,3.32,3.31,3.31,3.32,3.32,3.32,3.32,3.33,3.33,3.33,3.32,3.33,3.31,45.0,1.0,0.0,1.0,1.0,1238270,0.0,79.58999999999999,329.0320783173632
1765219743313,620.0,0.0,1.0,10.0,616.0,616.0,0.0,0.026,0.0,0.0,0.0,0.0,1.0,0.0,0.0,0.0,-0.066612,0.005856,0.99308,-0.49000000000000005,0.35000000000000003,-0.07,29.96875,3.31,3.31,3.31,3.29,3.3,3.31,3.3,3.32,3.32,3.33,3.33,3.32,3.31,3.32,3.31,3.31,3.32,3.32,3.32,3.32,3.33,3.33,3.33,3.32,3.33,3.31,45.0,1.0,0.0,1.0,1.0,1238287,0.0,79.58999999999999,329.0320783173632
1765219743346,620.0,0.0,1.0,10.0,616.0,616.0,0.0,0.026,0.0,0.0,0.0,0.0,1.0,0.0,0.0,0.0,-0.066612,0.005856,0.99308,-0.7000000000000001,0.21000000000000002,0.0,29.96875,3.31,3.31,3.31,3.29,3.3,3.31,3.3,3.32,3.32,3.33,3.33,3.32,3.31,3.32,3.31,3.31,3.32,3.32,3.32,3.32,3.33,3.33,3.33,3.32,3.33,3.31,45.0,1.0,0.0,1.0,1.0,1238320,0.0,79.58999999999999,329.0320783173632
1765219743379,620.0,0.0,1.0,10.0,616.0,616.0,0.0,0.026,0.0,0.0,-0.013,0.6000000000000001,1.0,0.0,0.0,0.0,-0.066612,0.005856,0.99308,-0.7000000000000001,0.21000000000000002,0.0,29.96875,3.31,3.31,3.31,3.29,3.3,3.31,3.3,3.32,3.32,3.33,3.33,3.32,3.31,3.32,3.31,3.31,3.32,3.32,3.32,3.32,3.33,3.33,3.33,3.32,3.33,3.31,45.0,1.0,0.0,1.0,1.0,1238353,0.0,79.58999999999999,329.0320783173632
1765219743412,620.0,0.0,1.0,10.0,616.0,616.0,0.0,0.026,0.0,0.0,-0.013,0.6000000000000001,1.0,0.0,0.0,0.0,-0.066612,0.005856,0.99308,-0.7000000000000001,0.21000000000000002,0.0,29.953125,3.31,3.31,3.31,3.29,3.3,3.31,3.3,3.32,3.32,3.33,3.33,3.32,3.31,3.32,3.31,3.31,3.32,3.32,3.32,3.32,3.33,3.33,3.33,3.32,3.33,3.31,45.0,1.0,0.0,1.0,1.0,1238386,0.0,79.58999999999999,329.0320783173632
1765219743462,620.0,0.0,1.0,10.0,616.0,616.0,0.0,0.026,0.0,0.0,-0.013,0.6000000000000001,1.0,0.0,0.0,0.0,-0.06478199999999999,0.011833999999999999,0.990152,-0.7000000000000001,0.21000000000000002,0.0,29.953125,3.31,3.31,3.31,3.29,3.3,3.31,3.3,3.32,3.32,3.33,3.33,3.32,3.31,3.32,3.31,3.31,3.32,3.32,3.32,3.32,3.33,3.33,3.33,3.32,3.33,3.31,45.0,1.0,0.0,1.0,1.0,1238436,0.0,79.58999999999999,329.0320783173632
1765219743479,620.0,0.0,1.0,10.0,616.0,616.0,0.0,0.026,0.0,0.0,-0.013,0.6000000000000001,1.0,0.0,0.0,0.0,-0.06478199999999999,0.011833999999999999,0.990152,-0.6300000000000001,0.49000000000000005,0.0,29.953125,3.31,3.31,3.31,3.29,3.3,3.31,3.3,3.32,3.32,3.33,3.33,3.32,3.31,3.32,3.31,3.31,3.32,3.32,3.32,3.32,3.33,3.33,3.33,3.32,3.33,3.31,45.0,1.0,0.0,1.0,1.0,1238453,0.0,79.58999999999999,329.0320783173632
1765219743495,620.0,0.0,1.0,10.0,616.0,616.0,0.0,0.026,0.0,0.0,-0.013,0.6000000000000001,1.0,0.0,0.0,0.0,-0.06478199999999999,0.011833999999999999,0.990152,-0.6300000000000001,0.49000000000000005,0.0,29.95703125,3.31,3.31,3.31,3.29,3.3,3.31,3.3,3.32,3.32,3.33,3.33,3.32,3.31,3.32,3.31,3.31,3.32,3.32,3.32,3.32,3.33,3.33,3.33,3.32,3.33,3.31,45.0,1.0,0.0,1.0,1.0,1238469,0.0,79.58999999999999,329.0320783173632
1765219743529,644.0,0.0,1.0,10.0,616.0,616.0,0.0,0.026,0.0,0.0,-0.013,0.6000000000000001,1.0,0.0,0.0,0.0,-0.06478199999999999,0.011833999999999999,0.990152,-0.6300000000000001,0.49000000000000005,0.0,29.95703125,3.31,3.31,3.31,3.29,3.3,3.31,3.3,3.32,3.32,3.33,3.33,3.32,3.31,3.32,3.31,3.31,3.32,3.32,3.32,3.32,3.33,3.33,3.33,3.32,3.33,3.31,45.0,1.0,0.0,1.0,1.0,1238503,0.0,79.58999999999999,329.0320783173632
1765219743546,644.0,0.0,1.0,10.0,644.0,644.0,0.0,0.026,0.0,0.0,-0.013,0.6000000000000001,1.0,0.0,0.0,0.0,-0.06478199999999999,0.011833999999999999,0.990152,-0.6300000000000001,0.49000000000000005,0.0,29.95703125,3.31,3.31,3.31,3.29,3.3,3.31,3.3,3.32,3.32,3.33,3.33,3.32,3.31,3.32,3.31,3.31,3.32,3.32,3.32,3.32,3.33,3.33,3.33,3.32,3.33,3.31,45.0,1.0,0.0,1.0,1.0,1238520,0.0,79.58999999999999,329.0320783173632
1765219743563,644.0,0.0,1.0,10.0,644.0,644.0,0.0,0.026,0.0,0.0,-0.013,0.6000000000000001,1.0,0.0,0.0,0.0,-0.06478199999999999,0.011833999999999999,0.990152,-0.6300000000000001,0.49000000000000005,0.0,29.95703125,3.31,3.31,3.31,3.29,3.3,3.31,3.3,3.32,3.32,3.33,3.33,3.32,3.31,3.32,3.31,3.31,3.32,3.32,3.32,3.32,3.33,3.33,3.33,3.32,3.33,3.31,45.0,1.0,0.0,1.0,1.0,1238537,0.0,79.58999999999999,329.0320783173632
1765219743596,644.0,0.0,1.0,10.0,644.0,644.0,1.0,0.039,0.1,0.0,-0.013,0.6000000000000001,1.0,0.0,0.0,0.0,-0.06709999999999999,0.009271999999999999,0.991738,-0.6300000000000001,0.49000000000000005,0.0,29.95703125,3.31,3.31,3.31,3.29,3.3,3.31,3.3,3.32,3.32,3.33,3.33,3.32,3.31,3.32,3.31,3.31,3.32,3.32,3.32,3.32,3.33,3.33,3.33,3.32,3.33,3.31,45.0,1.0,0.0,1.0,1.0,1238570,0.0055200642857142854,79.58999999999999,329.0321036176578
1765219743629,644.0,0.0,1.0,10.0,644.0,644.0,1.0,0.039,0.1,0.0,-0.013,0.6000000000000001,1.0,0.0,0.0,0.0,-0.06709999999999999,0.009271999999999999,0.991738,-0.7000000000000001,0.28,-0.14,29.95703125,3.31,3.31,3.31,3.29,3.3,3.31,3.3,3.32,3.32,3.33,3.33,3.32,3.31,3.32,3.31,3.31,3.32,3.32,3.32,3.32,3.33,3.33,3.33,3.32,3.33,3.31,45.0,1.0,0.0,1.0,1.0,1238603,0.0055200642857142854,79.58999999999999,329.0321542182471
1765219743662,644.0,0.0,1.0,10.0,644.0,644.0,1.0,0.039,0.1,0.0,-0.013,0.5,1.0,0.0,0.0,0.0,-0.06709999999999999,0.009271999999999999,0.991738,-0.7000000000000001,0.28,-0.14,29.95703125,3.31,3.31,3.31,3.29,3.3,3.31,3.3,3.32,3.32,3.33,3.33,3.32,3.31,3.32,3.31,3.31,3.32,3.32,3.32,3.32,3.33,3.33,3.33,3.32,3.33,3.31,45.0,1.0,0.0,1.0,1.0,1238636,0.0055200642857142854,79.58999999999999,329.0322048188364
1765219743696,644.0,0.0,1.0,10.0,644.0,644.0,1.0,0.039,0.1,0.0,-0.013,0.5,1.0,0.0,0.0,0.0,-0.06709999999999999,0.009271999999999999,0.991738,-0.7000000000000001,0.28,-0.14,29.9765625,3.31,3.31,3.31,3.29,3.3,3.31,3.3,3.32,3.32,3.33,3.33,3.32,3.31,3.32,3.31,3.31,3.32,3.32,3.32,3.32,3.33,3.33,3.33,3.32,3.33,3.31,45.0,1.0,0.0,1.0,1.0,1238670,0.0055200642857142854,79.58999999999999,329.0322569527769
1765219743779,644.0,0.0,1.0,10.0,644.0,644.0,1.0,0.039,0.1,0.0,-0.039,0.7000000000000001,1.0,0.0,0.0,0.0,-0.06709999999999999,0.009271999999999999,0.991738,-0.7000000000000001,0.28,-0.14,29.9765625,3.31,3.31,3.31,3.29,3.3,3.31,3.3,3.32,3.32,3.33,3.33,3.32,3.31,3.32,3.31,3.31,3.32,3.32,3.32,3.32,3.33,3.33,3.33,3.32,3.33,3.31,45.0,1.0,0.0,1.0,1.0,1238753,0.0055200642857142854,79.58999999999999,329.0323842209257
1765219743812,644.0,0.0,1.0,10.0,644.0,644.0,1.0,0.039,0.1,0.0,-0.039,0.7000000000000001,1.0,0.0,0.0,0.0,-0.067588,0.013663999999999999,0.98759,-0.7000000000000001,0.28,-0.14,29.9765625,3.31,3.31,3.31,3.29,3.3,3.31,3.3,3.32,3.32,3.33,3.33,3.32,3.31,3.32,3.31,3.31,3.32,3.32,3.32,3.32,3.33,3.33,3.33,3.32,3.33,3.31,45.0,1.0,0.0,1.0,1.0,1238786,0.0055200642857142854,79.58999999999999,329.032434821515
1765219743846,644.0,0.0,1.0,10.0,644.0,644.0,1.0,0.039,0.1,0.0,-0.039,0.7000000000000001,1.0,0.0,0.0,0.0,-0.067588,0.013663999999999999,0.98759,-0.77,0.28,-0.07,29.9765625,3.31,3.31,3.31,3.29,3.3,3.31,3.3,3.32,3.32,3.33,3.33,3.32,3.31,3.32,3.31,3.31,3.32,3.32,3.32,3.32,3.33,3.33,3.33,3.32,3.33,3.31,45.0,1.0,0.0,1.0,1.0,1238820,0.0055200642857142854,79.58999999999999,329.03248695545545
1765219743880,644.0,0.0,1.0,10.0,644.0,644.0,1.0,0.039,0.1,0.0,-0.039,0.7000000000000001,1.0,0.0,0.0,0.0,-0.067588,0.013663999999999999,0.98759,-0.77,0.28,-0.07,29.96484375,3.31,3.31,3.31,3.29,3.3,3.31,3.3,3.32,3.32,3.33,3.33,3.32,3.31,3.32,3.31,3.31,3.32,3.32,3.32,3.32,3.33,3.33,3.33,3.32,3.33,3.31,45.0,1.0,0.0,1.0,1.0,1238854,0.0055200642857142854,79.58999999999999,329.0325390893959
1765219743896,644.0,0.0,1.0,10.0,644.0,644.0,1.0,0.039,0.1,0.0,-0.039,0.7000000000000001,1.0,0.0,0.0,0.0,-0.07015,0.008296,0.9897859999999999,-0.77,0.28,-0.07,29.96484375,3.31,3.31,3.31,3.29,3.3,3.31,3.3,3.32,3.32,3.33,3.33,3.32,3.31,3.32,3.31,3.31,3.32,3.32,3.32,3.32,3.33,3.33,3.33,3.32,3.33,3.31,45.0,1.0,0.0,1.0,1.0,1238870,0.0055200642857142854,79.58999999999999,329.032563623015
1765219743912,644.0,0.0,1.0,10.0,644.0,644.0,1.0,0.039,0.1,0.0,-0.039,0.7000000000000001,1.0,0.0,0.0,0.0,-0.07015,0.008296,0.9897859999999999,-0.77,0.28,-0.07,29.96484375,3.31,3.31,3.31,3.29,3.3,3.31,3.3,3.32,3.32,3.33,3.33,3.32,3.31,3.32,3.31,3.31,3.32,3.32,3.32,3.32,3.33,3.33,3.33,3.32,3.33,3.31,46.0,1.0,0.0,1.0,1.0,1238886,0.0055200642857142854,79.58999999999999,329.03258815663406
1765219743929,644.0,0.0,1.0,10.0,644.0,644.0,1.0,0.039,0.1,0.0,-0.039,0.7000000000000001,1.0,0.0,0.0,0.0,-0.07015,0.008296,0.9897859999999999,-0.77,0.28,-0.07,29.96484375,3.31,3.31,3.31,3.29,3.3,3.31,3.3,3.32,3.32,3.33,3.33,3.32,3.31,3.32,3.31,3.31,3.32,3.32,3.32,3.32,3.33,3.33,3.33,3.32,3.33,3.31,46.0,1.0,0.0,1.0,1.0,1238903,0.0055200642857142854,79.58999999999999,329.0326142236043
1765219743946,644.0,0.0,1.0,10.0,644.0,644.0,1.0,0.039,0.1,0.0,-0.039,0.7000000000000001,1.0,0.0,0.0,0.0,-0.07015,0.008296,0.9897859999999999,-0.7000000000000001,0.49000000000000005,-0.07,29.96484375,3.31,3.31,3.31,3.29,3.3,3.31,3.3,3.32,3.32,3.33,3.33,3.32,3.31,3.32,3.31,3.31,3.32,3.32,3.32,3.32,3.33,3.33,3.33,3.32,3.33,3.31,46.0,1.0,0.0,1.0,1.0,1238920,0.0055200642857142854,79.58999999999999,329.03264029057453
1765219743963,837.0,0.0,1.0,10.0,644.0,644.0,1.0,0.039,0.1,0.0,-0.039,0.7000000000000001,1.0,0.0,0.0,0.0,-0.07015,0.008296,0.9897859999999999,-0.7000000000000001,0.49000000000000005,-0.07,29.96484375,3.31,3.31,3.31,3.29,3.3,3.31,3.3,3.32,3.32,3.33,3.33,3.32,3.31,3.32,3.31,3.31,3.32,3.32,3.32,3.32,3.33,3.33,3.33,3.32,3.33,3.31,46.0,1.0,0.0,1.0,1.0,1238937,0.0055200642857142854,79.58999999999999,329.03266635754477
1765219743981,837.0,0.0,1.0,10.0,644.0,644.0,1.0,0.039,0.1,0.0,-0.039,0.7000000000000001,1.0,0.0,0.0,0.0,-0.07015,0.008296,0.9897859999999999,-0.7000000000000001,0.49000000000000005,-0.07,29.96484375,3.31,3.31,3.31,3.29,3.3,3.31,3.3,3.32,3.32,3.33,3.33,3.32,3.31,3.32,3.31,3.31,3.32,3.32,3.32,3.32,3.33,3.33,3.33,3.32,3.33,3.31,46.0,1.0,0.0,1.0,1.0,1238955,0.0055200642857142854,79.58999999999999,329.0326939578662
1765219743996,837.0,0.0,1.0,10.0,713.0,713.0,1.0,0.039,0.1,0.0,-0.039,0.7000000000000001,1.0,0.0,0.0,0.0,-0.07015,0.008296,0.9897859999999999,-0.7000000000000001,0.49000000000000005,-0.07,29.96484375,3.31,3.31,3.31,3.29,3.3,3.31,3.3,3.32,3.32,3.33,3.33,3.32,3.31,3.32,3.31,3.31,3.32,3.32,3.32,3.32,3.33,3.33,3.33,3.32,3.33,3.31,46.0,1.0,0.0,1.0,1.0,1238970,0.0055200642857142854,79.58999999999999,329.032716958134
1765219744013,837.0,0.0,1.0,10.0,713.0,713.0,1.0,0.039,0.1,0.0,-0.039,0.7000000000000001,217.0,242.0,0.0,0.0,-0.07015,0.008296,0.9897859999999999,-0.7000000000000001,0.49000000000000005,-0.07,29.96875,3.31,3.31,3.31,3.29,3.3,3.31,3.3,3.32,3.32,3.33,3.33,3.32,3.31,3.32,3.31,3.31,3.32,3.32,3.32,3.32,3.33,3.33,3.33,3.32,3.33,3.31,46.0,1.0,0.0,1.0,1.0,1238987,0.0055200642857142854,79.58999999999999,329.03274302510425
1765219744046,837.0,0.0,1.0,10.0,713.0,713.0,13.0,0.065,8.1,0.0,-0.039,0.7000000000000001,217.0,242.0,0.0,0.0,-0.07015,0.008296,0.9897859999999999,-0.7000000000000001,0.49000000000000005,-0.07,29.96875,3.31,3.31,3.31,3.29,3.3,3.31,3.3,3.32,3.32,3.33,3.33,3.32,3.31,3.32,3.31,3.31,3.32,3.32,3.32,3.32,3.33,3.33,3.33,3.32,3.33,3.31,46.0,1.0,0.0,1.0,1.0,1239020,0.07176083571428572,79.58999999999999,329.03309722922927
1765219744096,837.0,0.0,1.0,10.0,713.0,713.0,13.0,0.065,8.1,13.0,-0.091,8.5,217.0,242.0,0.0,0.0,-0.07015,0.008296,0.9897859999999999,-0.7000000000000001,0.49000000000000005,-0.07,29.96875,3.31,3.31,3.31,3.29,3.3,3.31,3.3,3.32,3.32,3.33,3.33,3.32,3.31,3.32,3.31,3.31,3.32,3.32,3.32,3.32,3.33,3.33,3.33,3.32,3.33,3.31,46.0,1.0,0.0,1.0,1.0,1239070,0.14352167142857145,79.58999999999999,329.03459224664
1765219744178,837.0,0.0,1.0,10.0,713.0,713.0,13.0,0.065,8.1,13.0,-0.091,8.5,217.0,242.0,0.0,0.0,-0.07015,0.008296,0.9897859999999999,-0.56,0.35000000000000003,0.0,29.96875,3.31,3.31,3.31,3.29,3.3,3.31,3.3,3.32,3.32,3.33,3.33,3.32,3.31,3.32,3.31,3.31,3.32,3.32,3.32,3.32,3.33,3.33,3.33,3.32,3.33,3.31,46.0,1.0,0.0,1.0,1.0,1239152,0.14352167142857145,79.58999999999999,329.03786135137807
1765219744194,837.0,0.0,1.0,10.0,713.0,713.0,13.0,0.065,8.1,13.0,-0.091,8.5,217.0,242.0,0.0,0.0,-0.07015,0.008296,0.9897859999999999,-0.56,0.35000000000000003,0.0,29.9375,3.31,3.31,3.31,3.29,3.3,3.31,3.3,3.32,3.32,3.33,3.33,3.32,3.31,3.32,3.31,3.31,3.32,3.32,3.32,3.32,3.33,3.33,3.33,3.32,3.33,3.31,46.0,1.0,0.0,1.0,1.0,1239168,0.14352167142857145,79.58999999999999,329.0384992254733
1765219744229,711.0,0.0,1.0,10.0,713.0,713.0,13.0,0.065,8.1,13.0,-0.091,8.5,217.0,242.0,0.0,0.0,-0.07015,0.008296,0.9897859999999999,-0.56,0.35000000000000003,0.0,29.9375,3.31,3.31,3.31,3.29,3.3,3.31,3.3,3.32,3.32,3.33,3.33,3.32,3.31,3.32,3.31,3.31,3.32,3.32,3.32,3.32,3.33,3.33,3.33,3.32,3.33,3.31,46.0,1.0,0.0,1.0,1.0,1239203,0.14352167142857145,79.58999999999999,329.0398945750566
1765219744246,711.0,0.0,1.0,10.0,713.0,713.0,13.0,0.065,8.1,13.0,-0.091,8.5,217.0,242.0,0.0,0.0,-0.07015,0.008296,0.9897859999999999,-0.56,0.35000000000000003,0.0,29.9375,3.31,3.31,3.31,3.29,3.3,3.31,3.3,3.32,3.32,3.33,3.33,3.32,3.31,3.32,3.31,3.31,3.32,3.32,3.32,3.32,3.33,3.33,3.33,3.32,3.33,3.31,46.0,1.0,0.0,1.0,1.0,1239220,0.14352167142857145,79.58999999999999,329.0405723162828
1765219744263,711.0,0.0,1.0,10.0,711.0,711.0,13.0,0.065,8.1,13.0,-0.091,8.5,217.0,242.0,0.0,0.0,0.164944,0.054412,1.040294,-0.56,0.35000000000000003,0.0,29.9375,3.31,3.31,3.31,3.29,3.3,3.31,3.3,3.32,3.32,3.33,3.33,3.32,3.31,3.32,3.31,3.31,3.32,3.32,3.32,3.32,3.33,3.33,3.33,3.32,3.33,3.31,46.0,1.0,0.0,1.0,1.0,1239237,0.14352167142857145,79.58999999999999,329.041250057509
1765219744280,711.0,0.0,1.0,10.0,711.0,711.0,13.0,0.065,8.1,13.0,-0.091,8.5,313.0,249.0,0.0,0.0,0.164944,0.054412,1.040294,-0.56,0.35000000000000003,0.0,29.9375,3.31,3.31,3.31,3.29,3.3,3.31,3.3,3.32,3.32,3.33,3.33,3.32,3.31,3.32,3.31,3.31,3.32,3.32,3.32,3.32,3.33,3.33,3.33,3.32,3.33,3.31,46.0,1.0,0.0,1.0,1.0,1239254,0.14352167142857145,79.58999999999999,329.0419277987352
1765219744296,711.0,0.0,1.0,10.0,711.0,711.0,13.0,0.065,8.1,13.0,-0.091,8.5,313.0,249.0,0.0,0.0,0.164944,0.054412,1.040294,-1.6800000000000002,-0.14,0.14,29.9375,3.31,3.31,3.31,3.29,3.3,3.31,3.3,3.32,3.32,3.33,3.33,3.32,3.31,3.32,3.31,3.31,3.32,3.32,3.32,3.32,3.33,3.33,3.33,3.32,3.33,3.31,46.0,1.0,0.0,1.0,1.0,1239270,0.14352167142857145,79.58999999999999,329.0425656728304
1765219744329,711.0,0.0,1.0,10.0,711.0,711.0,313.0,1.3259999999999998,46.5,13.0,-0.091,8.5,313.0,249.0,0.0,0.0,0.164944,0.054412,1.040294,-1.6800000000000002,-0.14,0.14,29.9375,3.31,3.31,3.31,3.29,3.3,3.31,3.3,3.32,3.32,3.33,3.33,3.32,3.31,3.32,3.31,3.31,3.32,3.32,3.32,3.32,3.33,3.33,3.33,3.32,3.33,3.31,46.0,1.0,0.0,1.0,1.0,1239303,1.7995409571428571,79.58999999999999,329.05147137654467
1765219744362,711.0,0.0,1.0,10.0,711.0,711.0,313.0,1.3259999999999998,46.5,13.0,-0.091,8.5,313.0,249.0,0.0,0.0,0.164944,0.054412,1.040294,-1.6800000000000002,-0.14,0.14,29.984375,3.31,3.31,3.31,3.29,3.3,3.31,3.3,3.32,3.32,3.33,3.33,3.32,3.31,3.32,3.31,3.31,3.32,3.32,3.32,3.32,3.33,3.33,3.33,3.32,3.33,3.31,46.0,1.0,0.0,1.0,1.0,1239336,1.7995409571428571,79.58999999999999,329.0679671686518
1765219744379,711.0,0.0,1.0,10.0,711.0,711.0,313.0,1.3259999999999998,46.5,249.0,1.248,47.2,313.0,249.0,0.0,0.0,0.164944,0.054412,1.040294,-1.6800000000000002,-0.14,0.14,29.984375,3.31,3.31,3.31,3.29,3.3,3.31,3.3,3.32,3.32,3.33,3.33,3.32,3.31,3.32,3.31,3.31,3.32,3.32,3.32,3.32,3.33,3.33,3.33,3.32,3.33,3.31,46.0,1.0,0.0,1.0,1.0,1239353,3.102276128571429,79.58999999999999,329.07954090343753
1765219744447,711.0,0.0,1.0,10.0,711.0,711.0,313.0,1.3259999999999998,46.5,249.0,1.248,47.2,313.0,249.0,0.0,0.0,-0.0037819999999999998,-0.000732,0.983686,-1.6800000000000002,-0.14,0.14,29.984375,3.31,3.31,3.31,3.29,3.3,3.31,3.3,3.32,3.32,3.33,3.33,3.32,3.31,3.32,3.31,3.31,3.32,3.32,3.32,3.32,3.33,3.33,3.33,3.32,3.33,3.31,46.0,1.0,0.0,1.0,1.0,1239421,3.102276128571429,79.58999999999999,329.13813945253276
1765219744462,711.0,0.0,1.0,10.0,711.0,711.0,313.0,1.3259999999999998,46.5,174.0,6.6819999999999995,96.0,313.0,249.0,0.0,0.0,-0.0037819999999999998,-0.000732,0.983686,-1.6800000000000002,-0.14,0.14,29.984375,3.31,3.31,3.31,3.29,3.3,3.31,3.3,3.32,3.32,3.33,3.33,3.32,3.31,3.32,3.31,3.31,3.32,3.32,3.32,3.32,3.33,3.33,3.33,3.32,3.33,3.31,46.0,1.0,0.0,1.0,1.0,1239436,2.6882713071428572,79.58999999999999,329.15020309302383
1765219744494,711.0,0.0,1.0,10.0,711.0,711.0,313.0,1.3259999999999998,46.5,174.0,6.6819999999999995,96.0,313.0,249.0,0.0,0.0,-0.0037819999999999998,-0.000732,0.983686,-8.05,1.05,0.49000000000000005,29.984375,3.31,3.31,3.31,3.29,3.3,3.31,3.3,3.32,3.32,3.33,3.33,3.32,3.31,3.32,3.31,3.31,3.32,3.32,3.32,3.32,3.33,3.33,3.33,3.32,3.33,3.31,46.0,1.0,0.0,1.0,1.0,1239468,2.6882713071428572,79.58999999999999,329.1740988379762
1765219744529,711.0,0.0,1.0,10.0,711.0,711.0,313.0,1.3259999999999998,46.5,174.0,6.6819999999999995,96.0,313.0,249.0,0.0,0.0,-0.0037819999999999998,-0.000732,0.983686,-8.05,1.05,0.49000000000000005,29.95703125,3.31,3.31,3.31,3.29,3.3,3.31,3.3,3.32,3.32,3.33,3.33,3.32,3.31,3.32,3.31,3.31,3.32,3.32,3.32,3.32,3.33,3.33,3.33,3.32,3.33,3.31,46.0,1.0,0.0,1.0,1.0,1239503,2.6882713071428572,79.58999999999999,329.20023480901784
1765219744563,711.0,0.0,1.0,10.0,711.0,711.0,313.0,1.3259999999999998,46.5,174.0,6.6819999999999995,96.0,313.0,249.0,0.0,0.0,0.02501,-0.013054,0.992104,-8.05,1.05,0.49000000000000005,29.95703125,3.31,3.31,3.31,3.29,3.3,3.31,3.3,3.32,3.32,3.33,3.33,3.32,3.31,3.32,3.31,3.31,3.32,3.32,3.32,3.32,3.33,3.33,3.33,3.32,3.33,3.31,46.0,1.0,0.0,1.0,1.0,1239537,2.6882713071428572,79.58999999999999,329.22562403802976
