timestamp,THROTTLE,BRAKE,ECU_MODE_ID,TORQUE_GAIN,TORQUE_REF_LEFT_MOTOR,TORQUE_REF_RIGHT_MOTOR,LEFT_MOTOR_RPM,LEFT_MOTOR_TORQUE,LEFT_MOTOR_CURRENT,RIGHT_MOTOR_RPM,RIGHT_MOTOR_TORQUE,RIGHT_MOTOR_CURRENT,REAR_LEFT_WHEEL_SPEED,REAR_RIGHT_WHEEL_SPEED,FRONT_LEFT_WHEEL_SPEED,FRONT_RIGHT_WHEEL_SPEED,ACCEL_LONGITUDINAL,ACCEL_LATERAL,ACCEL_NORMAL,VEL_ANGULAR_YAW,VEL_ANGULAR_PITCH,VEL_ANGULAR_ROLL,ELETROBUILD_TEMPERATURE,STACK_1_CELL_1,STACK_1_CELL_2,STACK_1_CELL_3,STACK_1_CELL_4,STACK_2_CELL_1,STACK_2_CELL_2,STACK_2_CELL_3,STACK_2_CELL_4,STACK_3_CELL_1,STACK_3_CELL_2,STACK_3_CELL_3,STACK_3_CELL_4,STACK_4_CELL_1,STACK_4_CELL_2,STACK_4_CELL_3,STACK_4_CELL_4,STACK_5_CELL_1,STACK_5_CELL_2,STACK_5_CELL_3,STACK_5_CELL_4,STACK_6_CELL_1,STACK_6_CELL_2,STACK_6_CELL_3,STACK_6_CELL_4,MAX_VOLTAGE,MIN_VOLTAGE,SHUNT_CURRENT,BMS_MODE_ID,BMS_ERROR_ID,AIR_P,AIR_N,t,VEHICLE_SPEED,TOTAL_VOLTAGE,HODOMETRO
1765219080053,0.0,0.0,1.0,10.0,0.0,0.0,0.0,0.0,0.0,0.0,0.0,0.0,0.0,0.0,0.0,0.0,-0.022326,0.0034159999999999998,0.996252,-0.7000000000000001,0.6300000000000001,0.0,27.7890625,3.32,3.33,3.32,3.28,3.32,3.32,3.32,3.31,3.36,3.36,3.36,3.34,3.32,3.32,3.32,3.33,3.33,3.33,3.32,3.32,3.35,3.35,3.34,3.34,3.36,3.28,47.0,1.0,0.0,1.0,1.0,575027,0.0,79.90999999999998,13.702138939407739
1765219080071,0.0,0.0,1.0,10.0,0.0,0.0,0.0,0.0,0.0,0.0,0.0,0.0,0.0,0.0,0.0,0.0,-0.022326,0.0034159999999999998,0.996252,-0.7000000000000001,0.6300000000000001,0.0,27.7890625,3.32,3.33,3.32,3.28,3.32,3.32,3.32,3.31,3.36,3.36,3.36,3.34,3.32,3.32,3.32,3.33,3.33,3.33,3.32,3.32,3.35,3.35,3.34,3.34,3.35,3.29,44.0,1.0,0.0,1.0,1.0,575045,0.0,79.90999999999998,13.702138939407739
1765219080106,0.0,0.0,1.0,10.0,0.0,0.0,0.0,0.0,0.0,0.0,0.0,0.0,0.0,0.0,0.0,0.0,-0.022326,0.0034159999999999998,0.996252,-0.7000000000000001,0.6300000000000001,0.0,27.7890625,3.32,3.33,3.32,3.28,3.32,3.32,3.32,3.31,3.36,3.36,3.36,3.34,3.32,3.32,3.32,3.33,3.33,3.33,3.32,3.32,3.35,3.35,3.34,3.34,3.35,3.29,44.0,1.0,0.0,1.0,1.0,575080,0.0,79.90999999999998,13.702138939407739
1765219080122,0.0,0.0,1.0,10.0,0.0,0.0,0.0,0.0,0.0,0.0,0.0,0.0,0.0,0.0,0.0,0.0,-0.022326,0.0034159999999999998,0.996252,-0.7000000000000001,0.6300000000000001,0.0,28.74609375,3.32,3.33,3.32,3.28,3.32,3.32,3.32,3.31,3.36,3.36,3.36,3.34,3.32,3.32,3.32,3.33,3.33,3.33,3.32,3.32,3.35,3.35,3.34,3.34,3.35,3.29,44.0,1.0,0.0,1.0,1.0,575096,0.0,79.90999999999998,13.702138939407739
1765219080139,0.0,0.0,1.0,10.0,0.0,0.0,0.0,0.0,0.0,0.0,0.0,0.0,0.0,0.0,0.0,0.0,-0.012565999999999999,0.0050019999999999995,0.9922259999999999,-0.7000000000000001,0.6300000000000001,0.0,28.74609375,3.32,3.33,3.32,3.28,3.32,3.32,3.32,3.31,3.36,3.36,3.36,3.34,3.32,3.32,3.32,3.33,3.33,3.33,3.32,3.32,3.35,3.35,3.34,3.34,3.35,3.29,44.0,1.0,0.0,1.0,1.0,575113,0.0,79.90999999999998,13.702138939407739
1765219080172,0.0,0.0,1.0,10.0,0.0,0.0,0.0,0.0,0.0,0.0,0.0,0.0,0.0,0.0,0.0,0.0,-0.012565999999999999,0.0050019999999999995,0.9922259999999999,-0.7000000000000001,0.6300000000000001,0.0,28.74609375,3.32,3.33,3.32,3.28,3.32,3.32,3.32,3.31,3.36,3.36,3.36,3.34,3.32,3.32,3.32,3.33,3.33,3.33,3.32,3.32,3.35,3.35,3.34,3.34,3.35,3.29,44.0,1.0,0.0,1.0,1.0,575146,0.0,79.90999999999998,13.702138939407739
1765219080189,0.0,0.0,2.0,25.0,0.0,0.0,0.0,0.0,0.0,0.0,0.0,0.0,0.0,0.0,0.0,0.0,-0.012565999999999999,0.0050019999999999995,0.9922259999999999,-0.7000000000000001,0.49000000000000005,0.0,28.74609375,3.32,3.33,3.32,3.28,3.32,3.32,3.32,3.31,3.36,3.36,3.36,3.34,3.32,3.32,3.32,3.33,3.33,3.33,3.32,3.32,3.35,3.35,3.34,3.34,3.35,3.29,44.0,1.0,0.0,1.0,1.0,575163,0.0,79.90999999999998,13.702138939407739
1765219080206,0.0,0.0,2.0,25.0,0.0,0.0,0.0,0.0,0.0,0.0,0.0,0.0,0.0,0.0,0.0,0.0,-0.012565999999999999,0.0050019999999999995,0.9922259999999999,-0.7000000000000001,0.49000000000000005,0.0,28.74609375,3.32,3.33,3.32,3.28,3.32,3.32,3.32,3.31,3.36,3.36,3.36,3.34,3.32,3.32,3.32,3.33,3.33,3.33,3.32,3.32,3.35,3.35,3.34,3.34,3.35,3.29,44.0,1.0,0.0,1.0,1.0,575180,0.0,79.90999999999998,13.702138939407739
1765219080222,0.0,0.0,2.0,25.0,0.0,0.0,0.0,0.0,0.0,0.0,0.0,0.0,0.0,0.0,0.0,0.0,-0.012565999999999999,0.0050019999999999995,0.9922259999999999,-0.7000000000000001,0.49000000000000005,0.0,28.74609375,3.32,3.33,3.32,3.28,3.32,3.32,3.32,3.31,3.36,3.36,3.36,3.34,3.32,3.32,3.32,3.33,3.33,3.33,3.32,3.32,3.35,3.35,3.34,3.34,3.35,3.29,44.0,1.0,0.0,1.0,1.0,575196,0.0,79.90999999999998,13.702138939407739
1765219080255,0.0,0.0,2.0,25.0,0.0,0.0,0.0,0.0,0.0,0.0,0.0,0.0,0.0,0.0,0.0,0.0,-0.012565999999999999,0.0050019999999999995,0.9922259999999999,-0.7000000000000001,0.49000000000000005,0.0,28.74609375,3.32,3.33,3.32,3.28,3.32,3.32,3.32,3.31,3.36,3.36,3.36,3.34,3.32,3.32,3.32,3.33,3.33,3.33,3.32,3.32,3.35,3.35,3.34,3.34,3.35,3.29,44.0,1.0,0.0,1.0,1.0,575229,0.0,79.90999999999998,13.702138939407739
1765219080273,0.0,0.0,2.0,25.0,0.0,0.0,0.0,0.0,0.0,0.0,0.0,0.0,0.0,0.0,0.0,0.0,-0.012565999999999999,0.0050019999999999995,0.9922259999999999,-0.7000000000000001,0.49000000000000005,0.0,28.703125,3.32,3.33,3.32,3.28,3.32,3.32,3.32,3.31,3.36,3.36,3.36,3.34,3.32,3.32,3.32,3.33,3.33,3.33,3.32,3.32,3.35,3.35,3.34,3.34,3.35,3.29,44.0,1.0,0.0,1.0,1.0,575247,0.0,79.90999999999998,13.702138939407739
1765219080305,0.0,0.0,2.0,25.0,0.0,0.0,0.0,0.0,0.0,0.0,0.0,0.0,0.0,0.0,0.0,0.0,-0.012565999999999999,0.0050019999999999995,0.9922259999999999,-0.7000000000000001,0.49000000000000005,0.0,28.703125,3.32,3.33,3.32,3.28,3.32,3.32,3.32,3.31,3.36,3.36,3.36,3.34,3.32,3.32,3.32,3.33,3.33,3.33,3.32,3.32,3.35,3.35,3.34,3.34,3.35,3.29,44.0,1.0,0.0,1.0,1.0,575279,0.0,79.90999999999998,13.702138939407739
1765219080321,0.0,0.0,2.0,25.0,0.0,0.0,0.0,0.0,0.0,0.0,0.0,0.0,0.0,0.0,0.0,0.0,-0.012565999999999999,0.0050019999999999995,0.9922259999999999,-0.7000000000000001,0.49000000000000005,0.0,28.703125,3.32,3.33,3.32,3.28,3.32,3.32,3.32,3.31,3.36,3.36,3.36,3.34,3.32,3.32,3.32,3.33,3.33,3.33,3.32,3.32,3.35,3.35,3.34,3.34,3.35,3.29,44.0,1.0,0.0,1.0,1.0,575295,0.0,79.90999999999998,13.702138939407739
1765219080338,0.0,0.0,2.0,25.0,0.0,0.0,0.0,0.0,0.0,0.0,0.0,0.0,0.0,0.0,0.0,0.0,-0.012565999999999999,0.0050019999999999995,0.9922259999999999,-0.7000000000000001,0.49000000000000005,0.0,28.703125,3.32,3.33,3.32,3.28,3.32,3.32,3.32,3.31,3.36,3.36,3.36,3.34,3.32,3.32,3.32,3.33,3.33,3.33,3.32,3.32,3.35,3.35,3.34,3.34,3.35,3.29,44.0,1.0,0.0,1.0,1.0,575312,0.0,79.90999999999998,13.702138939407739
1765219080371,0.0,0.0,2.0,25.0,0.0,0.0,0.0,0.0,0.0,0.0,0.0,0.0,0.0,0.0,0.0,0.0,-0.01098,0.00488,0.9943,-0.7000000000000001,0.49000000000000005,0.0,28.703125,3.32,3.33,3.32,3.28,3.32,3.32,3.32,3.31,3.36,3.36,3.36,3.34,3.32,3.32,3.32,3.33,3.33,3.33,3.32,3.32,3.35,3.35,3.34,3.34,3.35,3.29,44.0,1.0,0.0,1.0,1.0,575345,0.0,79.90999999999998,13.702138939407739
1765219080388,0.0,0.0,2.0,25.0,0.0,0.0,0.0,0.0,0.0,0.0,0.0,0.0,0.0,0.0,0.0,0.0,-0.01098,0.00488,0.9943,-0.7000000000000001,0.49000000000000005,0.0,28.703125,3.32,3.33,3.32,3.28,3.32,3.32,3.32,3.31,3.36,3.36,3.36,3.34,3.32,3.32,3.32,3.33,3.33,3.33,3.32,3.32,3.35,3.35,3.34,3.34,3.35,3.29,44.0,1.0,0.0,1.0,1.0,575362,0.0,79.90999999999998,13.702138939407739
1765219080423,0.0,0.0,2.0,25.0,0.0,0.0,0.0,0.0,0.0,0.0,0.0,0.0,0.0,0.0,0.0,0.0,-0.01098,0.00488,0.9943,-0.7000000000000001,0.42000000000000004,-0.07,28.703125,3.32,3.33,3.32,3.28,3.32,3.32,3.32,3.31,3.36,3.36,3.36,3.34,3.32,3.32,3.32,3.33,3.33,3.33,3.32,3.32,3.35,3.35,3.34,3.34,3.35,3.29,44.0,1.0,0.0,1.0,1.0,575397,0.0,79.90999999999998,13.702138939407739
1765219080440,0.0,0.0,2.0,25.0,0.0,0.0,0.0,0.0,0.0,0.0,0.0,0.0,0.0,0.0,0.0,0.0,-0.01098,0.00488,0.9943,-0.7000000000000001,0.42000000000000004,-0.07,28.703125,3.32,3.33,3.32,3.28,3.32,3.32,3.32,3.31,3.36,3.36,3.36,3.34,3.32,3.32,3.32,3.33,3.33,3.33,3.32,3.32,3.35,3.35,3.34,3.34,3.35,3.29,44.0,1.0,0.0,1.0,1.0,575414,0.0,79.90999999999998,13.702138939407739
1765219080473,0.0,0.0,2.0,25.0,0.0,0.0,0.0,0.0,0.0,0.0,0.0,0.0,0.0,0.0,0.0,0.0,-0.01098,0.00488,0.9943,-0.7000000000000001,0.42000000000000004,-0.07,28.703125,3.32,3.33,3.32,3.28,3.32,3.32,3.32,3.31,3.36,3.36,3.36,3.34,3.32,3.32,3.32,3.33,3.33,3.33,3.32,3.32,3.35,3.35,3.34,3.34,3.35,3.29,44.0,1.0,0.0,1.0,1.0,575447,0.0,79.90999999999998,13.702138939407739
1765219080537,0.0,0.0,2.0,25.0,0.0,0.0,0.0,0.0,0.0,0.0,0.0,0.0,0.0,0.0,0.0,0.0,-0.010248,0.005856,0.99369,-0.7000000000000001,0.42000000000000004,-0.07,28.703125,3.32,3.33,3.32,3.28,3.32,3.32,3.32,3.31,3.36,3.36,3.36,3.34,3.32,3.32,3.32,3.33,3.33,3.33,3.32,3.32,3.35,3.35,3.34,3.34,3.35,3.29,44.0,1.0,0.0,1.0,1.0,575511,0.0,79.90999999999998,13.702138939407739
1765219080554,0.0,0.0,2.0,25.0,0.0,0.0,0.0,0.0,0.0,0.0,0.0,0.0,0.0,0.0,0.0,0.0,-0.010248,0.005856,0.99369,-0.7000000000000001,0.56,-0.07,28.703125,3.32,3.33,3.32,3.28,3.32,3.32,3.32,3.31,3.36,3.36,3.36,3.34,3.32,3.32,3.32,3.33,3.33,3.33,3.32,3.32,3.35,3.35,3.34,3.34,3.35,3.29,44.0,1.0,0.0,1.0,1.0,575528,0.0,79.90999999999998,13.702138939407739
1765219080571,0.0,0.0,2.0,25.0,0.0,0.0,0.0,0.0,0.0,0.0,0.0,0.0,0.0,0.0,0.0,0.0,-0.010248,0.005856,0.99369,-0.7000000000000001,0.56,-0.07,28.6875,3.32,3.33,3.32,3.28,3.32,3.32,3.32,3.31,3.36,3.36,3.36,3.34,3.32,3.32,3.32,3.33,3.33,3.33,3.32,3.32,3.35,3.35,3.34,3.34,3.35,3.29,44.0,1.0,0.0,1.0,1.0,575545,0.0,79.90999999999998,13.702138939407739
1765219080587,0.0,0.0,2.0,25.0,0.0,0.0,0.0,0.0,0.0,0.0,0.0,0.0,0.0,0.0,0.0,0.0,-0.010248,0.005856,0.99369,-0.7000000000000001,0.56,-0.07,28.6875,3.32,3.33,3.32,3.28,3.32,3.32,3.32,3.31,3.36,3.36,3.36,3.34,3.32,3.32,3.32,3.33,3.33,3.33,3.32,3.32,3.35,3.35,3.34,3.34,3.35,3.29,44.0,1.0,0.0,1.0,1.0,575561,0.0,79.90999999999998,13.702138939407739
1765219080605,0.0,0.0,2.0,25.0,0.0,0.0,0.0,0.0,0.0,0.0,0.0,0.0,0.0,0.0,0.0,0.0,-0.010248,0.005856,0.99369,-0.7000000000000001,0.56,-0.07,28.6875,3.32,3.33,3.32,3.28,3.32,3.32,3.32,3.31,3.36,3.36,3.36,3.34,3.32,3.32,3.32,3.33,3.33,3.33,3.32,3.32,3.35,3.35,3.34,3.34,3.35,3.29,44.0,1.0,0.0,1.0,1.0,575579,0.0,79.90999999999998,13.702138939407739
1765219080620,0.0,0.0,2.0,25.0,0.0,0.0,0.0,0.0,0.0,0.0,0.0,0.0,0.0,0.0,0.0,0.0,-0.010248,0.005856,0.99369,-0.7000000000000001,0.56,-0.07,28.6875,3.32,3.33,3.32,3.28,3.32,3.32,3.32,3.31,3.36,3.36,3.36,3.34,3.32,3.32,3.32,3.33,3.33,3.33,3.32,3.32,3.35,3.35,3.34,3.34,3.35,3.29,44.0,1.0,0.0,1.0,1.0,575594,0.0,79.90999999999998,13.702138939407739
1765219080637,0.0,0.0,2.0,25.0,0.0,0.0,0.0,0.0,0.0,0.0,0.0,0.0,0.0,0.0,0.0,0.0,-0.010248,0.005856,0.99369,-0.7000000000000001,0.56,-0.07,28.6875,3.32,3.33,3.32,3.28,3.32,3.32,3.32,3.31,3.36,3.36,3.36,3.34,3.32,3.32,3.32,3.33,3.33,3.33,3.32,3.32,3.35,3.35,3.34,3.34,3.35,3.29,44.0,1.0,0.0,1.0,1.0,575611,0.0,79.90999999999998,13.702138939407739
1765219080653,0.0,0.0,2.0,25.0,0.0,0.0,0.0,0.0,0.0,0.0,0.0,0.0,0.0,0.0,0.0,0.0,-0.010248,0.005856,0.99369,-0.7000000000000001,0.56,-0.07,28.6875,3.32,3.33,3.32,3.28,3.32,3.32,3.32,3.31,3.36,3.36,3.36,3.34,3.32,3.32,3.32,3.33,3.33,3.33,3.32,3.32,3.35,3.35,3.34,3.34,3.35,3.29,44.0,1.0,0.0,1.0,1.0,575627,0.0,79.90999999999998,13.702138939407739
1765219080704,0.0,0.0,2.0,25.0,0.0,0.0,0.0,0.0,0.0,0.0,0.0,0.0,0.0,0.0,0.0,0.0,-0.012199999999999999,0.0057339999999999995,0.993568,-0.7000000000000001,0.56,-0.07,28.6875,3.32,3.33,3.32,3.28,3.32,3.32,3.32,3.31,3.36,3.36,3.36,3.34,3.32,3.32,3.32,3.33,3.33,3.33,3.32,3.32,3.35,3.35,3.34,3.34,3.35,3.29,44.0,1.0,0.0,1.0,1.0,575678,0.0,79.90999999999998,13.702138939407739
1765219080720,0.0,0.0,2.0,25.0,0.0,0.0,0.0,0.0,0.0,0.0,0.0,0.0,0.0,0.0,0.0,0.0,-0.012199999999999999,0.0057339999999999995,0.993568,-0.7000000000000001,0.56,-0.07,28.6875,3.32,3.33,3.32,3.28,3.32,3.32,3.32,3.31,3.36,3.36,3.36,3.34,3.32,3.32,3.32,3.33,3.33,3.33,3.32,3.32,3.35,3.35,3.34,3.34,3.35,3.29,44.0,1.0,0.0,1.0,1.0,575694,0.0,79.90999999999998,13.702138939407739
1765219080772,0.0,0.0,2.0,25.0,0.0,0.0,0.0,0.0,0.0,0.0,0.0,0.0,0.0,0.0,0.0,0.0,-0.012199999999999999,0.0057339999999999995,0.993568,-0.7000000000000001,0.42000000000000004,0.0,28.6875,3.32,3.33,3.32,3.28,3.32,3.32,3.32,3.31,3.36,3.36,3.36,3.34,3.32,3.32,3.32,3.33,3.33,3.33,3.32,3.32,3.35,3.35,3.34,3.34,3.35,3.29,44.0,1.0,0.0,1.0,1.0,575746,0.0,79.90999999999998,13.702138939407739
1765219080789,0.0,0.0,2.0,25.0,0.0,0.0,0.0,0.0,0.0,0.0,0.0,0.0,0.0,0.0,0.0,0.0,-0.012199999999999999,0.0057339999999999995,0.993568,-0.7000000000000001,0.42000000000000004,0.0,28.7578125,3.32,3.33,3.32,3.28,3.32,3.32,3.32,3.31,3.36,3.36,3.36,3.34,3.32,3.32,3.32,3.33,3.33,3.33,3.32,3.32,3.35,3.35,3.34,3.34,3.35,3.29,44.0,1.0,0.0,1.0,1.0,575763,0.0,79.90999999999998,13.702138939407739
1765219080822,0.0,0.0,2.0,25.0,0.0,0.0,0.0,0.0,0.0,0.0,0.0,0.0,0.0,0.0,0.0,0.0,-0.012199999999999999,0.0057339999999999995,0.993568,-0.7000000000000001,0.42000000000000004,0.0,28.7578125,3.33,3.33,3.33,3.29,3.32,3.32,3.32,3.31,3.36,3.36,3.36,3.34,3.32,3.32,3.32,3.33,3.33,3.33,3.32,3.32,3.35,3.35,3.34,3.34,3.35,3.29,44.0,1.0,0.0,1.0,1.0,575796,0.0,79.93999999999998,13.702138939407739
1765219080838,0.0,0.0,2.0,25.0,0.0,0.0,0.0,0.0,0.0,0.0,0.0,0.0,0.0,0.0,0.0,0.0,-0.012199999999999999,0.0057339999999999995,0.993568,-0.7000000000000001,0.42000000000000004,0.0,28.7578125,3.33,3.33,3.33,3.29,3.33,3.33,3.33,3.32,3.34,3.35,3.35,3.33,3.32,3.32,3.32,3.33,3.33,3.33,3.32,3.32,3.35,3.35,3.34,3.34,3.35,3.29,44.0,1.0,0.0,1.0,1.0,575812,0.0,79.92999999999998,13.702138939407739
1765219080856,0.0,0.0,2.0,25.0,0.0,0.0,0.0,0.0,0.0,0.0,0.0,0.0,0.0,0.0,0.0,0.0,-0.012199999999999999,0.0057339999999999995,0.993568,-0.7000000000000001,0.42000000000000004,0.0,28.7578125,3.33,3.33,3.33,3.29,3.33,3.33,3.33,3.32,3.34,3.35,3.35,3.33,3.33,3.33,3.33,3.33,3.33,3.33,3.32,3.32,3.35,3.35,3.34,3.34,3.35,3.29,44.0,1.0,0.0,1.0,1.0,575830,0.0,79.95999999999998,13.702138939407739
1765219080905,0.0,0.0,2.0,25.0,0.0,0.0,0.0,0.0,0.0,0.0,0.0,0.0,0.0,0.0,0.0,0.0,-0.011101999999999999,0.004392,0.995032,-0.7000000000000001,0.42000000000000004,0.0,28.7578125,3.33,3.33,3.33,3.29,3.33,3.33,3.33,3.32,3.34,3.35,3.35,3.33,3.33,3.33,3.33,3.33,3.33,3.33,3.32,3.32,3.35,3.35,3.34,3.34,3.35,3.29,44.0,1.0,0.0,1.0,1.0,575879,0.0,79.95999999999998,13.702138939407739
1765219080938,0.0,0.0,2.0,25.0,0.0,0.0,0.0,0.0,0.0,0.0,0.0,0.0,0.0,0.0,0.0,0.0,-0.011101999999999999,0.004392,0.995032,-0.6300000000000001,0.49000000000000005,-0.07,28.71875,3.33,3.33,3.33,3.29,3.33,3.33,3.33,3.32,3.34,3.35,3.35,3.33,3.33,3.33,3.33,3.33,3.33,3.33,3.32,3.32,3.35,3.35,3.34,3.34,3.35,3.29,44.0,1.0,0.0,1.0,1.0,575912,0.0,79.95999999999998,13.702138939407739
1765219080956,0.0,0.0,2.0,25.0,0.0,0.0,0.0,0.0,0.0,0.0,0.0,0.0,0.0,0.0,0.0,0.0,-0.011101999999999999,0.004392,0.995032,-0.6300000000000001,0.49000000000000005,-0.07,28.71875,3.33,3.33,3.33,3.3,3.33,3.33,3.33,3.32,3.34,3.35,3.35,3.33,3.33,3.33,3.33,3.33,3.33,3.33,3.32,3.32,3.35,3.35,3.34,3.34,3.35,3.29,44.0,1.0,0.0,1.0,1.0,575930,0.0,79.96999999999997,13.702138939407739
1765219080988,0.0,0.0,2.0,25.0,0.0,0.0,0.0,0.0,0.0,0.0,0.0,0.0,0.0,0.0,0.0,0.0,-0.011101999999999999,0.004392,0.995032,-0.6300000000000001,0.49000000000000005,-0.07,28.71875,3.33,3.33,3.33,3.3,3.33,3.33,3.33,3.32,3.34,3.35,3.35,3.33,3.33,3.33,3.33,3.33,3.33,3.33,3.32,3.32,3.35,3.35,3.34,3.34,3.35,3.29,44.0,1.0,0.0,1.0,1.0,575962,0.0,79.96999999999997,13.702138939407739
1765219081005,0.0,0.0,2.0,25.0,0.0,0.0,0.0,0.0,0.0,0.0,0.0,0.0,0.0,0.0,0.0,0.0,-0.011101999999999999,0.004392,0.995032,-0.6300000000000001,0.49000000000000005,-0.07,28.71875,3.33,3.33,3.33,3.3,3.33,3.33,3.33,3.32,3.34,3.35,3.35,3.33,3.33,3.33,3.33,3.33,3.33,3.33,3.33,3.33,3.35,3.35,3.34,3.34,3.35,3.29,44.0,1.0,0.0,1.0,1.0,575979,0.0,79.98999999999998,13.702138939407739
1765219081022,0.0,0.0,2.0,25.0,0.0,0.0,0.0,0.0,0.0,0.0,0.0,0.0,0.0,0.0,0.0,0.0,-0.011101999999999999,0.004392,0.995032,-0.6300000000000001,0.49000000000000005,-0.07,28.71875,3.33,3.33,3.33,3.3,3.33,3.33,3.33,3.32,3.34,3.35,3.35,3.33,3.33,3.33,3.33,3.33,3.33,3.33,3.33,3.33,3.34,3.34,3.34,3.34,3.35,3.29,44.0,1.0,0.0,1.0,1.0,575996,0.0,79.97,13.702138939407739
1765219081039,0.0,0.0,2.0,25.0,0.0,0.0,0.0,0.0,0.0,0.0,0.0,0.0,0.0,0.0,0.0,0.0,-0.011101999999999999,0.004392,0.995032,-0.6300000000000001,0.49000000000000005,-0.07,28.71875,3.33,3.33,3.33,3.3,3.33,3.33,3.33,3.32,3.34,3.35,3.35,3.33,3.33,3.33,3.33,3.33,3.33,3.33,3.33,3.33,3.34,3.34,3.34,3.34,3.35,3.29,44.0,1.0,0.0,1.0,1.0,576013,0.0,79.97,13.702138939407739
1765219081055,0.0,0.0,2.0,25.0,0.0,0.0,0.0,0.0,0.0,0.0,0.0,0.0,0.0,0.0,0.0,0.0,-0.011101999999999999,0.004392,0.995032,-0.6300000000000001,0.49000000000000005,-0.07,28.71875,3.33,3.33,3.33,3.3,3.33,3.33,3.33,3.32,3.34,3.35,3.35,3.33,3.33,3.33,3.33,3.33,3.33,3.33,3.33,3.33,3.34,3.34,3.34,3.34,3.35,3.29,44.0,1.0,0.0,1.0,1.0,576029,0.0,79.97,13.702138939407739
1765219081072,0.0,0.0,2.0,25.0,0.0,0.0,0.0,0.0,0.0,0.0,0.0,0.0,0.0,0.0,0.0,0.0,-0.011101999999999999,0.004392,0.995032,-0.6300000000000001,0.49000000000000005,-0.07,28.71875,3.33,3.33,3.33,3.3,3.33,3.33,3.33,3.32,3.34,3.35,3.35,3.33,3.33,3.33,3.33,3.33,3.33,3.33,3.33,3.33,3.34,3.34,3.34,3.34,3.35,3.29,44.0,1.0,0.0,1.0,1.0,576046,0.0,79.97,13.702138939407739
1765219081089,0.0,0.0,2.0,25.0,0.0,0.0,0.0,0.0,0.0,0.0,0.0,0.0,0.0,0.0,0.0,0.0,-0.011101999999999999,0.004392,0.995032,-0.6300000000000001,0.49000000000000005,-0.07,28.71875,3.33,3.33,3.33,3.3,3.33,3.33,3.33,3.32,3.34,3.35,3.35,3.33,3.33,3.33,3.33,3.33,3.33,3.33,3.33,3.33,3.34,3.34,3.34,3.34,3.35,3.29,44.0,1.0,0.0,1.0,1.0,576063,0.0,79.97,13.702138939407739
1765219081122,0.0,0.0,2.0,25.0,0.0,0.0,0.0,0.0,0.0,0.0,0.0,0.0,0.0,0.0,0.0,0.0,-0.011101999999999999,0.004392,0.995032,-0.6300000000000001,0.49000000000000005,-0.07,28.71875,3.33,3.33,3.33,3.3,3.33,3.33,3.33,3.32,3.34,3.35,3.35,3.33,3.33,3.33,3.33,3.33,3.33,3.33,3.33,3.33,3.34,3.34,3.34,3.34,3.35,3.29,44.0,1.0,0.0,1.0,1.0,576096,0.0,79.97,13.702138939407739
1765219081155,0.0,0.0,2.0,25.0,0.0,0.0,0.0,0.0,0.0,0.0,0.0,0.0,0.0,0.0,0.0,0.0,-0.011101999999999999,0.004392,0.995032,-0.6300000000000001,0.49000000000000005,-0.07,28.71875,3.33,3.33,3.33,3.3,3.33,3.33,3.33,3.32,3.34,3.35,3.35,3.33,3.33,3.33,3.33,3.33,3.33,3.33,3.33,3.33,3.34,3.34,3.34,3.34,3.35,3.29,44.0,1.0,0.0,1.0,1.0,576129,0.0,79.97,13.702138939407739
1765219081172,0.0,0.0,2.0,25.0,0.0,0.0,0.0,0.0,0.0,0.0,0.0,0.0,0.0,0.0,0.0,0.0,-0.009637999999999999,0.005856,0.9928359999999999,-0.6300000000000001,0.49000000000000005,-0.07,28.71875,3.33,3.33,3.33,3.3,3.33,3.33,3.33,3.32,3.34,3.35,3.35,3.33,3.33,3.33,3.33,3.33,3.33,3.33,3.33,3.33,3.34,3.34,3.34,3.34,3.35,3.29,44.0,1.0,0.0,1.0,1.0,576146,0.0,79.97,13.702138939407739
1765219081239,0.0,0.0,2.0,25.0,0.0,0.0,0.0,0.0,0.0,0.0,0.0,0.0,0.0,0.0,0.0,0.0,-0.009637999999999999,0.005856,0.9928359999999999,-0.77,0.49000000000000005,0.0,28.71875,3.33,3.33,3.33,3.3,3.33,3.33,3.33,3.32,3.34,3.35,3.35,3.33,3.33,3.33,3.33,3.33,3.33,3.33,3.33,3.33,3.34,3.34,3.34,3.34,3.35,3.29,44.0,1.0,0.0,1.0,1.0,576213,0.0,79.97,13.702138939407739
1765219081256,0.0,0.0,2.0,25.0,0.0,0.0,0.0,0.0,0.0,0.0,0.0,0.0,0.0,0.0,0.0,0.0,-0.009637999999999999,0.005856,0.9928359999999999,-0.77,0.49000000000000005,0.0,28.703125,3.33,3.33,3.33,3.3,3.33,3.33,3.33,3.32,3.34,3.35,3.35,3.33,3.33,3.33,3.33,3.33,3.33,3.33,3.33,3.33,3.34,3.34,3.34,3.34,3.35,3.29,44.0,1.0,0.0,1.0,1.0,576230,0.0,79.97,13.702138939407739
1765219081288,0.0,0.0,2.0,25.0,0.0,0.0,0.0,0.0,0.0,0.0,0.0,0.0,0.0,0.0,0.0,0.0,-0.012444,0.0046359999999999995,0.992714,-0.77,0.49000000000000005,0.0,28.703125,3.33,3.33,3.33,3.3,3.33,3.33,3.33,3.32,3.34,3.35,3.35,3.33,3.33,3.33,3.33,3.33,3.33,3.33,3.33,3.33,3.34,3.34,3.34,3.34,3.35,3.29,44.0,1.0,0.0,1.0,1.0,576262,0.0,79.97,13.702138939407739
1765219081306,0.0,0.0,2.0,25.0,0.0,0.0,0.0,0.0,0.0,0.0,0.0,0.0,0.0,0.0,0.0,0.0,-0.012444,0.0046359999999999995,0.992714,-0.6300000000000001,0.49000000000000005,0.0,28.703125,3.33,3.33,3.33,3.3,3.33,3.33,3.33,3.32,3.34,3.35,3.35,3.33,3.33,3.33,3.33,3.33,3.33,3.33,3.33,3.33,3.34,3.34,3.34,3.34,3.35,3.29,44.0,1.0,0.0,1.0,1.0,576280,0.0,79.97,13.702138939407739
1765219081322,0.0,0.0,2.0,25.0,0.0,0.0,0.0,0.0,0.0,0.0,0.0,0.0,0.0,0.0,0.0,0.0,-0.012444,0.0046359999999999995,0.992714,-0.6300000000000001,0.49000000000000005,0.0,28.703125,3.33,3.33,3.33,3.3,3.33,3.33,3.33,3.32,3.34,3.35,3.35,3.33,3.33,3.33,3.33,3.33,3.33,3.33,3.33,3.33,3.34,3.34,3.34,3.34,3.35,3.29,44.0,1.0,0.0,1.0,1.0,576296,0.0,79.97,13.702138939407739
1765219081337,0.0,0.0,2.0,25.0,0.0,0.0,0.0,0.0,0.0,0.0,0.0,0.0,0.0,0.0,0.0,0.0,-0.012444,0.0046359999999999995,0.992714,-0.6300000000000001,0.49000000000000005,0.0,28.703125,3.33,3.33,3.33,3.3,3.33,3.33,3.33,3.32,3.34,3.35,3.35,3.33,3.33,3.33,3.33,3.33,3.33,3.33,3.33,3.33,3.34,3.34,3.34,3.34,3.35,3.29,44.0,1.0,0.0,1.0,1.0,576311,0.0,79.97,13.702138939407739
1765219081355,0.0,0.0,2.0,25.0,0.0,0.0,0.0,0.0,0.0,0.0,0.0,0.0,0.0,0.0,0.0,0.0,-0.012444,0.0046359999999999995,0.992714,-0.6300000000000001,0.49000000000000005,0.0,28.71875,3.33,3.33,3.33,3.3,3.33,3.33,3.33,3.32,3.34,3.35,3.35,3.33,3.33,3.33,3.33,3.33,3.33,3.33,3.33,3.33,3.34,3.34,3.34,3.34,3.35,3.29,44.0,1.0,0.0,1.0,1.0,576329,0.0,79.97,13.702138939407739
1765219081372,0.0,0.0,2.0,25.0,0.0,0.0,0.0,0.0,0.0,0.0,0.0,0.0,0.0,0.0,0.0,0.0,-0.012444,0.0046359999999999995,0.992714,-0.6300000000000001,0.49000000000000005,0.0,28.71875,3.33,3.33,3.33,3.3,3.33,3.33,3.33,3.32,3.34,3.35,3.35,3.33,3.33,3.33,3.33,3.33,3.33,3.33,3.33,3.33,3.34,3.34,3.34,3.34,3.35,3.29,44.0,1.0,0.0,1.0,1.0,576346,0.0,79.97,13.702138939407739
1765219081406,0.0,0.0,2.0,25.0,0.0,0.0,0.0,0.0,0.0,0.0,0.0,0.0,0.0,0.0,0.0,0.0,-0.012444,0.0046359999999999995,0.992714,-0.6300000000000001,0.49000000000000005,0.0,28.71875,3.33,3.33,3.33,3.3,3.33,3.33,3.33,3.32,3.34,3.35,3.35,3.33,3.33,3.33,3.33,3.33,3.33,3.33,3.33,3.33,3.34,3.34,3.34,3.34,3.35,3.29,44.0,1.0,0.0,1.0,1.0,576380,0.0,79.97,13.702138939407739
1765219081455,0.0,0.0,2.0,25.0,0.0,0.0,0.0,0.0,0.0,0.0,0.0,0.0,0.0,0.0,0.0,0.0,-0.012444,0.0046359999999999995,0.992714,-0.6300000000000001,0.49000000000000005,0.0,28.71875,3.33,3.33,3.33,3.3,3.33,3.33,3.33,3.32,3.34,3.35,3.35,3.33,3.33,3.33,3.33,3.33,3.33,3.33,3.33,3.33,3.34,3.34,3.34,3.34,3.35,3.29,44.0,1.0,0.0,1.0,1.0,576429,0.0,79.97,13.702138939407739
1765219081505,0.0,0.0,2.0,25.0,0.0,0.0,0.0,0.0,0.0,0.0,0.0,0.0,0.0,0.0,0.0,0.0,-0.012444,0.0046359999999999995,0.992714,-0.6300000000000001,0.49000000000000005,0.0,28.71875,3.33,3.33,3.33,3.3,3.33,3.33,3.33,3.32,3.34,3.35,3.35,3.33,3.33,3.33,3.33,3.33,3.33,3.33,3.33,3.33,3.34,3.34,3.34,3.34,3.35,3.29,44.0,1.0,0.0,1.0,1.0,576479,0.0,79.97,13.702138939407739
1765219081521,0.0,0.0,2.0,25.0,0.0,0.0,0.0,0.0,0.0,0.0,0.0,0.0,0.0,0.0,0.0,0.0,-0.012444,0.0046359999999999995,0.992714,-0.6300000000000001,0.49000000000000005,0.0,28.74609375,3.33,3.33,3.33,3.3,3.33,3.33,3.33,3.32,3.34,3.35,3.35,3.33,3.33,3.33,3.33,3.33,3.33,3.33,3.33,3.33,3.34,3.34,3.34,3.34,3.35,3.29,44.0,1.0,0.0,1.0,1.0,576495,0.0,79.97,13.702138939407739
1765219081571,0.0,0.0,2.0,25.0,0.0,0.0,0.0,0.0,0.0,0.0,0.0,0.0,0.0,0.0,0.0,0.0,-0.012444,0.0046359999999999995,0.992714,-0.6300000000000001,0.49000000000000005,0.0,28.74609375,3.33,3.33,3.33,3.3,3.33,3.33,3.33,3.32,3.34,3.35,3.35,3.33,3.33,3.33,3.33,3.33,3.33,3.33,3.33,3.33,3.34,3.34,3.34,3.34,3.35,3.29,44.0,1.0,0.0,1.0,1.0,576545,0.0,79.97,13.702138939407739
1765219081637,0.0,0.0,2.0,25.0,0.0,0.0,0.0,0.0,0.0,0.0,0.0,0.0,0.0,0.0,0.0,0.0,-0.012931999999999999,0.0053679999999999995,0.9928359999999999,-0.6300000000000001,0.49000000000000005,0.0,28.74609375,3.33,3.33,3.33,3.3,3.33,3.33,3.33,3.32,3.34,3.35,3.35,3.33,3.33,3.33,3.33,3.33,3.33,3.33,3.33,3.33,3.34,3.34,3.34,3.34,3.35,3.29,44.0,1.0,0.0,1.0,1.0,576611,0.0,79.97,13.702138939407739
1765219081656,0.0,0.0,2.0,25.0,0.0,0.0,0.0,0.0,0.0,0.0,0.0,0.0,0.0,0.0,0.0,0.0,-0.012931999999999999,0.0053679999999999995,0.9928359999999999,-0.6300000000000001,0.42000000000000004,-0.07,28.74609375,3.33,3.33,3.33,3.3,3.33,3.33,3.33,3.32,3.34,3.35,3.35,3.33,3.33,3.33,3.33,3.33,3.33,3.33,3.33,3.33,3.34,3.34,3.34,3.34,3.35,3.29,44.0,1.0,0.0,1.0,1.0,576630,0.0,79.97,13.702138939407739
1765219081704,0.0,0.0,2.0,25.0,0.0,0.0,0.0,0.0,0.0,0.0,0.0,0.0,0.0,0.0,0.0,0.0,-0.012931999999999999,0.0053679999999999995,0.9928359999999999,-0.6300000000000001,0.42000000000000004,-0.07,28.74609375,3.33,3.33,3.33,3.3,3.33,3.33,3.33,3.32,3.34,3.35,3.35,3.33,3.33,3.33,3.33,3.33,3.33,3.33,3.33,3.33,3.34,3.34,3.34,3.34,3.35,3.29,44.0,1.0,0.0,1.0,1.0,576678,0.0,79.97,13.702138939407739
1765219081754,0.0,0.0,2.0,25.0,0.0,0.0,0.0,0.0,0.0,0.0,0.0,0.0,0.0,0.0,0.0,0.0,-0.012931999999999999,0.0053679999999999995,0.9928359999999999,-0.6300000000000001,0.42000000000000004,-0.07,28.74609375,3.33,3.33,3.33,3.3,3.33,3.33,3.33,3.32,3.34,3.35,3.35,3.33,3.33,3.33,3.33,3.33,3.33,3.33,3.33,3.33,3.34,3.34,3.34,3.34,3.35,3.29,44.0,1.0,0.0,1.0,1.0,576728,0.0,79.97,13.702138939407739
1765219081805,0.0,0.0,2.0,25.0,0.0,0.0,0.0,0.0,0.0,0.0,0.0,0.0,0.0,0.0,0.0,0.0,-0.012931999999999999,0.0053679999999999995,0.9928359999999999,-0.6300000000000001,0.42000000000000004,-0.07,28.74609375,3.33,3.33,3.33,3.3,3.33,3.33,3.33,3.32,3.34,3.35,3.35,3.33,3.33,3.33,3.33,3.33,3.33,3.33,3.33,3.33,3.34,3.34,3.34,3.34,3.35,3.29,44.0,1.0,0.0,1.0,1.0,576779,0.0,79.97,13.702138939407739
1765219081822,0.0,0.0,2.0,25.0,0.0,0.0,0.0,0.0,0.0,0.0,0.0,0.0,0.0,0.0,0.0,0.0,-0.012931999999999999,0.0053679999999999995,0.9928359999999999,-0.6300000000000001,0.42000000000000004,-0.07,28.74609375,3.33,3.33,3.33,3.3,3.33,3.33,3.33,3.32,3.34,3.35,3.35,3.33,3.33,3.33,3.33,3.33,3.33,3.33,3.33,3.33,3.34,3.34,3.34,3.34,3.35,3.29,44.0,1.0,0.0,1.0,1.0,576796,0.0,79.97,13.702138939407739
1765219081855,0.0,0.0,2.0,25.0,0.0,0.0,0.0,0.0,0.0,0.0,0.0,0.0,0.0,0.0,0.0,0.0,-0.012931999999999999,0.0053679999999999995,0.9928359999999999,-0.7000000000000001,0.35000000000000003,-0.07,28.74609375,3.33,3.33,3.33,3.3,3.33,3.33,3.33,3.32,3.34,3.35,3.35,3.33,3.33,3.33,3.33,3.33,3.33,3.33,3.33,3.33,3.34,3.34,3.34,3.34,3.35,3.29,44.0,1.0,0.0,1.0,1.0,576829,0.0,79.97,13.702138939407739
1765219081873,0.0,0.0,2.0,25.0,0.0,0.0,0.0,0.0,0.0,0.0,0.0,0.0,0.0,0.0,0.0,0.0,-0.012931999999999999,0.0053679999999999995,0.9928359999999999,-0.7000000000000001,0.35000000000000003,-0.07,28.74609375,3.33,3.33,3.33,3.3,3.33,3.33,3.33,3.32,3.34,3.35,3.35,3.33,3.33,3.33,3.33,3.33,3.33,3.33,3.33,3.33,3.34,3.34,3.34,3.34,3.35,3.29,44.0,1.0,0.0,1.0,1.0,576847,0.0,79.97,13.702138939407739
1765219081904,0.0,0.0,2.0,25.0,0.0,0.0,0.0,0.0,0.0,0.0,0.0,0.0,0.0,0.0,0.0,0.0,-0.012931999999999999,0.0053679999999999995,0.9928359999999999,-0.7000000000000001,0.35000000000000003,-0.07,28.72265625,3.33,3.33,3.33,3.3,3.33,3.33,3.33,3.32,3.34,3.35,3.35,3.33,3.33,3.33,3.33,3.33,3.33,3.33,3.33,3.33,3.34,3.34,3.34,3.34,3.35,3.29,44.0,1.0,0.0,1.0,1.0,576878,0.0,79.97,13.702138939407739
1765219081972,0.0,0.0,2.0,25.0,0.0,0.0,0.0,0.0,0.0,0.0,0.0,0.0,0.0,0.0,0.0,0.0,-0.012444,0.0034159999999999998,0.9946659999999999,-0.7000000000000001,0.35000000000000003,-0.07,28.72265625,3.33,3.33,3.33,3.3,3.33,3.33,3.33,3.32,3.34,3.35,3.35,3.33,3.33,3.33,3.33,3.33,3.33,3.33,3.33,3.33,3.34,3.34,3.34,3.34,3.35,3.29,44.0,1.0,0.0,1.0,1.0,576946,0.0,79.97,13.702138939407739
1765219081989,0.0,0.0,2.0,25.0,0.0,0.0,0.0,0.0,0.0,0.0,0.0,0.0,0.0,0.0,0.0,0.0,-0.012444,0.0034159999999999998,0.9946659999999999,-0.77,0.49000000000000005,-0.07,28.72265625,3.33,3.33,3.33,3.3,3.33,3.33,3.33,3.32,3.34,3.35,3.35,3.33,3.33,3.33,3.33,3.33,3.33,3.33,3.33,3.33,3.34,3.34,3.34,3.34,3.35,3.29,44.0,1.0,0.0,1.0,1.0,576963,0.0,79.97,13.702138939407739
1765219082005,0.0,0.0,2.0,25.0,0.0,0.0,0.0,0.0,0.0,0.0,0.0,0.0,0.0,0.0,0.0,0.0,-0.012444,0.0034159999999999998,0.9946659999999999,-0.77,0.49000000000000005,-0.07,28.70703125,3.33,3.33,3.33,3.3,3.33,3.33,3.33,3.32,3.34,3.35,3.35,3.33,3.33,3.33,3.33,3.33,3.33,3.33,3.33,3.33,3.34,3.34,3.34,3.34,3.35,3.29,44.0,1.0,0.0,1.0,1.0,576979,0.0,79.97,13.702138939407739
1765219082038,0.0,0.0,2.0,25.0,0.0,0.0,0.0,0.0,0.0,0.0,0.0,0.0,0.0,0.0,0.0,0.0,-0.012444,0.0034159999999999998,0.9946659999999999,-0.77,0.49000000000000005,-0.07,28.70703125,3.33,3.33,3.33,3.3,3.33,3.33,3.33,3.32,3.34,3.35,3.35,3.33,3.33,3.33,3.33,3.33,3.33,3.33,3.33,3.33,3.34,3.34,3.34,3.34,3.35,3.29,44.0,1.0,0.0,1.0,1.0,577012,0.0,79.97,13.702138939407739
1765219082054,0.0,0.0,2.0,25.0,0.0,0.0,0.0,0.0,0.0,0.0,0.0,0.0,0.0,0.0,0.0,0.0,-0.012444,0.0034159999999999998,0.9946659999999999,-0.77,0.49000000000000005,-0.07,28.70703125,3.33,3.33,3.33,3.3,3.33,3.33,3.33,3.32,3.34,3.35,3.35,3.33,3.33,3.33,3.33,3.33,3.33,3.33,3.33,3.33,3.34,3.34,3.34,3.34,3.35,3.29,44.0,1.0,0.0,1.0,1.0,577028,0.0,79.97,13.702138939407739
1765219082072,0.0,0.0,2.0,25.0,0.0,0.0,0.0,0.0,0.0,0.0,0.0,0.0,0.0,0.0,0.0,0.0,-0.012444,0.0034159999999999998,0.9946659999999999,-0.77,0.49000000000000005,-0.07,28.70703125,3.33,3.33,3.33,3.3,3.33,3.33,3.33,3.32,3.34,3.35,3.35,3.33,3.33,3.33,3.33,3.33,3.33,3.33,3.33,3.33,3.34,3.34,3.34,3.34,3.35,3.29,44.0,1.0,0.0,1.0,1.0,577046,0.0,79.97,13.702138939407739
1765219082104,0.0,0.0,2.0,25.0,0.0,0.0,0.0,0.0,0.0,0.0,0.0,0.0,0.0,0.0,0.0,0.0,-0.012444,0.0034159999999999998,0.9946659999999999,-0.77,0.49000000000000005,-0.07,28.70703125,3.33,3.33,3.33,3.3,3.33,3.33,3.33,3.32,3.34,3.35,3.35,3.33,3.33,3.33,3.33,3.33,3.33,3.33,3.33,3.33,3.34,3.34,3.34,3.34,3.35,3.29,44.0,1.0,0.0,1.0,1.0,577078,0.0,79.97,13.702138939407739
1765219082138,0.0,0.0,2.0,25.0,0.0,0.0,0.0,0.0,0.0,0.0,0.0,0.0,0.0,0.0,0.0,0.0,-0.011101999999999999,0.0053679999999999995,0.995764,-0.77,0.49000000000000005,-0.07,28.70703125,3.33,3.33,3.33,3.3,3.33,3.33,3.33,3.32,3.34,3.35,3.35,3.33,3.33,3.33,3.33,3.33,3.33,3.33,3.33,3.33,3.34,3.34,3.34,3.34,3.35,3.29,44.0,1.0,0.0,1.0,1.0,577112,0.0,79.97,13.702138939407739
1765219082153,0.0,0.0,2.0,25.0,0.0,0.0,0.0,0.0,0.0,0.0,0.0,0.0,0.0,0.0,0.0,0.0,-0.011101999999999999,0.0053679999999999995,0.995764,-0.77,0.49000000000000005,-0.07,28.70703125,3.33,3.33,3.33,3.3,3.33,3.33,3.33,3.32,3.34,3.35,3.35,3.33,3.33,3.33,3.33,3.33,3.33,3.33,3.33,3.33,3.34,3.34,3.34,3.34,3.35,3.29,44.0,1.0,0.0,1.0,1.0,577127,0.0,79.97,13.702138939407739
1765219082171,0.0,0.0,2.0,25.0,0.0,0.0,0.0,0.0,0.0,0.0,0.0,0.0,0.0,0.0,0.0,0.0,-0.011101999999999999,0.0053679999999999995,0.995764,-0.77,0.49000000000000005,-0.07,28.70703125,3.33,3.33,3.33,3.3,3.33,3.33,3.33,3.32,3.34,3.35,3.35,3.33,3.33,3.33,3.33,3.33,3.33,3.33,3.33,3.33,3.34,3.34,3.34,3.34,3.35,3.29,44.0,1.0,0.0,1.0,1.0,577145,0.0,79.97,13.702138939407739
1765219082186,0.0,0.0,2.0,25.0,0.0,0.0,0.0,0.0,0.0,0.0,0.0,0.0,0.0,0.0,0.0,0.0,-0.011101999999999999,0.0053679999999999995,0.995764,-0.77,0.49000000000000005,-0.07,28.70703125,3.33,3.33,3.33,3.3,3.33,3.33,3.33,3.32,3.34,3.35,3.35,3.33,3.33,3.33,3.33,3.33,3.33,3.33,3.33,3.33,3.34,3.34,3.34,3.34,3.35,3.29,44.0,1.0,0.0,1.0,1.0,577160,0.0,79.97,13.702138939407739
1765219082205,0.0,0.0,2.0,25.0,0.0,0.0,0.0,0.0,0.0,0.0,0.0,0.0,0.0,0.0,0.0,0.0,-0.011101999999999999,0.0053679999999999995,0.995764,-0.77,0.49000000000000005,-0.07,28.70703125,3.33,3.33,3.33,3.3,3.33,3.33,3.33,3.32,3.34,3.35,3.35,3.33,3.33,3.33,3.33,3.33,3.33,3.33,3.33,3.33,3.34,3.34,3.34,3.34,3.35,3.29,44.0,1.0,0.0,1.0,1.0,577179,0.0,79.97,13.702138939407739
1765219082223,0.0,0.0,2.0,25.0,0.0,0.0,0.0,0.0,0.0,0.0,0.0,0.0,0.0,0.0,0.0,0.0,-0.011101999999999999,0.0053679999999999995,0.995764,-0.77,0.49000000000000005,-0.07,28.70703125,3.33,3.33,3.33,3.3,3.33,3.33,3.33,3.32,3.34,3.35,3.35,3.33,3.33,3.33,3.33,3.33,3.33,3.33,3.33,3.33,3.34,3.34,3.34,3.34,3.35,3.29,44.0,1.0,0.0,1.0,1.0,577197,0.0,79.97,13.702138939407739
1765219082272,0.0,0.0,2.0,25.0,0.0,0.0,0.0,0.0,0.0,0.0,0.0,0.0,0.0,0.0,0.0,0.0,-0.011101999999999999,0.0053679999999999995,0.995764,-0.77,0.49000000000000005,-0.07,28.70703125,3.33,3.33,3.33,3.3,3.33,3.33,3.33,3.32,3.34,3.35,3.35,3.33,3.33,3.33,3.33,3.33,3.33,3.33,3.33,3.33,3.34,3.34,3.34,3.34,3.35,3.29,44.0,1.0,0.0,1.0,1.0,577246,0.0,79.97,13.702138939407739
1765219082305,0.0,0.0,2.0,25.0,0.0,0.0,0.0,0.0,0.0,0.0,0.0,0.0,0.0,0.0,0.0,0.0,-0.009637999999999999,0.0046359999999999995,0.99186,-0.77,0.49000000000000005,-0.07,28.70703125,3.33,3.33,3.33,3.3,3.33,3.33,3.33,3.32,3.34,3.35,3.35,3.33,3.33,3.33,3.33,3.33,3.33,3.33,3.33,3.33,3.34,3.34,3.34,3.34,3.35,3.29,44.0,1.0,0.0,1.0,1.0,577279,0.0,79.97,13.702138939407739
1765219082353,0.0,0.0,2.0,25.0,0.0,0.0,0.0,0.0,0.0,0.0,0.0,0.0,0.0,0.0,0.0,0.0,-0.009637999999999999,0.0046359999999999995,0.99186,-0.6300000000000001,0.49000000000000005,-0.07,28.70703125,3.33,3.33,3.33,3.3,3.33,3.33,3.33,3.32,3.34,3.35,3.35,3.33,3.33,3.33,3.33,3.33,3.33,3.33,3.33,3.33,3.34,3.34,3.34,3.34,3.35,3.29,44.0,1.0,0.0,1.0,1.0,577327,0.0,79.97,13.702138939407739
1765219082370,0.0,0.0,2.0,25.0,0.0,0.0,0.0,0.0,0.0,0.0,0.0,0.0,0.0,0.0,0.0,0.0,-0.009637999999999999,0.0046359999999999995,0.99186,-0.6300000000000001,0.49000000000000005,-0.07,28.70703125,3.33,3.33,3.33,3.3,3.33,3.33,3.33,3.32,3.34,3.35,3.35,3.33,3.33,3.33,3.33,3.33,3.33,3.33,3.33,3.33,3.34,3.34,3.34,3.34,3.35,3.29,44.0,1.0,0.0,1.0,1.0,577344,0.0,79.97,13.702138939407739
1765219082388,0.0,0.0,2.0,25.0,0.0,0.0,0.0,0.0,0.0,0.0,0.0,0.0,0.0,0.0,0.0,0.0,-0.010735999999999999,0.004148,0.993812,-0.6300000000000001,0.49000000000000005,-0.07,28.70703125,3.33,3.33,3.33,3.3,3.33,3.33,3.33,3.32,3.34,3.35,3.35,3.33,3.33,3.33,3.33,3.33,3.33,3.33,3.33,3.33,3.34,3.34,3.34,3.34,3.35,3.29,44.0,1.0,0.0,1.0,1.0,577362,0.0,79.97,13.702138939407739
1765219082421,0.0,0.0,2.0,25.0,0.0,0.0,0.0,0.0,0.0,0.0,0.0,0.0,0.0,0.0,0.0,0.0,-0.010735999999999999,0.004148,0.993812,-0.6300000000000001,0.49000000000000005,-0.07,28.70703125,3.33,3.33,3.33,3.3,3.33,3.33,3.33,3.32,3.34,3.35,3.35,3.33,3.33,3.33,3.33,3.33,3.33,3.33,3.33,3.33,3.34,3.34,3.34,3.34,3.35,3.29,44.0,1.0,0.0,1.0,1.0,577395,0.0,79.97,13.702138939407739
1765219082439,0.0,0.0,2.0,25.0,0.0,0.0,0.0,0.0,0.0,0.0,0.0,0.0,0.0,0.0,0.0,0.0,-0.010735999999999999,0.004148,0.993812,-0.6300000000000001,0.42000000000000004,-0.07,28.70703125,3.33,3.33,3.33,3.3,3.33,3.33,3.33,3.32,3.34,3.35,3.35,3.33,3.33,3.33,3.33,3.33,3.33,3.33,3.33,3.33,3.34,3.34,3.34,3.34,3.35,3.29,44.0,1.0,0.0,1.0,1.0,577413,0.0,79.97,13.702138939407739
1765219082455,0.0,0.0,2.0,25.0,0.0,0.0,0.0,0.0,0.0,0.0,0.0,0.0,0.0,0.0,0.0,0.0,-0.010735999999999999,0.004148,0.993812,-0.6300000000000001,0.42000000000000004,-0.07,28.70703125,3.33,3.33,3.33,3.3,3.33,3.33,3.33,3.32,3.34,3.35,3.35,3.33,3.33,3.33,3.33,3.33,3.33,3.33,3.33,3.33,3.34,3.34,3.34,3.34,3.35,3.29,44.0,1.0,0.0,1.0,1.0,577429,0.0,79.97,13.702138939407739
1765219082487,0.0,0.0,2.0,25.0,0.0,0.0,0.0,0.0,0.0,0.0,0.0,0.0,0.0,0.0,0.0,0.0,-0.010735999999999999,0.004148,0.993812,-0.6300000000000001,0.42000000000000004,-0.07,28.70703125,3.33,3.33,3.33,3.3,3.33,3.33,3.33,3.32,3.34,3.35,3.35,3.33,3.33,3.33,3.33,3.33,3.33,3.33,3.33,3.33,3.34,3.34,3.34,3.34,3.35,3.29,44.0,1.0,0.0,1.0,1.0,577461,0.0,79.97,13.702138939407739
1765219082504,0.0,0.0,2.0,25.0,0.0,0.0,0.0,0.0,0.0,0.0,0.0,0.0,0.0,0.0,0.0,0.0,-0.010735999999999999,0.004148,0.993812,-0.6300000000000001,0.42000000000000004,-0.07,28.69140625,3.33,3.33,3.33,3.3,3.33,3.33,3.33,3.32,3.34,3.35,3.35,3.33,3.33,3.33,3.33,3.33,3.33,3.33,3.33,3.33,3.34,3.34,3.34,3.34,3.35,3.29,44.0,1.0,0.0,1.0,1.0,577478,0.0,79.97,13.702138939407739
1765219082522,0.0,0.0,2.0,25.0,0.0,0.0,0.0,0.0,0.0,0.0,0.0,0.0,0.0,0.0,0.0,0.0,-0.010735999999999999,0.004148,0.993812,-0.6300000000000001,0.42000000000000004,-0.07,28.69140625,3.33,3.33,3.33,3.29,3.33,3.33,3.33,3.32,3.34,3.35,3.35,3.33,3.33,3.33,3.33,3.33,3.33,3.33,3.33,3.33,3.34,3.34,3.34,3.34,3.35,3.29,44.0,1.0,0.0,1.0,1.0,577496,0.0,79.96,13.702138939407739
1765219082555,0.0,0.0,2.0,25.0,0.0,0.0,0.0,0.0,0.0,0.0,0.0,0.0,0.0,0.0,0.0,0.0,-0.010735999999999999,0.004148,0.993812,-0.6300000000000001,0.42000000000000004,-0.07,28.69140625,3.33,3.33,3.33,3.29,3.33,3.33,3.33,3.32,3.34,3.35,3.35,3.33,3.33,3.33,3.33,3.33,3.33,3.33,3.33,3.33,3.34,3.34,3.34,3.34,3.35,3.29,44.0,1.0,0.0,1.0,1.0,577529,0.0,79.96,13.702138939407739
1765219082587,0.0,0.0,2.0,25.0,0.0,0.0,0.0,0.0,0.0,0.0,0.0,0.0,0.0,0.0,0.0,0.0,-0.010735999999999999,0.004148,0.993812,-0.6300000000000001,0.42000000000000004,-0.07,28.69140625,3.33,3.33,3.33,3.29,3.33,3.33,3.33,3.32,3.34,3.35,3.35,3.33,3.33,3.33,3.33,3.33,3.33,3.33,3.33,3.33,3.34,3.34,3.34,3.34,3.35,3.29,44.0,1.0,0.0,1.0,1.0,577561,0.0,79.96,13.702138939407739
1765219082605,0.0,0.0,2.0,25.0,0.0,0.0,0.0,0.0,0.0,0.0,0.0,0.0,0.0,0.0,0.0,0.0,-0.010735999999999999,0.004148,0.993812,-0.6300000000000001,0.42000000000000004,-0.07,28.69140625,3.33,3.33,3.33,3.29,3.33,3.33,3.33,3.32,3.34,3.35,3.35,3.33,3.33,3.33,3.33,3.33,3.33,3.33,3.33,3.33,3.34,3.34,3.34,3.34,3.35,3.29,44.0,1.0,0.0,1.0,1.0,577579,0.0,79.96,13.702138939407739
1765219082621,0.0,0.0,2.0,25.0,0.0,0.0,0.0,0.0,0.0,0.0,0.0,0.0,0.0,0.0,0.0,0.0,-0.010735999999999999,0.004148,0.993812,-0.6300000000000001,0.42000000000000004,-0.07,28.69140625,3.33,3.33,3.33,3.29,3.33,3.33,3.33,3.32,3.34,3.35,3.35,3.33,3.33,3.33,3.33,3.33,3.33,3.33,3.33,3.33,3.34,3.34,3.34,3.34,3.35,3.29,44.0,1.0,0.0,1.0,1.0,577595,0.0,79.96,13.702138939407739
1765219082637,0.0,0.0,2.0,25.0,0.0,0.0,0.0,0.0,0.0,0.0,0.0,0.0,0.0,0.0,0.0,0.0,-0.010735999999999999,0.004148,0.993812,-0.6300000000000001,0.42000000000000004,-0.07,28.69140625,3.33,3.33,3.33,3.29,3.33,3.33,3.33,3.32,3.34,3.35,3.35,3.33,3.33,3.33,3.33,3.33,3.33,3.33,3.33,3.33,3.34,3.34,3.34,3.34,3.35,3.29,44.0,1.0,0.0,1.0,1.0,577611,0.0,79.96,13.702138939407739
1765219082654,0.0,0.0,2.0,25.0,0.0,0.0,0.0,0.0,0.0,0.0,0.0,0.0,0.0,0.0,0.0,0.0,-0.010735999999999999,0.004148,0.993812,-0.6300000000000001,0.42000000000000004,-0.07,28.69140625,3.33,3.33,3.33,3.29,3.33,3.33,3.33,3.32,3.34,3.35,3.35,3.33,3.33,3.33,3.33,3.33,3.33,3.33,3.33,3.33,3.34,3.34,3.34,3.34,3.35,3.29,44.0,1.0,0.0,1.0,1.0,577628,0.0,79.96,13.702138939407739
1765219082705,0.0,0.0,2.0,25.0,0.0,0.0,0.0,0.0,0.0,0.0,0.0,0.0,0.0,0.0,0.0,0.0,-0.010492,0.0046359999999999995,0.993324,-0.6300000000000001,0.42000000000000004,-0.07,28.69140625,3.33,3.33,3.33,3.29,3.33,3.33,3.33,3.32,3.34,3.35,3.35,3.33,3.33,3.33,3.33,3.33,3.33,3.33,3.33,3.33,3.34,3.34,3.34,3.34,3.35,3.29,44.0,1.0,0.0,1.0,1.0,577679,0.0,79.96,13.702138939407739
1765219082722,0.0,0.0,2.0,25.0,0.0,0.0,0.0,0.0,0.0,0.0,0.0,0.0,0.0,0.0,0.0,0.0,-0.010492,0.0046359999999999995,0.993324,-0.6300000000000001,0.42000000000000004,0.0,28.69140625,3.33,3.33,3.33,3.29,3.33,3.33,3.33,3.32,3.34,3.35,3.35,3.33,3.33,3.33,3.33,3.33,3.33,3.33,3.33,3.33,3.34,3.34,3.34,3.34,3.35,3.29,44.0,1.0,0.0,1.0,1.0,577696,0.0,79.96,13.702138939407739
1765219082771,0.0,0.0,2.0,25.0,0.0,0.0,0.0,0.0,0.0,0.0,0.0,0.0,0.0,0.0,0.0,0.0,-0.010492,0.0046359999999999995,0.993324,-0.6300000000000001,0.42000000000000004,0.0,28.69140625,3.33,3.33,3.33,3.29,3.33,3.33,3.33,3.32,3.34,3.35,3.35,3.33,3.33,3.33,3.33,3.33,3.33,3.33,3.33,3.33,3.34,3.34,3.34,3.34,3.35,3.29,44.0,1.0,0.0,1.0,1.0,577745,0.0,79.96,13.702138939407739
1765219082788,0.0,0.0,2.0,25.0,0.0,0.0,0.0,0.0,0.0,0.0,0.0,0.0,0.0,0.0,0.0,0.0,-0.010492,0.0046359999999999995,0.993324,-0.6300000000000001,0.42000000000000004,0.0,28.69140625,3.33,3.33,3.33,3.29,3.33,3.33,3.33,3.32,3.34,3.35,3.35,3.33,3.33,3.33,3.33,3.33,3.33,3.33,3.33,3.33,3.34,3.34,3.34,3.34,3.35,3.29,44.0,1.0,0.0,1.0,1.0,577762,0.0,79.96,13.702138939407739
1765219082805,0.0,0.0,2.0,25.0,0.0,0.0,0.0,0.0,0.0,0.0,0.0,0.0,0.0,0.0,0.0,0.0,-0.010492,0.0046359999999999995,0.993324,-0.6300000000000001,0.42000000000000004,0.0,28.69140625,3.33,3.33,3.33,3.29,3.33,3.33,3.33,3.32,3.34,3.35,3.35,3.33,3.33,3.33,3.33,3.33,3.33,3.33,3.33,3.33,3.34,3.34,3.34,3.34,3.35,3.29,44.0,1.0,0.0,1.0,1.0,577779,0.0,79.96,13.702138939407739
1765219082822,0.0,0.0,2.0,25.0,0.0,0.0,0.0,0.0,0.0,0.0,0.0,0.0,0.0,0.0,0.0,0.0,-0.010492,0.0046359999999999995,0.993324,-0.6300000000000001,0.42000000000000004,0.0,28.69140625,3.33,3.33,3.33,3.29,3.33,3.33,3.33,3.32,3.34,3.35,3.35,3.33,3.33,3.33,3.33,3.33,3.33,3.33,3.33,3.33,3.34,3.34,3.34,3.34,3.35,3.29,44.0,1.0,0.0,1.0,1.0,577796,0.0,79.96,13.702138939407739
1765219082838,0.0,0.0,2.0,25.0,0.0,0.0,0.0,0.0,0.0,0.0,0.0,0.0,0.0,0.0,0.0,0.0,-0.011833999999999999,0.0060999999999999995,0.9943,-0.6300000000000001,0.42000000000000004,0.0,28.69140625,3.33,3.33,3.33,3.29,3.33,3.33,3.33,3.32,3.34,3.35,3.35,3.33,3.33,3.33,3.33,3.33,3.33,3.33,3.33,3.33,3.34,3.34,3.34,3.34,3.35,3.29,44.0,1.0,0.0,1.0,1.0,577812,0.0,79.96,13.702138939407739
1765219082856,0.0,0.0,2.0,25.0,0.0,0.0,0.0,0.0,0.0,0.0,0.0,0.0,0.0,0.0,0.0,0.0,-0.011833999999999999,0.0060999999999999995,0.9943,-0.7000000000000001,0.49000000000000005,-0.07,28.69140625,3.33,3.33,3.33,3.29,3.33,3.33,3.33,3.32,3.34,3.35,3.35,3.33,3.33,3.33,3.33,3.33,3.33,3.33,3.33,3.33,3.34,3.34,3.34,3.34,3.35,3.29,44.0,1.0,0.0,1.0,1.0,577830,0.0,79.96,13.702138939407739
1765219082873,0.0,0.0,2.0,25.0,0.0,0.0,0.0,0.0,0.0,0.0,0.0,0.0,0.0,0.0,0.0,0.0,-0.011833999999999999,0.0060999999999999995,0.9943,-0.7000000000000001,0.49000000000000005,-0.07,28.75390625,3.33,3.33,3.33,3.29,3.33,3.33,3.33,3.32,3.34,3.35,3.35,3.33,3.33,3.33,3.33,3.33,3.33,3.33,3.33,3.33,3.34,3.34,3.34,3.34,3.35,3.29,44.0,1.0,0.0,1.0,1.0,577847,0.0,79.96,13.702138939407739
1765219082905,0.0,0.0,2.0,25.0,0.0,0.0,0.0,0.0,0.0,0.0,0.0,0.0,0.0,0.0,0.0,0.0,-0.011833999999999999,0.0060999999999999995,0.9943,-0.7000000000000001,0.49000000000000005,-0.07,28.75390625,3.33,3.33,3.33,3.29,3.33,3.33,3.33,3.32,3.34,3.35,3.35,3.33,3.33,3.33,3.33,3.33,3.33,3.33,3.33,3.33,3.34,3.34,3.34,3.34,3.35,3.29,44.0,1.0,0.0,1.0,1.0,577879,0.0,79.96,13.702138939407739
1765219082921,0.0,0.0,2.0,25.0,0.0,0.0,0.0,0.0,0.0,0.0,0.0,0.0,0.0,0.0,0.0,0.0,-0.011833999999999999,0.0060999999999999995,0.9943,-0.7000000000000001,0.49000000000000005,-0.07,28.75390625,3.33,3.33,3.33,3.29,3.33,3.33,3.33,3.32,3.34,3.35,3.35,3.33,3.33,3.33,3.33,3.33,3.33,3.33,3.33,3.33,3.34,3.34,3.34,3.34,3.35,3.29,44.0,1.0,0.0,1.0,1.0,577895,0.0,79.96,13.702138939407739
1765219082939,0.0,0.0,2.0,25.0,0.0,0.0,0.0,0.0,0.0,0.0,0.0,0.0,0.0,0.0,0.0,0.0,-0.011833999999999999,0.0060999999999999995,0.9943,-0.7000000000000001,0.49000000000000005,-0.07,28.75390625,3.33,3.33,3.33,3.29,3.33,3.33,3.33,3.32,3.34,3.35,3.35,3.33,3.33,3.33,3.33,3.33,3.33,3.33,3.33,3.33,3.34,3.34,3.34,3.34,3.35,3.29,44.0,1.0,0.0,1.0,1.0,577913,0.0,79.96,13.702138939407739
1765219082971,0.0,0.0,2.0,25.0,0.0,0.0,0.0,0.0,0.0,0.0,0.0,0.0,0.0,0.0,0.0,0.0,-0.011833999999999999,0.0060999999999999995,0.9943,-0.7000000000000001,0.49000000000000005,-0.07,28.75390625,3.33,3.33,3.33,3.29,3.33,3.33,3.33,3.32,3.34,3.35,3.35,3.33,3.33,3.33,3.33,3.33,3.33,3.33,3.33,3.33,3.34,3.34,3.34,3.34,3.35,3.29,44.0,1.0,0.0,1.0,1.0,577945,0.0,79.96,13.702138939407739
1765219083022,0.0,0.0,2.0,25.0,0.0,0.0,0.0,0.0,0.0,0.0,0.0,0.0,0.0,0.0,0.0,0.0,-0.011833999999999999,0.0060999999999999995,0.9943,-0.7000000000000001,0.49000000000000005,-0.07,28.75390625,3.33,3.33,3.33,3.29,3.33,3.33,3.33,3.32,3.34,3.35,3.35,3.33,3.33,3.33,3.33,3.33,3.33,3.33,3.33,3.33,3.34,3.34,3.34,3.34,3.35,3.29,44.0,1.0,0.0,1.0,1.0,577996,0.0,79.96,13.702138939407739
1765219083038,0.0,0.0,2.0,25.0,0.0,0.0,0.0,0.0,0.0,0.0,0.0,0.0,0.0,0.0,0.0,0.0,-0.010126,0.004148,0.992592,-0.7000000000000001,0.49000000000000005,-0.07,28.75390625,3.33,3.33,3.33,3.29,3.33,3.33,3.33,3.32,3.34,3.35,3.35,3.33,3.33,3.33,3.33,3.33,3.33,3.33,3.33,3.33,3.34,3.34,3.34,3.34,3.35,3.29,44.0,1.0,0.0,1.0,1.0,578012,0.0,79.96,13.702138939407739
1765219083088,0.0,0.0,2.0,25.0,0.0,0.0,0.0,0.0,0.0,0.0,0.0,0.0,0.0,0.0,0.0,0.0,-0.010126,0.004148,0.992592,-0.7000000000000001,0.56,-0.07,28.75390625,3.33,3.33,3.33,3.29,3.33,3.33,3.33,3.32,3.34,3.35,3.35,3.33,3.33,3.33,3.33,3.33,3.33,3.33,3.33,3.33,3.34,3.34,3.34,3.34,3.35,3.29,44.0,1.0,0.0,1.0,1.0,578062,0.0,79.96,13.702138939407739
1765219083123,0.0,0.0,2.0,25.0,0.0,0.0,0.0,0.0,0.0,0.0,0.0,0.0,0.0,0.0,0.0,0.0,-0.010126,0.004148,0.992592,-0.7000000000000001,0.56,-0.07,28.73046875,3.33,3.33,3.33,3.29,3.33,3.33,3.33,3.32,3.34,3.35,3.35,3.33,3.33,3.33,3.33,3.33,3.33,3.33,3.33,3.33,3.34,3.34,3.34,3.34,3.35,3.29,44.0,1.0,0.0,1.0,1.0,578097,0.0,79.96,13.702138939407739
1765219083138,0.0,0.0,2.0,25.0,0.0,0.0,0.0,0.0,0.0,0.0,0.0,0.0,0.0,0.0,0.0,0.0,-0.012199999999999999,0.004026,0.995398,-0.7000000000000001,0.56,-0.07,28.73046875,3.33,3.33,3.33,3.29,3.33,3.33,3.33,3.32,3.34,3.35,3.35,3.33,3.33,3.33,3.33,3.33,3.33,3.33,3.33,3.33,3.34,3.34,3.34,3.34,3.35,3.29,44.0,1.0,0.0,1.0,1.0,578112,0.0,79.96,13.702138939407739
1765219083172,0.0,0.0,2.0,25.0,0.0,0.0,0.0,0.0,0.0,0.0,0.0,0.0,0.0,0.0,0.0,0.0,-0.012199999999999999,0.004026,0.995398,-0.7000000000000001,0.56,-0.07,28.73046875,3.33,3.33,3.33,3.29,3.33,3.33,3.33,3.32,3.34,3.35,3.35,3.33,3.33,3.33,3.33,3.33,3.33,3.33,3.33,3.33,3.34,3.34,3.34,3.34,3.35,3.29,44.0,1.0,0.0,1.0,1.0,578146,0.0,79.96,13.702138939407739
1765219083187,0.0,0.0,2.0,25.0,0.0,0.0,0.0,0.0,0.0,0.0,0.0,0.0,0.0,0.0,0.0,0.0,-0.012199999999999999,0.004026,0.995398,-0.7000000000000001,0.42000000000000004,-0.07,28.73046875,3.33,3.33,3.33,3.29,3.33,3.33,3.33,3.32,3.34,3.35,3.35,3.33,3.33,3.33,3.33,3.33,3.33,3.33,3.33,3.33,3.34,3.34,3.34,3.34,3.35,3.29,44.0,1.0,0.0,1.0,1.0,578161,0.0,79.96,13.702138939407739
1765219083204,0.0,0.0,2.0,25.0,0.0,0.0,0.0,0.0,0.0,0.0,0.0,0.0,0.0,0.0,0.0,0.0,-0.012199999999999999,0.004026,0.995398,-0.7000000000000001,0.42000000000000004,-0.07,28.73046875,3.33,3.33,3.33,3.29,3.33,3.33,3.33,3.32,3.34,3.35,3.35,3.33,3.33,3.33,3.33,3.33,3.33,3.33,3.33,3.33,3.34,3.34,3.34,3.34,3.35,3.29,44.0,1.0,0.0,1.0,1.0,578178,0.0,79.96,13.702138939407739
1765219083221,0.0,0.0,2.0,25.0,0.0,0.0,0.0,0.0,0.0,0.0,0.0,0.0,0.0,0.0,0.0,0.0,-0.012199999999999999,0.004026,0.995398,-0.7000000000000001,0.42000000000000004,-0.07,28.7265625,3.33,3.33,3.33,3.29,3.33,3.33,3.33,3.32,3.34,3.35,3.35,3.33,3.33,3.33,3.33,3.33,3.33,3.33,3.33,3.33,3.34,3.34,3.34,3.34,3.35,3.29,44.0,1.0,0.0,1.0,1.0,578195,0.0,79.96,13.702138939407739
1765219083254,0.0,0.0,2.0,25.0,0.0,0.0,0.0,0.0,0.0,0.0,0.0,0.0,0.0,0.0,0.0,0.0,-0.012199999999999999,0.004026,0.995398,-0.7000000000000001,0.42000000000000004,-0.07,28.7265625,3.33,3.33,3.33,3.29,3.33,3.33,3.33,3.32,3.34,3.35,3.35,3.33,3.33,3.33,3.33,3.33,3.33,3.33,3.33,3.33,3.34,3.34,3.34,3.34,3.35,3.29,44.0,1.0,0.0,1.0,1.0,578228,0.0,79.96,13.702138939407739
1765219083306,0.0,0.0,2.0,25.0,0.0,0.0,0.0,0.0,0.0,0.0,0.0,0.0,0.0,0.0,0.0,0.0,-0.012199999999999999,0.004026,0.995398,-0.7000000000000001,0.42000000000000004,-0.07,28.7265625,3.33,3.33,3.33,3.29,3.33,3.33,3.33,3.32,3.34,3.35,3.35,3.33,3.33,3.33,3.33,3.33,3.33,3.33,3.33,3.33,3.34,3.34,3.34,3.34,3.35,3.29,44.0,1.0,0.0,1.0,1.0,578280,0.0,79.96,13.702138939407739
1765219083370,0.0,0.0,2.0,25.0,0.0,0.0,0.0,0.0,0.0,0.0,0.0,0.0,0.0,0.0,0.0,0.0,-0.012199999999999999,0.004026,0.995398,-0.7000000000000001,0.42000000000000004,-0.07,28.7265625,3.33,3.33,3.33,3.29,3.33,3.33,3.33,3.32,3.34,3.35,3.35,3.33,3.33,3.33,3.33,3.33,3.33,3.33,3.33,3.33,3.34,3.34,3.34,3.34,3.35,3.29,44.0,1.0,0.0,1.0,1.0,578344,0.0,79.96,13.702138939407739
1765219083405,0.0,0.0,2.0,25.0,0.0,0.0,0.0,0.0,0.0,0.0,0.0,0.0,0.0,0.0,0.0,0.0,-0.012199999999999999,0.004026,0.995398,-0.7000000000000001,0.28,-0.07,28.7265625,3.33,3.33,3.33,3.29,3.33,3.33,3.33,3.32,3.34,3.35,3.35,3.33,3.33,3.33,3.33,3.33,3.33,3.33,3.33,3.33,3.34,3.34,3.34,3.34,3.35,3.29,44.0,1.0,0.0,1.0,1.0,578379,0.0,79.96,13.702138939407739
1765219083438,0.0,0.0,2.0,25.0,0.0,0.0,0.0,0.0,0.0,0.0,0.0,0.0,0.0,0.0,0.0,0.0,-0.012199999999999999,0.004026,0.995398,-0.7000000000000001,0.28,-0.07,28.7265625,3.33,3.33,3.33,3.29,3.33,3.33,3.33,3.32,3.34,3.35,3.35,3.33,3.33,3.33,3.33,3.33,3.33,3.33,3.33,3.33,3.34,3.34,3.34,3.34,3.35,3.29,44.0,1.0,0.0,1.0,1.0,578412,0.0,79.96,13.702138939407739
1765219083472,0.0,0.0,2.0,25.0,0.0,0.0,0.0,0.0,0.0,0.0,0.0,0.0,0.0,0.0,0.0,0.0,-0.012199999999999999,0.004026,0.995398,-0.7000000000000001,0.28,-0.07,28.6640625,3.33,3.33,3.33,3.29,3.33,3.33,3.33,3.32,3.34,3.35,3.35,3.33,3.33,3.33,3.33,3.33,3.33,3.33,3.33,3.33,3.34,3.34,3.34,3.34,3.35,3.29,44.0,1.0,0.0,1.0,1.0,578446,0.0,79.96,13.702138939407739
1765219083521,0.0,0.0,2.0,25.0,0.0,0.0,0.0,0.0,0.0,0.0,0.0,0.0,0.0,0.0,0.0,0.0,-0.010369999999999999,0.0053679999999999995,0.996252,-0.7000000000000001,0.28,-0.07,28.6640625,3.33,3.33,3.33,3.29,3.33,3.33,3.33,3.32,3.34,3.35,3.35,3.33,3.33,3.33,3.33,3.33,3.33,3.33,3.33,3.33,3.34,3.34,3.34,3.34,3.35,3.29,44.0,1.0,0.0,1.0,1.0,578495,0.0,79.96,13.702138939407739
1765219083539,0.0,0.0,2.0,25.0,0.0,0.0,0.0,0.0,0.0,0.0,0.0,0.0,0.0,0.0,0.0,0.0,-0.010369999999999999,0.0053679999999999995,0.996252,-0.7000000000000001,0.28,-0.07,28.6640625,3.33,3.33,3.33,3.29,3.33,3.33,3.33,3.32,3.34,3.35,3.35,3.33,3.33,3.33,3.33,3.33,3.33,3.33,3.33,3.33,3.34,3.34,3.34,3.34,3.35,3.29,46.0,1.0,0.0,1.0,1.0,578513,0.0,79.96,13.702138939407739
1765219083571,0.0,0.0,2.0,25.0,0.0,0.0,0.0,0.0,0.0,0.0,0.0,0.0,0.0,0.0,0.0,0.0,-0.010369999999999999,0.0053679999999999995,0.996252,-0.7000000000000001,0.28,-0.07,28.6640625,3.33,3.33,3.33,3.29,3.33,3.33,3.33,3.32,3.34,3.35,3.35,3.33,3.33,3.33,3.33,3.33,3.33,3.33,3.33,3.33,3.34,3.34,3.34,3.34,3.35,3.29,46.0,1.0,0.0,1.0,1.0,578545,0.0,79.96,13.702138939407739
1765219083588,0.0,0.0,2.0,25.0,0.0,0.0,0.0,0.0,0.0,0.0,0.0,0.0,0.0,0.0,0.0,0.0,-0.010369999999999999,0.0053679999999999995,0.996252,-0.7000000000000001,0.56,0.0,28.70703125,3.33,3.33,3.33,3.29,3.33,3.33,3.33,3.32,3.34,3.35,3.35,3.33,3.33,3.33,3.33,3.33,3.33,3.33,3.33,3.33,3.34,3.34,3.34,3.34,3.35,3.29,46.0,1.0,0.0,1.0,1.0,578562,0.0,79.96,13.702138939407739
1765219083621,0.0,0.0,2.0,25.0,0.0,0.0,0.0,0.0,0.0,0.0,0.0,0.0,0.0,0.0,0.0,0.0,-0.010369999999999999,0.0053679999999999995,0.996252,-0.7000000000000001,0.56,0.0,28.70703125,3.33,3.33,3.33,3.29,3.33,3.33,3.33,3.32,3.34,3.35,3.35,3.33,3.33,3.33,3.33,3.33,3.33,3.33,3.33,3.33,3.34,3.34,3.34,3.34,3.35,3.29,46.0,1.0,0.0,1.0,1.0,578595,0.0,79.96,13.702138939407739
1765219083638,0.0,0.0,2.0,25.0,0.0,0.0,0.0,0.0,0.0,0.0,0.0,0.0,0.0,0.0,0.0,0.0,-0.010369999999999999,0.0053679999999999995,0.996252,-0.7000000000000001,0.56,0.0,28.70703125,3.33,3.33,3.33,3.29,3.33,3.33,3.33,3.32,3.34,3.35,3.35,3.33,3.33,3.33,3.33,3.33,3.33,3.33,3.33,3.33,3.34,3.34,3.34,3.34,3.35,3.29,46.0,1.0,0.0,1.0,1.0,578612,0.0,79.96,13.702138939407739
1765219083655,0.0,0.0,2.0,25.0,0.0,0.0,0.0,0.0,0.0,0.0,0.0,0.0,0.0,0.0,0.0,0.0,-0.010369999999999999,0.0053679999999999995,0.996252,-0.7000000000000001,0.56,0.0,28.70703125,3.33,3.33,3.33,3.29,3.33,3.33,3.33,3.32,3.34,3.35,3.35,3.33,3.33,3.33,3.33,3.33,3.33,3.33,3.33,3.33,3.34,3.34,3.34,3.34,3.35,3.29,46.0,1.0,0.0,1.0,1.0,578629,0.0,79.96,13.702138939407739
1765219083671,0.0,0.0,2.0,25.0,0.0,0.0,0.0,0.0,0.0,0.0,0.0,0.0,0.0,0.0,0.0,0.0,-0.010369999999999999,0.0053679999999999995,0.996252,-0.7000000000000001,0.56,0.0,28.70703125,3.33,3.33,3.33,3.29,3.33,3.33,3.33,3.32,3.34,3.35,3.35,3.33,3.33,3.33,3.33,3.33,3.33,3.33,3.33,3.33,3.34,3.34,3.34,3.34,3.35,3.29,46.0,1.0,0.0,1.0,1.0,578645,0.0,79.96,13.702138939407739
1765219083688,0.0,0.0,2.0,25.0,0.0,0.0,0.0,0.0,0.0,0.0,0.0,0.0,0.0,0.0,0.0,0.0,-0.010369999999999999,0.0053679999999999995,0.996252,-0.7000000000000001,0.56,0.0,28.70703125,3.33,3.33,3.33,3.29,3.33,3.33,3.33,3.32,3.34,3.35,3.35,3.33,3.33,3.33,3.33,3.33,3.33,3.33,3.33,3.33,3.34,3.34,3.34,3.34,3.35,3.29,46.0,1.0,0.0,1.0,1.0,578662,0.0,79.96,13.702138939407739
1765219083755,0.0,0.0,2.0,25.0,0.0,0.0,0.0,0.0,0.0,0.0,0.0,0.0,0.0,0.0,0.0,0.0,-0.013176,0.003904,0.989664,-0.7000000000000001,0.56,0.0,28.70703125,3.33,3.33,3.33,3.29,3.33,3.33,3.33,3.32,3.34,3.35,3.35,3.33,3.33,3.33,3.33,3.33,3.33,3.33,3.33,3.33,3.34,3.34,3.34,3.34,3.35,3.29,46.0,1.0,0.0,1.0,1.0,578729,0.0,79.96,13.702138939407739
1765219083788,0.0,0.0,2.0,25.0,0.0,0.0,0.0,0.0,0.0,0.0,0.0,0.0,0.0,0.0,0.0,0.0,-0.013176,0.003904,0.989664,-0.56,0.42000000000000004,-0.14,28.70703125,3.33,3.33,3.33,3.29,3.33,3.33,3.33,3.32,3.34,3.35,3.35,3.33,3.33,3.33,3.33,3.33,3.33,3.33,3.33,3.33,3.34,3.34,3.34,3.34,3.35,3.29,46.0,1.0,0.0,1.0,1.0,578762,0.0,79.96,13.702138939407739
1765219083872,0.0,0.0,2.0,25.0,0.0,0.0,0.0,0.0,0.0,0.0,0.0,0.0,0.0,0.0,0.0,0.0,-0.006344,0.005856,0.994178,-0.56,0.42000000000000004,-0.14,28.70703125,3.33,3.33,3.33,3.29,3.33,3.33,3.33,3.32,3.34,3.35,3.35,3.33,3.33,3.33,3.33,3.33,3.33,3.33,3.33,3.33,3.34,3.34,3.34,3.34,3.35,3.29,46.0,1.0,0.0,1.0,1.0,578846,0.0,79.96,13.702138939407739
1765219083987,0.0,0.0,2.0,25.0,0.0,0.0,0.0,0.0,0.0,0.0,0.0,0.0,0.0,0.0,0.0,0.0,-0.006344,0.005856,0.994178,-0.56,0.42000000000000004,-0.14,28.73828125,3.33,3.33,3.33,3.29,3.33,3.33,3.33,3.32,3.34,3.35,3.35,3.33,3.33,3.33,3.33,3.33,3.33,3.33,3.33,3.33,3.34,3.34,3.34,3.34,3.35,3.29,46.0,1.0,0.0,1.0,1.0,578961,0.0,79.96,13.702138939407739
1765219084021,0.0,0.0,2.0,25.0,0.0,0.0,0.0,0.0,0.0,0.0,0.0,0.0,0.0,0.0,0.0,0.0,-0.008539999999999999,0.0060999999999999995,0.994788,-0.56,0.42000000000000004,-0.14,28.73828125,3.33,3.33,3.33,3.29,3.33,3.33,3.33,3.32,3.34,3.35,3.35,3.33,3.33,3.33,3.33,3.33,3.33,3.33,3.33,3.33,3.34,3.34,3.34,3.34,3.35,3.29,46.0,1.0,0.0,1.0,1.0,578995,0.0,79.96,13.702138939407739
1765219084038,0.0,0.0,2.0,25.0,0.0,0.0,0.0,0.0,0.0,0.0,0.0,0.0,0.0,0.0,0.0,0.0,-0.008539999999999999,0.0060999999999999995,0.994788,-0.56,0.42000000000000004,-0.14,28.73828125,3.33,3.33,3.33,3.29,3.33,3.33,3.33,3.32,3.34,3.35,3.35,3.33,3.33,3.33,3.33,3.33,3.33,3.33,3.33,3.33,3.34,3.34,3.34,3.34,3.35,3.29,46.0,1.0,0.0,1.0,1.0,579012,0.0,79.96,13.702138939407739
1765219084071,0.0,0.0,2.0,25.0,2048.0,0.0,0.0,0.0,0.0,0.0,0.0,0.0,0.0,0.0,0.0,0.0,-0.008539999999999999,0.0060999999999999995,0.994788,-0.77,0.42000000000000004,0.07,28.73828125,3.33,3.33,3.33,3.29,3.33,3.33,3.33,3.32,3.34,3.35,3.35,3.33,3.33,3.33,3.33,3.33,3.33,3.33,3.33,3.33,3.34,3.34,3.34,3.34,3.35,3.29,46.0,1.0,0.0,1.0,1.0,579045,0.0,79.96,13.702138939407739
1765219084169,0.0,0.0,2.0,25.0,2048.0,0.0,0.0,0.0,0.0,0.0,0.0,0.0,0.0,0.0,0.0,0.0,-0.008539999999999999,0.0060999999999999995,0.994788,-0.77,0.42000000000000004,0.07,28.73828125,3.33,3.33,3.33,3.29,3.33,3.33,3.33,3.32,3.34,3.35,3.35,3.33,3.33,3.33,3.33,3.33,3.33,3.33,3.33,3.33,3.34,3.34,3.34,3.34,3.35,3.29,46.0,1.0,0.0,1.0,1.0,579143,0.0,79.96,13.702138939407739
1765219084253,0.0,0.0,2.0,25.0,2048.0,0.0,0.0,0.0,0.0,0.0,0.0,0.0,0.0,0.0,0.0,0.0,-0.013663999999999999,0.50447,0.992104,-0.77,0.42000000000000004,0.07,28.73828125,3.33,3.33,3.33,3.29,3.33,3.33,3.33,3.32,3.34,3.35,3.35,3.33,3.33,3.33,3.33,3.33,3.33,3.33,3.33,3.33,3.34,3.34,3.34,3.34,3.35,3.29,46.0,1.0,0.0,1.0,1.0,579227,0.0,79.96,13.702138939407739
1765219084303,0.0,0.0,2.0,25.0,2048.0,0.0,0.0,0.0,0.0,0.0,0.0,0.0,0.0,0.0,0.0,0.0,-0.013663999999999999,0.50447,0.992104,-0.77,0.42000000000000004,0.07,28.73828125,3.33,3.33,3.33,3.29,3.33,3.33,3.33,3.32,3.34,3.35,3.35,3.33,3.33,3.33,3.33,3.33,3.33,3.33,3.33,3.33,3.34,3.34,3.34,3.34,3.35,3.29,46.0,1.0,0.0,1.0,1.0,579277,0.0,79.96,13.702138939407739
1765219084320,0.0,0.0,2.0,25.0,2048.0,0.0,0.0,0.0,0.0,0.0,0.0,0.0,0.0,0.0,0.0,0.0,-0.013663999999999999,0.50447,0.992104,-0.77,0.42000000000000004,0.07,28.73828125,3.33,3.33,3.33,3.29,3.33,3.33,3.33,3.32,3.34,3.35,3.35,3.33,3.33,3.33,3.33,3.33,3.33,3.33,3.33,3.33,3.34,3.34,3.34,3.34,3.35,3.29,46.0,1.0,0.0,1.0,1.0,579294,0.0,79.96,13.702138939407739
1765219084337,0.0,0.0,2.0,25.0,2048.0,0.0,0.0,0.0,0.0,0.0,0.0,0.0,0.0,0.0,0.0,0.0,-0.013663999999999999,0.50447,0.992104,-0.77,0.42000000000000004,0.07,28.73828125,3.33,3.33,3.33,3.29,3.33,3.33,3.33,3.32,3.34,3.35,3.35,3.33,3.33,3.33,3.33,3.33,3.33,3.33,3.33,3.33,3.34,3.34,3.34,3.34,3.35,3.29,46.0,1.0,0.0,1.0,1.0,579311,0.0,79.96,13.702138939407739
1765219084353,0.0,0.0,2.0,25.0,2048.0,0.0,0.0,0.0,0.0,0.0,0.0,0.0,0.0,0.0,0.0,0.0,-0.013663999999999999,0.50447,0.992104,-0.77,0.42000000000000004,0.07,28.73828125,3.33,3.33,3.33,3.29,3.33,3.33,3.33,3.32,3.34,3.35,3.35,3.33,3.33,3.33,3.33,3.33,3.33,3.33,3.33,3.33,3.34,3.34,3.34,3.34,3.35,3.29,46.0,1.0,0.0,1.0,1.0,579327,0.0,79.96,13.702138939407739
1765219084370,0.0,0.0,2.0,25.0,2048.0,0.0,0.0,0.0,0.0,0.0,0.0,0.0,0.0,0.0,0.0,0.0,-0.013663999999999999,0.50447,0.992104,-0.77,0.42000000000000004,0.07,28.73828125,3.33,3.33,3.33,3.29,3.33,3.33,3.33,3.32,3.34,3.35,3.35,3.33,3.33,3.33,3.33,3.33,3.33,3.33,3.33,3.33,3.34,3.34,3.34,3.34,3.35,3.29,46.0,1.0,0.0,1.0,1.0,579344,0.0,79.96,13.702138939407739
1765219084387,0.0,0.0,2.0,25.0,2048.0,0.0,0.0,0.0,0.0,0.0,0.0,0.0,0.0,0.0,0.0,0.0,-0.013663999999999999,0.50447,0.992104,-0.77,0.42000000000000004,0.07,28.73828125,3.33,3.33,3.33,3.29,3.33,3.33,3.33,3.32,3.34,3.35,3.35,3.33,3.33,3.33,3.33,3.33,3.33,3.33,3.33,3.33,3.34,3.34,3.34,3.34,3.35,3.29,46.0,1.0,0.0,1.0,1.0,579361,0.0,79.96,13.702138939407739
1765219084404,0.0,0.0,2.0,25.0,0.0,0.0,0.0,0.0,0.0,0.0,0.0,0.0,0.0,0.0,0.0,0.0,-0.013663999999999999,0.50447,0.992104,-0.77,0.42000000000000004,0.07,28.73828125,3.33,3.33,3.33,3.29,3.33,3.33,3.33,3.32,3.34,3.35,3.35,3.33,3.33,3.33,3.33,3.33,3.33,3.33,3.33,3.33,3.34,3.34,3.34,3.34,3.35,3.29,46.0,1.0,0.0,1.0,1.0,579378,0.0,79.96,13.702138939407739
1765219084420,0.0,0.0,2.0,25.0,0.0,0.0,0.0,0.0,0.0,0.0,0.0,0.0,0.0,0.0,0.0,0.0,-0.013663999999999999,0.50447,0.992104,-0.77,0.42000000000000004,0.07,28.73828125,3.33,3.33,3.33,3.29,3.33,3.33,3.33,3.32,3.34,3.35,3.35,3.33,3.33,3.33,3.33,3.33,3.33,3.33,3.33,3.33,3.34,3.34,3.34,3.34,3.35,3.29,46.0,1.0,0.0,1.0,1.0,579394,0.0,79.96,13.702138939407739
1765219084453,0.0,0.0,2.0,25.0,0.0,0.0,0.0,0.0,0.0,0.0,0.0,0.0,0.0,0.0,0.0,0.0,-0.013663999999999999,0.50447,0.992104,-0.77,0.42000000000000004,0.07,28.73828125,3.33,3.33,3.33,3.29,3.33,3.33,3.33,3.32,3.34,3.35,3.35,3.33,3.33,3.33,3.33,3.33,3.33,3.33,3.33,3.33,3.34,3.34,3.34,3.34,3.35,3.29,46.0,1.0,0.0,1.0,1.0,579427,0.0,79.96,13.702138939407739
1765219084504,0.0,0.0,2.0,25.0,0.0,0.0,0.0,0.0,0.0,0.0,0.0,0.0,0.0,0.0,0.0,0.0,-0.013663999999999999,0.50447,0.992104,-0.77,0.42000000000000004,0.07,28.73828125,3.33,3.33,3.33,3.29,3.33,3.33,3.33,3.32,3.34,3.35,3.35,3.33,3.33,3.33,3.33,3.33,3.33,3.33,3.33,3.33,3.34,3.34,3.34,3.34,3.35,3.29,46.0,1.0,0.0,1.0,1.0,579478,0.0,79.96,13.702138939407739
1765219084519,0.0,0.0,2.0,25.0,0.0,0.0,0.0,0.0,0.0,0.0,0.0,0.0,0.0,0.0,0.0,0.0,-0.009028,0.0026839999999999998,0.995154,-0.77,0.42000000000000004,0.07,28.73828125,3.33,3.33,3.33,3.29,3.33,3.33,3.33,3.32,3.34,3.35,3.35,3.33,3.33,3.33,3.33,3.33,3.33,3.33,3.33,3.33,3.34,3.34,3.34,3.34,3.35,3.29,46.0,1.0,0.0,1.0,1.0,579493,0.0,79.96,13.702138939407739
1765219084572,0.0,0.0,2.0,25.0,0.0,0.0,0.0,0.0,0.0,0.0,0.0,0.0,0.0,0.0,0.0,0.0,-0.009028,0.0026839999999999998,0.995154,-0.7000000000000001,0.42000000000000004,-0.07,28.73828125,3.33,3.33,3.33,3.29,3.33,3.33,3.33,3.32,3.34,3.35,3.35,3.33,3.33,3.33,3.33,3.33,3.33,3.33,3.33,3.33,3.34,3.34,3.34,3.34,3.35,3.29,46.0,1.0,0.0,1.0,1.0,579546,0.0,79.96,13.702138939407739
1765219084620,0.0,0.0,2.0,25.0,0.0,0.0,0.0,0.0,0.0,0.0,0.0,0.0,0.0,0.0,0.0,0.0,-0.009028,0.0026839999999999998,0.995154,-0.7000000000000001,0.42000000000000004,-0.07,28.73828125,3.33,3.33,3.33,3.29,3.33,3.33,3.33,3.32,3.34,3.35,3.35,3.33,3.33,3.33,3.33,3.33,3.33,3.33,3.33,3.33,3.34,3.34,3.34,3.34,3.35,3.29,46.0,1.0,0.0,1.0,1.0,579594,0.0,79.96,13.702138939407739
1765219084705,0.0,0.0,2.0,25.0,0.0,0.0,0.0,0.0,0.0,0.0,0.0,0.0,0.0,0.0,0.0,0.0,-0.01525,0.00366,0.994422,-0.7000000000000001,0.35000000000000003,0.0,28.73828125,3.33,3.33,3.33,3.29,3.33,3.33,3.33,3.32,3.34,3.35,3.35,3.33,3.33,3.33,3.33,3.33,3.33,3.33,3.33,3.33,3.34,3.34,3.34,3.34,3.35,3.29,46.0,1.0,0.0,1.0,1.0,579679,0.0,79.96,13.702138939407739
1765219084738,0.0,0.0,2.0,25.0,0.0,0.0,0.0,0.0,0.0,0.0,0.0,0.0,0.0,0.0,0.0,0.0,-0.01525,0.00366,0.994422,-0.7000000000000001,0.35000000000000003,0.0,28.6796875,3.33,3.33,3.33,3.29,3.33,3.33,3.33,3.32,3.34,3.35,3.35,3.33,3.33,3.33,3.33,3.33,3.33,3.33,3.33,3.33,3.34,3.34,3.34,3.34,3.35,3.29,46.0,1.0,0.0,1.0,1.0,579712,0.0,79.96,13.702138939407739
1765219084770,0.0,0.0,2.0,25.0,0.0,0.0,0.0,0.0,0.0,0.0,0.0,0.0,0.0,0.0,0.0,0.0,-0.01525,0.00366,0.994422,-0.7000000000000001,0.35000000000000003,0.0,28.6796875,3.33,3.33,3.33,3.29,3.33,3.33,3.33,3.32,3.34,3.35,3.35,3.33,3.33,3.33,3.33,3.33,3.33,3.33,3.33,3.33,3.34,3.34,3.34,3.34,3.35,3.29,46.0,1.0,0.0,1.0,1.0,579744,0.0,79.96,13.702138939407739
1765219084789,0.0,0.0,2.0,25.0,0.0,0.0,0.0,0.0,0.0,0.0,0.0,0.0,0.0,0.0,0.0,0.0,-0.01525,0.00366,0.994422,-0.7000000000000001,0.35000000000000003,0.0,28.6796875,3.33,3.33,3.33,3.29,3.33,3.33,3.33,3.32,3.34,3.35,3.35,3.33,3.33,3.33,3.33,3.33,3.33,3.33,3.33,3.33,3.34,3.34,3.34,3.34,3.35,3.29,46.0,1.0,0.0,1.0,1.0,579763,0.0,79.96,13.702138939407739
