timestamp,ACCEL_LONGITUDINAL,ACCEL_LATERAL,ACCEL_NORMAL,VEL_ANGULAR_YAW,VEL_ANGULAR_PITCH,VEL_ANGULAR_ROLL,AIR_MINUS,AIR_PLUS,GLV_VOLTAGE,SHUNT_CURRENT,MAX_CELL_VOLTAGE,MIN_CELL_VOLTAGE,MAX_CELL_TEMP,TRACTIVE_VOLTAGE,GNSS_TIMESTAMP,LATITUDE,LONGITUDE,SPEED_AVG,STEERING_WHEEL,THROTTLE,BRAKE,TORQUE_GAIN,TORQUE_DECREASE_R,TORQUE_DECREASE_L,SPEED_FL,SPEED_FR,SPEED_RL,SPEED_RR,RPM_L_MOTOR,TORQUE_L_MOTOR,POWER_L_MOTOR,LEFT_MOTOR_CURRENT,RPM_R_MOTOR,TORQUE_R_MOTOR,POWER_R_MOTOR,RIGHT_MOTOR_CURRENT,ENERGY_R_MOTOR,OVERLOAD_R_MOTOR,TEMPERATURE1_R,TEMPERATURE2_R,LOST_MSG_R_MOTOR,BUS_OFF_R_MOTOR,CAN_STATE_R_MOTOR,INV_STATE_R_MOTOR,FAILURE_R_MOTOR,ALARM_R_MOTOR,BMS_ERRORMASK,BMS_ERROR_LOG1,BMS_ERROR_LOG2,BMS_ERROR_LOG3,BMS_ERROR_LOG4,BMS_ERROR_LOG5,ERROR_SUM_S1,ERROR_SUM_S2,ERROR_SUM_S3,ERROR_SUM_S4,ERROR_SUM_S5,BMS_MODE,ADDR_CELL_VOLT_MIN,ADDR_STACK_VOLT_MIN,ADDR_MIN_VOLTAGE,ADDR_CELL_VOLT_MAX,ADDR_STACK_VOLT_MAX,ADDR_MAX_VOLTAGE,ADDR_CELL_TEMP_MAX,ADDR_STACK_TEMP_MAX,ADDR_MAX_TEMPERATURE,DESIRED_YAW,MAX_YAW,ECU_MODE,CONTROL_EVENT_FLAG_1,CONTROL_EVENT_FLAG_2,DISTANCE_P_ODOM,DISTANCE_T_ODOM,SET_POINT_LONGITUDINAL,SET_POINT_LATERAL,KP,TI,SLIP,RIGHT_MOTOR_TEMPERATURE,LEFT_MOTOR_TEMPERATURE,STACK_1_CELL_1_VOLTAGE,STACK_1_CELL_2_VOLTAGE,STACK_1_CELL_3_VOLTAGE,STACK_1_CELL_4_VOLTAGE,STACK_2_CELL_1_VOLTAGE,STACK_2_CELL_2_VOLTAGE,STACK_2_CELL_3_VOLTAGE,STACK_2_CELL_4_VOLTAGE,STACK_3_CELL_1_VOLTAGE,STACK_3_CELL_2_VOLTAGE,STACK_3_CELL_3_VOLTAGE,STACK_3_CELL_4_VOLTAGE,STACK_4_CELL_1_VOLTAGE,STACK_4_CELL_2_VOLTAGE,STACK_4_CELL_3_VOLTAGE,STACK_4_CELL_4_VOLTAGE,STACK_5_CELL_1_VOLTAGE,STACK_5_CELL_2_VOLTAGE,STACK_5_CELL_3_VOLTAGE,STACK_5_CELL_4_VOLTAGE,STACK_6_CELL_1_VOLTAGE,STACK_6_CELL_2_VOLTAGE,STACK_6_CELL_3_VOLTAGE,STACK_6_CELL_4_VOLTAGE,STACK_1_CELL_1_TEMPERATURE,STACK_1_CELL_2_TEMPERATURE,STACK_1_CELL_3_TEMPERATURE,STACK_1_CELL_4_TEMPERATURE,STACK_2_CELL_1_TEMPERATURE,STACK_2_CELL_2_TEMPERATURE,STACK_2_CELL_3_TEMPERATURE,STACK_2_CELL_4_TEMPERATURE,STACK_3_CELL_1_TEMPERATURE,STACK_3_CELL_2_TEMPERATURE,STACK_3_CELL_3_TEMPERATURE,STACK_3_CELL_4_TEMPERATURE,STACK_4_CELL_1_TEMPERATURE,STACK_4_CELL_2_TEMPERATURE,STACK_4_CELL_3_TEMPERATURE,STACK_4_CELL_4_TEMPERATURE,STACK_5_CELL_1_TEMPERATURE,STACK_5_CELL_2_TEMPERATURE,STACK_5_CELL_3_TEMPERATURE,STACK_5_CELL_4_TEMPERATURE,STACK_6_CELL_1_TEMPERATURE,STACK_6_CELL_2_TEMPERATURE,STACK_6_CELL_3_TEMPERATURE,STACK_6_CELL_4_TEMPERATURE,t,HODOMETRO
1782591568313,1.02,0.04,-0.0299999999999999,-0.56,0.28,0.0,0.0,0.0,14.45,3.0,0.000333,0.000321,5.09,78.31,17825805415.0,-19.8644115,-43.972471,0.0,-8.07,0.0,0.0,23.750999999999998,23.750999999999998,213.018,0.0,0.0,0.0,0.0,8.0,0.11699999999999999,0,0.5,8.0,0.039,0,0.4,0.0,0.0,42.8,0.0,0.0,0.0,2.0,1.0,0.0,110.0,4.0,3.0,0.0,0.0,0.0,0.0,0.0,0.0,0.0,0.0,0.0,2.0,0.0,0.0,0.0,0.0,0.0,0.0,0,3.0,0.1,0.0,0.0,0.0,192.0,8.0,169.0,0,1.0,0.0,1185.0,2.0,0.0,37.43,48.91,3.25,3.24,3.25,3.26,3.25,3.25,3.27,3.26,3.28,3.26,3.28,3.29,3.27,3.27,3.26,3.27,3.26,3.28,3.26,3.28,3.27,3.33,3.21,3.28,37.1,33.7,33.4,33.1,44.5,38.3,39.3,40.8,48.2,38.2,37.7,36.8,37.0,37.0,34.8,34.0,39.2,36.9,40.8,36.6,33.7,35.8,38.8,40.5,25554385,6942.808409721683
1782591568345,1.02,0.04,-0.0299999999999999,-0.4899999999999999,0.28,-0.07,0.0,0.0,14.45,3.0,0.000333,0.000321,5.09,78.31,17825805415.0,-19.8644115,-43.972471,0.0,-8.07,0.0,0.0,23.750999999999998,23.750999999999998,213.018,0.0,0.0,0.0,0.0,8.0,0.11699999999999999,0,0.5,8.0,0.039,0,0.4,0.0,0.0,42.8,0.0,0.0,0.0,2.0,1.0,0.0,110.0,4.0,3.0,0.0,0.0,0.0,0.0,0.0,0.0,0.0,0.0,0.0,2.0,0.0,0.0,0.0,0.0,0.0,0.0,0,3.0,0.1,0.0,0.0,0.0,192.0,8.0,169.0,0,1.0,0.0,1185.0,2.0,0.0,37.43,48.91,3.25,3.24,3.25,3.26,3.25,3.25,3.27,3.26,3.28,3.26,3.28,3.29,3.27,3.27,3.26,3.27,3.26,3.28,3.26,3.28,3.27,3.33,3.21,3.28,37.1,33.7,33.4,33.1,44.5,38.3,39.3,40.8,48.2,38.2,37.7,36.8,37.0,37.0,34.8,34.0,39.2,36.9,40.8,36.6,33.7,35.8,38.8,40.5,25554417,6942.808409721683
1782591568362,1.02,0.0299999999999999,-0.04,-0.4899999999999999,0.28,-0.07,0.0,0.0,14.45,3.0,0.000333,0.000321,5.09,78.31,17825805415.0,-19.8644115,-43.972471,0.0,-8.07,0.0,0.0,23.750999999999998,23.750999999999998,213.018,0.0,0.0,0.0,0.0,1.0,0.11699999999999999,0,0.5,8.0,0.039,0,0.4,0.0,0.0,42.8,0.0,0.0,0.0,2.0,1.0,0.0,110.0,4.0,3.0,0.0,0.0,0.0,0.0,0.0,0.0,0.0,0.0,0.0,2.0,0.0,0.0,0.0,0.0,0.0,0.0,0,3.0,0.1,0.0,0.0,0.0,192.0,8.0,169.0,0,1.0,0.0,1185.0,2.0,0.0,37.43,48.91,3.25,3.24,3.25,3.26,3.25,3.25,3.27,3.26,3.28,3.26,3.28,3.29,3.27,3.27,3.26,3.27,3.26,3.28,3.26,3.28,3.27,3.33,3.21,3.28,37.1,33.7,33.4,33.1,44.5,38.3,39.3,40.8,48.2,38.2,37.7,36.8,37.0,37.0,34.8,34.0,39.2,36.9,40.8,36.6,33.7,35.8,38.8,40.5,25554434,6942.808409721683
1782591568379,1.02,0.0299999999999999,-0.04,-0.4899999999999999,0.28,-0.07,0.0,0.0,14.45,3.0,0.000333,0.000321,5.09,78.31,17825805415.0,-19.8644115,-43.972471,0.0,-8.07,0.0,0.0,23.750999999999998,23.750999999999998,213.018,0.0,0.0,0.0,0.0,1.0,0.11699999999999999,0,0.1,8.0,0.039,0,0.4,0.0,0.0,42.8,0.0,0.0,0.0,2.0,1.0,0.0,110.0,4.0,3.0,0.0,0.0,0.0,0.0,0.0,0.0,0.0,0.0,0.0,2.0,0.0,0.0,0.0,0.0,0.0,0.0,0,3.0,0.1,0.0,0.0,0.0,192.0,8.0,169.0,0,1.0,0.0,1185.0,2.0,0.0,37.43,48.91,3.25,3.24,3.25,3.26,3.25,3.25,3.27,3.26,3.28,3.26,3.28,3.29,3.27,3.27,3.26,3.27,3.26,3.28,3.26,3.28,3.27,3.33,3.21,3.28,37.1,33.7,33.4,33.1,44.5,38.3,39.3,40.8,48.2,38.2,37.7,36.8,37.0,37.0,34.8,34.0,39.2,36.9,40.8,36.6,33.7,35.8,38.8,40.5,25554451,6942.808409721683
1782591568395,1.02,0.0299999999999999,-0.04,-0.4899999999999999,0.28,-0.07,0.0,0.0,14.45,3.0,0.000333,0.000321,5.09,78.31,17825805415.0,-19.8644115,-43.972471,0.0,-8.07,0.0,0.0,23.750999999999998,23.750999999999998,213.018,0.0,0.0,0.0,0.0,1.0,0.11699999999999999,0,0.1,8.0,0.039,0,0.4,0.0,0.0,42.8,0.0,0.0,0.0,2.0,1.0,0.0,110.0,4.0,3.0,0.0,0.0,0.0,0.0,0.0,0.0,0.0,0.0,0.0,2.0,0.0,0.0,0.0,0.0,0.0,0.0,0,3.0,0.1,0.0,0.0,0.0,192.0,8.0,169.0,0,1.0,0.0,1185.0,2.0,0.0,37.43,48.91,3.25,3.24,3.25,3.26,3.25,3.25,3.27,3.26,3.28,3.26,3.28,3.29,3.27,3.27,3.26,3.27,3.26,3.28,3.26,3.28,3.27,3.33,3.21,3.28,37.1,33.7,33.4,33.1,44.5,38.3,39.3,40.8,48.2,38.2,37.7,36.8,37.0,37.0,34.8,34.0,39.2,36.9,40.8,36.6,33.7,35.8,38.8,40.5,25554467,6942.808409721683
1782591568413,1.02,0.0299999999999999,-0.04,-0.4899999999999999,0.28,0.0,0.0,0.0,14.45,3.0,0.000333,0.000321,5.09,78.31,17825805415.0,-19.8644115,-43.972471,0.0,-8.07,0.0,0.0,23.750999999999998,23.750999999999998,213.018,0.0,0.0,0.0,0.0,1.0,0.11699999999999999,0,0.1,8.0,0.039,0,0.4,0.0,0.0,42.8,0.0,0.0,0.0,2.0,1.0,0.0,110.0,4.0,3.0,0.0,0.0,0.0,0.0,0.0,0.0,0.0,0.0,0.0,2.0,0.0,0.0,0.0,0.0,0.0,0.0,0,3.0,0.1,0.0,0.0,0.0,192.0,8.0,169.0,0,1.0,0.0,1185.0,2.0,0.0,37.43,48.91,3.25,3.24,3.25,3.26,3.25,3.25,3.27,3.26,3.28,3.26,3.28,3.29,3.27,3.27,3.26,3.27,3.26,3.28,3.26,3.28,3.27,3.33,3.21,3.28,37.1,33.7,33.4,33.1,44.5,38.3,39.3,40.8,48.2,38.2,37.7,36.8,37.0,37.0,34.8,34.0,39.2,36.9,40.8,36.6,33.7,35.8,38.8,40.5,25554485,6942.808409721683
1782591568445,1.02,0.0299999999999999,-0.04,-0.4899999999999999,0.28,0.0,0.0,0.0,14.45,3.0,0.000333,0.000321,5.09,78.31,17825805415.0,-19.8644115,-43.972471,0.0,-8.07,0.0,0.0,23.750999999999998,23.750999999999998,213.018,0.0,0.0,0.0,0.0,1.0,0.11699999999999999,0,0.1,8.0,0.039,0,0.4,0.0,0.0,42.8,0.0,0.0,0.0,2.0,1.0,0.0,110.0,4.0,3.0,0.0,0.0,0.0,0.0,0.0,0.0,0.0,0.0,0.0,2.0,0.0,0.0,0.0,0.0,0.0,0.0,0,3.0,0.1,0.0,0.0,0.0,192.0,8.0,169.0,0,1.0,0.0,1185.0,2.0,0.0,37.43,48.91,3.25,3.24,3.25,3.26,3.25,3.25,3.27,3.26,3.28,3.26,3.28,3.29,3.27,3.27,3.26,3.27,3.26,3.28,3.26,3.28,3.27,3.33,3.21,3.28,37.1,33.7,33.4,33.1,44.5,38.3,39.3,40.8,48.2,38.2,37.7,36.8,37.0,37.0,34.8,34.0,39.2,36.9,40.8,36.6,33.7,35.8,38.8,40.5,25554517,6942.808409721683
1782591568462,1.02,0.0299999999999999,-0.04,-0.4899999999999999,0.28,0.0,0.0,0.0,14.45,3.0,0.000333,0.000321,5.09,78.31,17825805415.0,-19.8644115,-43.972471,0.0,-8.07,0.0,0.0,23.750999999999998,23.750999999999998,213.018,0.0,0.0,0.0,0.0,1.0,0.11699999999999999,0,0.1,0.0,0.039,0,0.4,0.0,0.0,42.8,0.0,0.0,0.0,2.0,1.0,0.0,110.0,4.0,3.0,0.0,0.0,0.0,0.0,0.0,0.0,0.0,0.0,0.0,2.0,0.0,0.0,0.0,0.0,0.0,0.0,0,3.0,0.1,0.0,0.0,0.0,192.0,8.0,169.0,0,1.0,0.0,1185.0,2.0,0.0,37.43,48.91,3.25,3.24,3.25,3.26,3.25,3.25,3.27,3.26,3.28,3.26,3.28,3.29,3.27,3.27,3.26,3.27,3.26,3.28,3.26,3.28,3.27,3.33,3.21,3.28,37.1,33.7,33.4,33.1,44.5,38.3,39.3,40.8,48.2,38.2,37.7,36.8,37.0,37.0,34.8,34.0,39.2,36.9,40.8,36.6,33.7,35.8,38.8,40.5,25554534,6942.808409721683
1782591568479,1.02,0.0299999999999999,-0.04,-0.4899999999999999,0.28,0.0,0.0,0.0,14.45,3.0,0.000333,0.000321,5.09,78.31,17825805415.0,-19.8644115,-43.972471,0.0,-8.07,0.0,0.0,23.750999999999998,23.750999999999998,213.018,0.0,0.0,0.0,0.0,1.0,0.11699999999999999,0,0.1,0.0,0.039,0,0.8,0.0,0.0,23.2,0.0,0.0,0.0,2.0,1.0,0.0,110.0,4.0,3.0,0.0,0.0,0.0,0.0,0.0,0.0,0.0,0.0,0.0,2.0,0.0,0.0,0.0,0.0,0.0,0.0,0,3.0,0.1,0.0,0.0,0.0,192.0,8.0,169.0,0,1.0,0.0,1185.0,2.0,0.0,37.43,48.91,3.25,3.24,3.25,3.26,3.25,3.25,3.27,3.26,3.28,3.26,3.28,3.29,3.27,3.27,3.26,3.27,3.26,3.28,3.26,3.28,3.27,3.33,3.21,3.28,37.1,33.7,33.4,33.1,44.5,38.3,39.3,40.8,48.2,38.2,37.7,36.8,37.0,37.0,34.8,34.0,39.2,36.9,40.8,36.6,33.7,35.8,38.8,40.5,25554551,6942.808409721683
1782591568496,1.02,0.0299999999999999,-0.04,-0.4899999999999999,0.28,0.0,0.0,0.0,14.45,3.0,0.000333,0.000321,5.09,78.31,17825805415.0,-19.8644115,-43.972471,0.0,-8.07,0.0,0.0,23.750999999999998,23.750999999999998,213.018,0.0,0.0,0.0,0.0,1.0,0.11699999999999999,0,0.1,0.0,0.039,0,0.8,0.0,0.0,23.2,0.0,0.0,0.0,2.0,1.0,0.0,110.0,4.0,3.0,0.0,0.0,0.0,0.0,0.0,0.0,0.0,0.0,0.0,2.0,0.0,0.0,0.0,0.0,0.0,0.0,0,3.0,0.1,0.0,0.0,0.0,192.0,8.0,169.0,0,1.0,0.0,1185.0,2.0,0.0,37.43,48.91,3.25,3.24,3.25,3.26,3.25,3.25,3.27,3.26,3.28,3.26,3.28,3.29,3.27,3.27,3.26,3.27,3.26,3.28,3.26,3.28,3.27,3.33,3.21,3.28,37.1,33.7,33.4,33.1,44.5,38.3,39.3,40.8,48.2,38.2,37.7,36.8,37.0,37.0,34.8,34.0,39.2,36.9,40.8,36.6,33.7,35.8,38.8,40.5,25554568,6942.808409721683
1782591568512,1.02,0.0299999999999999,-0.04,-0.4899999999999999,0.2099999999999999,0.07,0.0,0.0,14.45,3.0,0.000333,0.000321,5.09,78.31,17825805415.0,-19.8644115,-43.972471,0.0,-8.07,0.0,0.0,23.750999999999998,23.750999999999998,213.018,0.0,0.0,0.0,0.0,1.0,0.11699999999999999,0,0.1,0.0,0.039,0,0.8,0.0,0.0,23.2,0.0,0.0,0.0,2.0,1.0,0.0,110.0,4.0,3.0,0.0,0.0,0.0,0.0,0.0,0.0,0.0,0.0,0.0,2.0,0.0,0.0,0.0,0.0,0.0,0.0,0,3.0,0.1,0.0,0.0,0.0,192.0,8.0,169.0,0,1.0,0.0,1185.0,2.0,0.0,37.43,48.91,3.25,3.24,3.25,3.26,3.25,3.25,3.27,3.26,3.28,3.26,3.28,3.29,3.27,3.27,3.26,3.27,3.26,3.28,3.26,3.28,3.27,3.33,3.21,3.28,37.1,33.7,33.4,33.1,44.5,38.3,39.3,40.8,48.2,38.2,37.7,36.8,37.0,37.0,34.8,34.0,39.2,36.9,40.8,36.6,33.7,35.8,38.8,40.5,25554584,6942.808409721683
1782591568545,1.02,0.0299999999999999,-0.04,-0.4899999999999999,0.2099999999999999,0.07,0.0,0.0,14.45,3.0,0.000333,0.000321,5.09,78.31,17825805415.0,-19.8644115,-43.972471,0.0,-8.07,0.0,0.0,23.750999999999998,23.750999999999998,213.018,0.0,0.0,0.0,0.0,309.0,7.3839999999999995,0,0.1,0.0,0.039,0,0.8,0.0,0.0,23.2,0.0,0.0,0.0,2.0,1.0,0.0,110.0,4.0,3.0,0.0,0.0,0.0,0.0,0.0,0.0,0.0,0.0,0.0,2.0,0.0,0.0,0.0,0.0,0.0,0.0,0,3.0,0.1,0.0,0.0,0.0,192.0,8.0,169.0,0,1.0,0.0,1185.0,2.0,0.0,37.43,48.91,3.25,3.24,3.25,3.26,3.25,3.25,3.27,3.26,3.28,3.26,3.28,3.29,3.27,3.27,3.26,3.27,3.26,3.28,3.26,3.28,3.27,3.33,3.21,3.28,37.1,33.7,33.4,33.1,44.5,38.3,39.3,40.8,48.2,38.2,37.7,36.8,37.0,37.0,34.8,34.0,39.2,36.9,40.8,36.6,33.7,35.8,38.8,40.5,25554617,6942.808409721683
1782591568562,1.01,-0.34,-0.23,3.43,-0.07,-4.34,0.0,0.0,14.45,3.0,0.000333,0.000321,5.09,78.31,17825805415.0,-19.8644115,-43.972471,0.0,-8.07,0.0,0.0,23.750999999999998,23.750999999999998,213.018,0.0,0.0,0.0,0.0,309.0,7.3839999999999995,0,0.1,0.0,0.039,0,0.8,0.0,0.0,23.2,0.0,0.0,0.0,2.0,1.0,0.0,110.0,4.0,3.0,0.0,0.0,0.0,0.0,0.0,0.0,0.0,0.0,0.0,2.0,0.0,0.0,0.0,0.0,0.0,0.0,0,3.0,0.1,0.0,0.0,0.0,192.0,8.0,169.0,0,1.0,0.0,1185.0,2.0,0.0,37.43,48.91,3.25,3.24,3.25,3.26,3.25,3.25,3.27,3.26,3.28,3.26,3.28,3.29,3.27,3.27,3.26,3.27,3.26,3.28,3.26,3.28,3.27,3.33,3.21,3.28,37.1,33.7,33.4,33.1,44.5,38.3,39.3,40.8,48.2,38.2,37.7,36.8,37.0,37.0,34.8,34.0,39.2,36.9,40.8,36.6,33.7,35.8,38.8,40.5,25554634,6942.808409721683
1782591568579,1.01,-0.34,-0.23,3.43,-0.07,-4.34,0.0,0.0,14.45,3.0,0.000333,0.000321,5.09,78.31,17825805415.0,-19.8644115,-43.972471,0.0,-8.07,0.0,0.0,23.750999999999998,23.750999999999998,213.018,0.0,0.0,0.0,0.0,309.0,7.3839999999999995,0,138.1,0.0,0.039,0,0.8,0.0,0.0,23.2,0.0,0.0,0.0,2.0,1.0,0.0,110.0,4.0,3.0,0.0,0.0,0.0,0.0,0.0,0.0,0.0,0.0,0.0,2.0,0.0,0.0,0.0,0.0,0.0,0.0,0,3.0,0.1,0.0,0.0,0.0,192.0,8.0,169.0,0,1.0,0.0,1185.0,2.0,0.0,37.43,48.91,3.25,3.24,3.25,3.26,3.25,3.25,3.27,3.26,3.28,3.26,3.28,3.29,3.27,3.27,3.26,3.27,3.26,3.28,3.26,3.28,3.27,3.33,3.21,3.28,37.1,33.7,33.4,33.1,44.5,38.3,39.3,40.8,48.2,38.2,37.7,36.8,37.0,37.0,34.8,34.0,39.2,36.9,40.8,36.6,33.7,35.8,38.8,40.5,25554651,6942.808409721683
1782591568612,1.01,-0.34,-0.2,3.43,-0.07,-4.34,0.0,0.0,14.45,3.0,0.000333,0.000321,5.09,78.31,17825805415.0,-19.8644115,-43.972471,0.0,-8.07,0.0,0.0,23.750999999999998,23.750999999999998,213.018,0.0,0.0,0.0,0.0,309.0,7.3839999999999995,0,138.1,0.0,0.039,0,0.8,0.0,0.0,23.2,0.0,0.0,0.0,2.0,1.0,0.0,110.0,4.0,3.0,0.0,0.0,0.0,0.0,0.0,0.0,0.0,0.0,0.0,2.0,0.0,0.0,0.0,0.0,0.0,0.0,0,3.0,0.1,0.0,0.0,0.0,192.0,8.0,169.0,0,1.0,0.0,1185.0,2.0,0.0,37.43,48.91,3.25,3.24,3.25,3.26,3.25,3.25,3.27,3.26,3.28,3.26,3.28,3.29,3.27,3.27,3.26,3.27,3.26,3.28,3.26,3.28,3.27,3.33,3.21,3.28,37.1,33.7,33.4,33.1,44.5,38.3,39.3,40.8,48.2,38.2,37.7,36.8,37.0,37.0,34.8,34.0,39.2,36.9,40.8,36.6,33.7,35.8,38.8,40.5,25554684,6942.808409721683
1782591568646,1.04,-0.34,-0.13,3.43,-0.07,-4.34,0.0,0.0,14.45,3.0,0.000333,0.000321,5.09,78.31,17825805415.0,-19.8644115,-43.972471,0.0,-8.07,0.0,0.0,23.750999999999998,23.750999999999998,213.018,0.0,0.0,0.0,0.0,309.0,7.3839999999999995,0,138.1,375.0,5.902,0,0.8,0.0,0.0,23.2,0.0,0.0,0.0,2.0,1.0,0.0,110.0,4.0,3.0,0.0,0.0,0.0,0.0,0.0,0.0,0.0,0.0,0.0,2.0,0.0,0.0,0.0,0.0,0.0,0.0,0,3.0,0.1,0.0,0.0,0.0,192.0,8.0,169.0,0,1.0,0.0,1185.0,2.0,0.0,37.43,48.91,3.25,3.24,3.25,3.26,3.25,3.25,3.27,3.26,3.28,3.26,3.28,3.29,3.27,3.27,3.26,3.27,3.26,3.28,3.26,3.28,3.27,3.33,3.21,3.28,37.1,33.7,33.4,33.1,44.5,38.3,39.3,40.8,48.2,38.2,37.7,36.8,37.0,37.0,34.8,34.0,39.2,36.9,40.8,36.6,33.7,35.8,38.8,40.5,25554718,6942.808409721683
1782591568662,1.04,-0.34,-0.13,3.43,-0.07,-4.34,0.0,0.0,14.45,3.0,0.000333,0.000321,5.09,78.31,17825805415.0,-19.8644115,-43.972471,0.0,-8.07,0.0,0.0,23.750999999999998,23.750999999999998,213.018,0.0,0.0,0.0,0.0,309.0,7.3839999999999995,0,138.1,375.0,5.902,0,157.60000000000002,0.0,0.0,23.2,0.0,0.0,0.0,2.0,1.0,0.0,110.0,4.0,3.0,0.0,0.0,0.0,0.0,0.0,0.0,0.0,0.0,0.0,2.0,0.0,0.0,0.0,0.0,0.0,0.0,0,3.0,0.1,0.0,0.0,0.0,192.0,8.0,169.0,0,1.0,0.0,1185.0,2.0,0.0,37.43,48.91,3.25,3.24,3.25,3.26,3.25,3.25,3.27,3.26,3.28,3.26,3.28,3.29,3.27,3.27,3.26,3.27,3.26,3.28,3.26,3.28,3.27,3.33,3.21,3.28,37.1,33.7,33.4,33.1,44.5,38.3,39.3,40.8,48.2,38.2,37.7,36.8,37.0,37.0,34.8,34.0,39.2,36.9,40.8,36.6,33.7,35.8,38.8,40.5,25554734,6942.808409721683
1782591568678,1.04,-0.34,-0.13,3.43,0.4199999999999999,-4.34,0.0,0.0,14.45,3.0,0.000333,0.000321,5.09,78.31,17825805415.0,-19.8644115,-43.972471,0.0,-8.07,0.0,0.0,23.750999999999998,23.750999999999998,213.018,0.0,0.0,0.0,0.0,309.0,7.3839999999999995,0,138.1,375.0,5.902,0,157.60000000000002,0.0,0.0,23.2,0.0,0.0,0.0,2.0,1.0,0.0,110.0,4.0,3.0,0.0,0.0,0.0,0.0,0.0,0.0,0.0,0.0,0.0,2.0,0.0,0.0,0.0,0.0,0.0,0.0,0,3.0,0.1,0.0,0.0,0.0,192.0,8.0,169.0,0,1.0,0.0,1185.0,2.0,0.0,37.43,48.91,3.25,3.24,3.25,3.26,3.25,3.25,3.27,3.26,3.28,3.26,3.28,3.29,3.27,3.27,3.26,3.27,3.26,3.28,3.26,3.28,3.27,3.33,3.21,3.28,37.1,33.7,33.4,33.1,44.5,38.3,39.3,40.8,48.2,38.2,37.7,36.8,37.0,37.0,34.8,34.0,39.2,36.9,40.8,36.6,33.7,35.8,38.8,40.5,25554750,6942.808409721683
1782591568695,1.04,-0.34,-0.13,3.43,0.4199999999999999,-4.34,0.0,0.0,14.45,3.0,0.000333,0.000321,5.09,78.31,17825805415.0,-19.8644115,-43.972471,0.0,-8.07,0.0,0.0,23.750999999999998,23.750999999999998,213.018,0.0,0.0,0.0,0.0,309.0,7.3839999999999995,0,138.1,375.0,5.902,0,157.60000000000002,0.0,0.0,23.2,0.0,0.0,0.0,2.0,1.0,0.0,110.0,4.0,3.0,0.0,0.0,0.0,0.0,0.0,0.0,0.0,0.0,0.0,2.0,0.0,0.0,0.0,0.0,0.0,0.0,0,3.0,0.1,0.0,0.0,0.0,192.0,8.0,169.0,0,1.0,0.0,1185.0,2.0,0.0,37.43,48.91,3.25,3.24,3.25,3.26,3.25,3.25,3.27,3.26,3.28,3.26,3.28,3.29,3.27,3.27,3.26,3.27,3.26,3.28,3.26,3.28,3.27,3.33,3.21,3.28,37.1,33.7,33.4,33.1,44.5,38.3,39.3,40.8,48.2,38.2,37.7,36.8,37.0,37.0,34.8,34.0,39.2,36.9,40.8,36.6,33.7,35.8,38.8,40.5,25554767,6942.808409721683
1782591568712,1.07,-0.31,-0.1,3.15,0.4199999999999999,-0.91,0.0,0.0,14.45,3.0,0.000333,0.000321,5.09,78.31,17825805415.0,-19.8644115,-43.972471,0.0,-8.07,0.0,0.0,23.750999999999998,23.750999999999998,213.018,0.0,0.0,0.0,0.0,309.0,7.3839999999999995,0,138.1,375.0,5.902,0,157.60000000000002,0.0,0.0,23.2,0.0,0.0,0.0,2.0,1.0,0.0,110.0,4.0,3.0,0.0,0.0,0.0,0.0,0.0,0.0,0.0,0.0,0.0,2.0,0.0,0.0,0.0,0.0,0.0,0.0,0,3.0,0.1,0.0,0.0,0.0,192.0,8.0,169.0,0,1.0,0.0,1185.0,2.0,0.0,37.43,48.91,3.25,3.24,3.25,3.26,3.25,3.25,3.27,3.26,3.28,3.26,3.28,3.29,3.27,3.27,3.26,3.27,3.26,3.28,3.26,3.28,3.27,3.33,3.21,3.28,37.1,33.7,33.4,33.1,44.5,38.3,39.3,40.8,48.2,38.2,37.7,36.8,37.0,37.0,34.8,34.0,39.2,36.9,40.8,36.6,33.7,35.8,38.8,40.5,25554784,6942.808409721683
1782591568728,1.07,-0.31,-0.1,3.15,0.4199999999999999,-0.91,0.0,0.0,14.45,3.0,0.000333,0.000321,5.09,78.31,17825805415.0,-19.8644115,-43.972471,0.0,-8.07,0.0,0.0,23.750999999999998,23.750999999999998,213.018,0.0,0.0,0.0,0.0,309.0,7.3839999999999995,0,138.1,375.0,5.902,0,157.60000000000002,0.0,0.0,23.2,0.0,0.0,0.0,2.0,0.0,0.0,110.0,4.0,3.0,0.0,0.0,0.0,0.0,0.0,0.0,0.0,0.0,0.0,2.0,0.0,0.0,0.0,0.0,0.0,0.0,0,3.0,0.1,0.0,0.0,0.0,192.0,8.0,169.0,0,1.0,0.0,1185.0,2.0,0.0,37.43,48.91,3.25,3.24,3.25,3.26,3.25,3.25,3.27,3.26,3.28,3.26,3.28,3.29,3.27,3.27,3.26,3.27,3.26,3.28,3.26,3.28,3.27,3.33,3.21,3.28,37.1,33.7,33.4,33.1,44.5,38.3,39.3,40.8,48.2,38.2,37.7,36.8,37.0,37.0,34.8,34.0,39.2,36.9,40.8,36.6,33.7,35.8,38.8,40.5,25554800,6942.808409721683
1782591568745,1.07,-0.31,-0.1,3.15,0.4199999999999999,-0.91,0.0,0.0,14.45,3.0,0.000333,0.000321,5.09,78.31,17825805415.0,-19.8644035,-43.972471,0.0,-8.07,0.0,0.0,23.750999999999998,23.750999999999998,213.018,0.0,0.0,0.0,0.0,309.0,7.3839999999999995,0,138.1,375.0,5.902,0,157.60000000000002,0.0,0.0,23.2,0.0,0.0,0.0,2.0,0.0,0.0,110.0,4.0,3.0,0.0,0.0,0.0,0.0,0.0,0.0,0.0,0.0,0.0,2.0,0.0,0.0,0.0,0.0,0.0,0.0,0,3.0,0.1,0.0,0.0,0.0,192.0,8.0,169.0,0,1.0,0.0,1185.0,2.0,0.0,37.43,48.91,3.25,3.24,3.25,3.26,3.25,3.25,3.27,3.26,3.28,3.26,3.28,3.29,3.27,3.27,3.26,3.27,3.26,3.28,3.26,3.28,3.27,3.33,3.21,3.28,37.1,33.7,33.4,33.1,44.5,38.3,39.3,40.8,48.2,38.2,37.7,36.8,37.0,37.0,34.8,34.0,39.2,36.9,40.8,36.6,33.7,35.8,38.8,40.5,25554817,6942.808409721683
1782591568762,1.07,-0.31,-0.1,3.15,0.4199999999999999,-0.91,0.0,0.0,14.45,3.0,0.000333,0.000321,5.09,78.31,17825805415.0,-19.8644035,-43.9724696,0.0,-8.07,0.0,0.0,23.750999999999998,23.750999999999998,213.018,0.0,0.0,0.0,0.0,309.0,7.3839999999999995,0,138.1,375.0,5.902,0,157.60000000000002,0.0,0.0,23.2,0.0,0.0,0.0,2.0,0.0,0.0,110.0,4.0,3.0,0.0,0.0,0.0,0.0,0.0,0.0,0.0,0.0,0.0,2.0,0.0,0.0,0.0,0.0,0.0,0.0,0,3.0,0.1,0.0,0.0,0.0,192.0,8.0,169.0,0,1.0,0.0,1185.0,2.0,0.0,37.43,48.91,3.25,3.24,3.25,3.26,3.25,3.25,3.27,3.26,3.28,3.26,3.28,3.29,3.27,3.27,3.26,3.27,3.26,3.28,3.26,3.28,3.27,3.33,3.21,3.28,37.1,33.7,33.4,33.1,44.5,38.3,39.3,40.8,48.2,38.2,37.7,36.8,37.0,37.0,34.8,34.0,39.2,36.9,40.8,36.6,33.7,35.8,38.8,40.5,25554834,6942.808409721683
1782591568779,1.13,-0.16,-0.0899999999999999,-0.07,1.82,-0.8399999999999999,0.0,0.0,14.45,3.0,0.000333,0.000321,5.09,78.31,17825805415.0,-19.8644035,-43.9724696,0.0,-8.07,0.0,0.0,23.750999999999998,23.750999999999998,213.018,0.0,0.0,0.0,0.0,309.0,7.3839999999999995,0,138.1,375.0,5.902,0,157.60000000000002,0.0,0.0,23.2,0.0,0.0,0.0,2.0,0.0,0.0,110.0,4.0,3.0,0.0,0.0,0.0,0.0,0.0,0.0,0.0,0.0,0.0,2.0,0.0,0.0,0.0,0.0,0.0,0.0,0,3.0,0.1,0.0,0.0,0.0,192.0,8.0,169.0,0,1.0,0.0,1185.0,2.0,0.0,37.43,48.91,3.25,3.24,3.25,3.26,3.25,3.25,3.27,3.26,3.28,3.26,3.28,3.29,3.27,3.27,3.26,3.27,3.26,3.28,3.26,3.28,3.27,3.33,3.21,3.28,37.1,33.7,33.4,33.1,44.5,38.3,39.3,40.8,48.2,38.2,37.7,36.8,37.0,37.0,34.8,34.0,39.2,36.9,40.8,36.6,33.7,35.8,38.8,40.5,25554851,6942.808409721683
1782591568795,1.13,-0.16,-0.0899999999999999,-0.07,1.82,-0.8399999999999999,0.0,0.0,14.45,3.0,0.000333,0.000321,5.09,78.31,17825805415.0,-19.8644035,-43.9724696,0.0,-8.07,0.0,0.0,23.750999999999998,23.750999999999998,213.018,0.0,0.0,0.0,0.0,309.0,7.3839999999999995,0,138.1,375.0,5.902,0,157.60000000000002,0.0,0.0,23.2,0.0,0.0,0.0,2.0,0.0,0.0,110.0,4.0,3.0,0.0,0.0,0.0,0.0,0.0,0.0,0.0,0.0,0.0,2.0,0.0,0.0,0.0,0.0,0.0,0.0,0,3.0,0.1,0.0,0.0,4.0,192.0,8.0,169.0,0,1.0,0.0,1185.0,2.0,0.0,37.43,48.91,3.25,3.24,3.25,3.26,3.25,3.25,3.27,3.26,3.28,3.26,3.28,3.29,3.27,3.27,3.26,3.27,3.26,3.28,3.26,3.28,3.27,3.33,3.21,3.28,37.1,33.7,33.4,33.1,44.5,38.3,39.3,40.8,48.2,38.2,37.7,36.8,37.0,37.0,34.8,34.0,39.2,36.9,40.8,36.6,33.7,35.8,38.8,40.5,25554867,6942.808409721683
1782591568829,1.13,-0.16,-0.0899999999999999,-0.07,1.82,-0.8399999999999999,0.0,0.0,14.45,3.0,0.000333,0.000321,5.09,78.31,17825805415.0,-19.8644035,-43.9724696,0.0,-8.07,0.0,0.0,23.750999999999998,23.750999999999998,213.018,0.0,0.0,0.0,0.0,309.0,7.3839999999999995,0,138.1,375.0,5.902,0,157.60000000000002,0.0,0.0,23.2,0.0,0.0,0.0,2.0,0.0,0.0,110.0,4.0,3.0,0.0,0.0,0.0,0.0,0.0,0.0,0.0,0.0,0.0,2.0,0.0,0.0,0.0,0.0,0.0,0.0,0,3.0,0.1,0.0,0.0,4.0,192.0,8.0,169.0,0,1.0,0.0,1185.0,2.0,0.0,37.43,48.91,3.25,3.24,3.25,3.26,3.28,3.27,3.29,3.28,3.28,3.26,3.28,3.29,3.27,3.27,3.26,3.27,3.26,3.28,3.26,3.28,3.27,3.33,3.21,3.28,37.1,33.7,33.4,33.1,44.5,38.3,39.3,40.8,48.2,38.2,37.7,36.8,37.0,37.0,34.8,34.0,39.2,36.9,40.8,36.6,33.7,35.8,38.8,40.5,25554901,6942.808409721683
1782591568846,1.13,-0.16,-0.0899999999999999,0.14,3.01,-2.24,0.0,0.0,14.45,3.0,0.000333,0.000321,5.09,78.31,17825805415.0,-19.8644035,-43.9724696,0.0,-8.07,0.0,0.0,23.750999999999998,23.750999999999998,213.018,0.0,0.0,0.0,0.0,309.0,7.3839999999999995,0,138.1,375.0,5.902,0,157.60000000000002,0.0,0.0,23.2,0.0,0.0,0.0,2.0,0.0,0.0,110.0,4.0,3.0,0.0,0.0,0.0,0.0,0.0,0.0,0.0,0.0,0.0,2.0,0.0,0.0,0.0,0.0,0.0,0.0,0,3.0,0.1,0.0,0.0,4.0,192.0,8.0,169.0,0,1.0,0.0,1185.0,2.0,0.0,37.43,48.91,3.25,3.24,3.25,3.26,3.28,3.27,3.29,3.28,3.29,3.29,3.29,3.29,3.27,3.27,3.26,3.27,3.26,3.28,3.26,3.28,3.27,3.33,3.21,3.28,37.1,33.7,33.4,33.1,44.5,38.3,39.3,40.8,48.2,38.2,37.7,36.8,37.0,37.0,34.8,34.0,39.2,36.9,40.8,36.6,33.7,35.8,38.8,40.5,25554918,6942.808409721683
1782591568862,1.13,-0.16,-0.0899999999999999,0.14,3.01,-2.24,0.0,0.0,14.45,3.0,0.000333,0.000321,5.09,78.31,17825805415.0,-19.8644035,-43.9724696,0.0,-8.07,0.0,0.0,23.750999999999998,23.750999999999998,213.018,0.0,0.0,0.0,0.0,334.0,14.638,0,138.1,375.0,5.902,0,157.60000000000002,0.0,0.0,23.2,0.0,0.0,0.0,2.0,0.0,0.0,110.0,4.0,3.0,0.0,0.0,0.0,0.0,0.0,0.0,0.0,0.0,0.0,2.0,0.0,0.0,0.0,0.0,0.0,0.0,0,3.0,0.1,0.0,0.0,4.0,192.0,8.0,169.0,0,1.0,0.0,1185.0,2.0,0.0,37.43,48.91,3.25,3.24,3.25,3.26,3.28,3.27,3.29,3.28,3.29,3.29,3.29,3.29,3.27,3.27,3.26,3.27,3.26,3.28,3.26,3.28,3.27,3.33,3.21,3.28,37.1,33.7,33.4,33.1,44.5,38.3,39.3,40.8,48.2,38.2,37.7,36.8,37.0,37.0,34.8,34.0,39.2,36.9,40.8,36.6,33.7,35.8,38.8,40.5,25554934,6942.808409721683
1782591568878,1.13,-0.16,-0.0899999999999999,0.14,3.01,-2.24,0.0,0.0,14.45,3.0,0.000333,0.000321,5.09,78.31,17825805415.0,-19.8644035,-43.9724696,0.0,-8.07,0.0,0.0,23.750999999999998,23.750999999999998,213.018,0.0,0.0,0.0,0.0,334.0,14.638,0,138.1,375.0,5.902,0,157.60000000000002,0.0,0.0,23.2,0.0,0.0,0.0,2.0,0.0,0.0,110.0,4.0,3.0,0.0,0.0,0.0,0.0,0.0,0.0,0.0,0.0,0.0,2.0,0.0,0.0,0.0,0.0,0.0,0.0,0,3.0,0.1,0.0,0.0,4.0,192.0,8.0,169.0,0,1.0,0.0,1185.0,2.0,0.0,37.43,48.91,3.25,3.24,3.25,3.26,3.28,3.27,3.29,3.28,3.29,3.29,3.29,3.29,3.28,3.29,3.29,3.29,3.29,3.29,3.28,3.29,3.27,3.33,3.21,3.28,37.1,33.7,33.4,33.1,44.5,38.3,39.3,40.8,48.2,38.2,37.7,36.8,37.0,37.0,34.8,34.0,39.2,36.9,40.8,36.6,33.7,35.8,38.8,40.5,25554950,6942.808409721683
1782591568895,1.13,-0.16,-0.0899999999999999,0.14,3.01,-2.24,0.0,0.0,14.45,3.0,0.000333,0.000321,5.09,78.31,17825805415.0,-19.8644035,-43.9724696,0.0,-8.07,0.0,0.0,23.750999999999998,23.750999999999998,213.018,0.0,0.0,0.0,0.0,334.0,14.638,0,175.3,375.0,5.902,0,157.60000000000002,0.0,0.0,23.2,0.0,0.0,0.0,2.0,0.0,0.0,110.0,4.0,3.0,0.0,0.0,0.0,0.0,0.0,0.0,0.0,0.0,0.0,2.0,0.0,0.0,0.0,0.0,0.0,0.0,0,3.0,0.1,0.0,0.0,4.0,192.0,8.0,169.0,0,1.0,0.0,1185.0,2.0,0.0,37.43,48.91,3.25,3.24,3.25,3.26,3.28,3.27,3.29,3.28,3.29,3.29,3.29,3.29,3.28,3.29,3.29,3.29,3.29,3.29,3.28,3.29,3.27,3.33,3.21,3.28,37.1,33.7,33.4,33.1,44.5,38.3,39.3,40.8,48.2,38.2,37.7,36.8,37.0,37.0,34.8,34.0,39.2,36.9,40.8,36.6,33.7,35.8,38.8,40.5,25554967,6942.808409721683
1782591568912,1.13,-0.16,-0.0899999999999999,0.14,3.01,-2.24,0.0,0.0,14.45,3.0,0.000333,0.000321,5.09,78.31,17825805415.0,-19.8644035,-43.9724696,0.0,-8.07,0.0,0.0,23.750999999999998,23.750999999999998,213.018,0.0,0.0,0.0,0.0,334.0,14.638,0,175.3,375.0,5.902,0,157.60000000000002,0.0,0.0,23.2,0.0,0.0,0.0,2.0,0.0,0.0,110.0,4.0,3.0,0.0,0.0,0.0,0.0,0.0,0.0,0.0,0.0,0.0,2.0,0.0,0.0,0.0,0.0,0.0,0.0,0,3.0,0.1,0.0,0.0,4.0,192.0,8.0,169.0,0,1.0,0.0,1185.0,2.0,0.0,37.43,48.91,3.25,3.24,3.25,3.26,3.28,3.27,3.29,3.28,3.29,3.29,3.29,3.29,3.28,3.29,3.29,3.29,3.29,3.29,3.28,3.29,3.29,3.33,3.25,3.29,37.1,33.7,33.4,33.1,44.5,38.3,39.3,40.8,48.2,38.2,37.7,36.8,37.0,37.0,34.8,34.0,39.2,36.9,40.8,36.6,33.7,35.8,38.8,40.5,25554984,6942.808409721683
1782591568928,1.13,-0.16,-0.0899999999999999,0.14,3.08,-2.24,0.0,0.0,14.45,3.0,0.000333,0.000321,5.09,78.31,17825805415.0,-19.8644035,-43.9724696,0.0,-8.07,0.0,0.0,23.750999999999998,23.750999999999998,213.018,0.0,0.0,0.0,0.0,334.0,14.638,0,175.3,375.0,5.902,0,157.60000000000002,0.0,0.0,23.2,0.0,0.0,0.0,2.0,0.0,0.0,110.0,4.0,3.0,0.0,0.0,0.0,0.0,0.0,0.0,0.0,0.0,0.0,2.0,0.0,0.0,0.0,0.0,0.0,0.0,0,3.0,0.1,0.0,0.0,4.0,192.0,8.0,169.0,0,1.0,0.0,1185.0,2.0,0.0,37.43,48.91,3.25,3.24,3.25,3.26,3.28,3.27,3.29,3.28,3.29,3.29,3.29,3.29,3.28,3.29,3.29,3.29,3.29,3.29,3.28,3.29,3.29,3.33,3.25,3.29,37.1,33.7,33.4,33.1,44.5,38.3,39.3,40.8,48.2,38.2,37.7,36.8,37.0,37.0,34.8,34.0,39.2,36.9,40.8,36.6,33.7,35.8,38.8,40.5,25555000,6942.808409721683
1782591568945,1.13,-0.16,-0.0899999999999999,0.14,3.08,-2.24,0.0,0.0,14.45,3.0,0.000333,0.000321,5.09,78.31,17825805415.0,-19.8644035,-43.9724696,0.0,-8.07,0.0,0.0,23.750999999999998,23.750999999999998,213.018,0.0,0.0,0.0,0.0,334.0,14.638,0,175.3,375.0,5.902,0,157.60000000000002,0.0,0.0,23.2,0.0,0.0,0.0,2.0,0.0,0.0,110.0,4.0,3.0,0.0,0.0,0.0,0.0,0.0,0.0,0.0,0.0,0.0,2.0,0.0,0.0,0.0,0.0,0.0,0.0,0,3.0,0.1,0.0,0.0,4.0,192.0,8.0,169.0,0,1.0,0.0,1185.0,2.0,0.0,37.43,48.91,3.25,3.24,3.25,3.26,3.28,3.27,3.29,3.28,3.29,3.29,3.29,3.29,3.28,3.29,3.29,3.29,3.29,3.29,3.28,3.29,3.29,3.33,3.25,3.29,37.1,33.7,33.4,33.1,44.5,38.3,39.3,40.8,48.2,38.2,37.7,36.8,37.0,37.0,34.8,34.0,39.2,36.9,40.8,36.6,33.7,35.8,38.8,40.5,25555017,6942.808409721683
1782591568962,1.13,-0.16,-0.0899999999999999,0.14,3.08,-2.24,0.0,0.0,14.45,3.0,0.000333,0.000321,5.09,78.31,17825805415.0,-19.8644035,-43.9724696,0.0,-8.07,0.0,0.0,23.750999999999998,23.750999999999998,213.018,0.0,0.0,0.0,0.0,334.0,14.638,0,175.3,375.0,5.902,0,157.60000000000002,0.0,0.0,23.2,0.0,0.0,0.0,2.0,0.0,0.0,110.0,4.0,3.0,0.0,0.0,0.0,0.0,0.0,0.0,0.0,0.0,0.0,2.0,0.0,0.0,0.0,0.0,0.0,0.0,0,3.0,0.1,0.0,0.0,4.0,192.0,8.0,169.0,0,1.0,0.0,1185.0,2.0,0.0,37.43,48.91,3.25,3.24,3.25,3.26,3.28,3.27,3.29,3.28,3.29,3.29,3.29,3.29,3.28,3.29,3.29,3.29,3.29,3.29,3.28,3.29,3.29,3.33,3.25,3.29,37.1,33.7,33.4,33.1,44.5,38.3,39.3,40.8,48.2,38.2,37.7,36.8,37.0,37.0,34.8,34.0,39.2,36.9,40.8,36.6,33.7,35.8,38.8,40.5,25555034,6942.808409721683
1782591568995,0.93,-0.23,-0.11,0.14,3.08,-2.24,0.0,0.0,14.45,3.0,0.000333,0.000321,5.09,78.31,17825805415.0,-19.8644035,-43.9724696,0.0,-8.07,0.0,0.0,23.750999999999998,23.750999999999998,213.018,0.0,0.0,0.0,0.0,334.0,14.638,0,175.3,375.0,5.902,0,157.60000000000002,0.0,0.0,23.2,0.0,0.0,0.0,2.0,0.0,0.0,110.0,4.0,3.0,0.0,0.0,0.0,0.0,0.0,0.0,0.0,0.0,0.0,2.0,0.0,0.0,0.0,0.0,0.0,0.0,0,3.0,0.1,0.0,0.0,4.0,192.0,8.0,169.0,0,1.0,0.0,1185.0,2.0,0.0,37.43,48.91,3.25,3.24,3.25,3.26,3.28,3.27,3.29,3.28,3.29,3.29,3.29,3.29,3.28,3.29,3.29,3.29,3.29,3.29,3.28,3.29,3.29,3.33,3.25,3.29,37.1,33.7,33.4,33.1,44.5,38.3,39.3,40.8,48.2,38.2,37.7,36.8,37.0,37.0,34.8,34.0,39.2,36.9,40.8,36.6,33.7,35.8,38.8,40.5,25555067,6942.808409721683
1782591569012,0.93,-0.23,-0.11,1.19,3.08,-1.96,0.0,0.0,14.45,3.0,0.000333,0.000321,5.09,78.31,17825805415.0,-19.8644035,-43.9724696,0.0,-8.07,0.0,0.0,23.750999999999998,23.750999999999998,213.018,0.0,0.0,0.0,0.0,334.0,14.638,0,175.3,375.0,5.902,0,178.0,0.0,0.0,23.2,0.0,0.0,0.0,2.0,0.0,0.0,110.0,4.0,3.0,0.0,0.0,0.0,0.0,0.0,0.0,0.0,0.0,0.0,2.0,0.0,0.0,0.0,0.0,0.0,0.0,0,3.0,0.1,0.0,0.0,4.0,192.0,8.0,169.0,0,1.0,0.0,1185.0,2.0,0.0,37.43,48.91,3.25,3.24,3.25,3.26,3.28,3.27,3.29,3.28,3.29,3.29,3.29,3.29,3.28,3.29,3.29,3.29,3.29,3.29,3.28,3.29,3.29,3.33,3.25,3.29,37.1,33.7,33.4,33.1,44.5,38.3,39.3,40.8,48.2,38.2,37.7,36.8,37.0,37.0,34.8,34.0,39.2,36.9,40.8,36.6,33.7,35.8,38.8,40.5,25555084,6942.808409721683
1782591569028,1.0,-0.2099999999999999,-0.07,1.19,3.08,-1.96,0.0,0.0,14.45,3.0,0.000333,0.000321,5.09,78.31,17825805415.0,-19.8644035,-43.9724696,0.0,-8.07,0.0,0.0,23.750999999999998,23.750999999999998,213.018,0.0,0.0,0.0,0.0,334.0,14.638,0,175.3,375.0,5.902,0,178.0,0.0,0.0,23.2,0.0,0.0,0.0,2.0,0.0,0.0,110.0,4.0,3.0,0.0,0.0,0.0,0.0,0.0,0.0,0.0,0.0,0.0,2.0,0.0,0.0,0.0,0.0,0.0,0.0,0,3.0,0.1,0.0,0.0,4.0,192.0,8.0,169.0,0,1.0,0.0,1185.0,2.0,0.0,37.43,48.91,3.25,3.24,3.25,3.26,3.28,3.27,3.29,3.28,3.29,3.29,3.29,3.29,3.28,3.29,3.29,3.29,3.29,3.29,3.28,3.29,3.29,3.33,3.25,3.29,37.1,33.7,33.4,33.1,44.5,38.3,39.3,40.8,48.2,38.2,37.7,36.8,37.0,37.0,34.8,34.0,39.2,36.9,40.8,36.6,33.7,35.8,38.8,40.5,25555100,6942.808409721683
1782591569045,1.0,-0.2099999999999999,-0.07,1.19,3.01,-0.91,0.0,0.0,14.45,3.0,0.000333,0.000321,5.09,78.31,17825805415.0,-19.8644035,-43.9724696,0.0,-8.07,0.0,0.0,23.750999999999998,23.750999999999998,213.018,0.0,0.0,0.0,0.0,334.0,14.638,0,175.3,375.0,5.902,0,178.0,0.0,0.0,23.2,0.0,0.0,0.0,2.0,0.0,0.0,110.0,4.0,3.0,0.0,0.0,0.0,0.0,0.0,0.0,0.0,0.0,0.0,2.0,0.0,0.0,0.0,0.0,0.0,0.0,0,3.0,0.1,0.0,0.0,4.0,192.0,8.0,169.0,0,1.0,0.0,1185.0,2.0,0.0,37.43,48.91,3.25,3.24,3.25,3.26,3.28,3.27,3.29,3.28,3.29,3.29,3.29,3.29,3.28,3.29,3.29,3.29,3.29,3.29,3.28,3.29,3.29,3.33,3.25,3.29,37.1,33.7,33.4,33.1,44.5,38.3,39.3,40.8,48.2,38.2,37.7,36.8,37.0,37.0,34.8,34.0,39.2,36.9,40.8,36.6,33.7,35.8,38.8,40.5,25555117,6942.808409721683
1782591569062,1.0,-0.2099999999999999,-0.07,1.19,3.01,-0.91,0.0,0.0,14.45,3.0,0.000333,0.000321,5.09,78.31,17825805415.0,-19.8644035,-43.9724696,0.0,-8.07,0.0,0.0,23.750999999999998,23.750999999999998,213.018,0.0,0.0,0.0,0.0,334.0,14.638,0,175.3,375.0,5.902,0,178.0,0.0,0.0,23.2,0.0,0.0,0.0,2.0,1.0,0.0,110.0,4.0,3.0,0.0,0.0,0.0,0.0,0.0,0.0,0.0,0.0,0.0,2.0,0.0,0.0,0.0,0.0,0.0,0.0,0,3.0,0.1,0.0,0.0,4.0,192.0,8.0,169.0,0,1.0,0.0,1185.0,2.0,0.0,37.43,48.91,3.25,3.24,3.25,3.26,3.28,3.27,3.29,3.28,3.29,3.29,3.29,3.29,3.28,3.29,3.29,3.29,3.29,3.29,3.28,3.29,3.29,3.33,3.25,3.29,37.1,33.7,33.4,33.1,44.5,38.3,39.3,40.8,48.2,38.2,37.7,36.8,37.0,37.0,34.8,34.0,39.2,36.9,40.8,36.6,33.7,35.8,38.8,40.5,25555134,6942.808409721683
1782591569079,1.01,-0.17,-0.07,1.19,3.01,-0.91,0.0,0.0,14.45,3.0,0.000333,0.000321,5.09,78.31,17825805415.0,-19.8644035,-43.9724696,0.0,-8.07,0.0,0.0,23.750999999999998,23.750999999999998,213.018,0.0,0.0,0.0,0.0,334.0,14.638,0,175.3,375.0,5.902,0,178.0,0.0,0.0,23.2,0.0,0.0,0.0,2.0,1.0,0.0,110.0,4.0,3.0,0.0,0.0,0.0,0.0,0.0,0.0,0.0,0.0,0.0,2.0,0.0,0.0,0.0,0.0,0.0,0.0,0,3.0,0.1,0.0,0.0,4.0,192.0,8.0,169.0,0,1.0,0.0,1185.0,2.0,0.0,37.43,48.91,3.25,3.24,3.25,3.26,3.28,3.27,3.29,3.28,3.29,3.29,3.29,3.29,3.28,3.29,3.29,3.29,3.29,3.29,3.28,3.29,3.29,3.33,3.25,3.29,37.1,33.7,33.4,33.1,44.5,38.3,39.3,40.8,48.2,38.2,37.7,36.8,37.0,37.0,34.8,34.0,39.2,36.9,40.8,36.6,33.7,35.8,38.8,40.5,25555151,6942.808409721683
1782591569096,1.01,-0.17,-0.07,0.14,3.01,-0.14,0.0,0.0,14.45,3.0,0.000333,0.000321,5.09,78.31,17825805415.0,-19.8644035,-43.9724696,0.0,-8.07,0.0,0.0,23.750999999999998,23.750999999999998,213.018,0.0,0.0,0.0,0.0,334.0,14.638,0,175.3,375.0,5.902,0,178.0,0.0,0.0,23.2,0.0,0.0,0.0,2.0,1.0,0.0,110.0,4.0,3.0,0.0,0.0,0.0,0.0,0.0,0.0,0.0,0.0,0.0,2.0,0.0,0.0,0.0,0.0,0.0,0.0,0,3.0,0.1,0.0,0.0,4.0,192.0,8.0,169.0,0,1.0,0.0,1185.0,2.0,0.0,37.43,48.91,3.25,3.24,3.25,3.26,3.28,3.27,3.29,3.28,3.29,3.29,3.29,3.29,3.28,3.29,3.29,3.29,3.29,3.29,3.28,3.29,3.29,3.33,3.25,3.29,37.1,33.7,33.4,33.1,44.5,38.3,39.3,40.8,48.2,38.2,37.7,36.8,37.0,37.0,34.8,34.0,39.2,36.9,40.8,36.6,33.7,35.8,38.8,40.5,25555168,6942.808409721683
1782591569111,1.03,-0.23,-0.14,0.2099999999999999,1.05,-0.28,0.0,0.0,14.45,3.0,0.000333,0.000321,5.09,78.31,17825805415.0,-19.8644035,-43.9724696,0.0,-8.07,0.0,0.0,23.750999999999998,23.750999999999998,213.018,0.0,0.0,0.0,0.0,334.0,14.638,0,175.3,375.0,5.902,0,178.0,0.0,0.0,23.2,0.0,0.0,0.0,2.0,1.0,0.0,110.0,4.0,3.0,0.0,0.0,0.0,0.0,0.0,0.0,0.0,0.0,0.0,2.0,0.0,0.0,0.0,0.0,0.0,0.0,0,3.0,0.1,0.0,0.0,4.0,192.0,8.0,169.0,0,1.0,0.0,1185.0,2.0,0.0,37.43,48.91,3.25,3.24,3.25,3.26,3.28,3.27,3.29,3.28,3.29,3.29,3.29,3.29,3.28,3.29,3.29,3.29,3.29,3.29,3.28,3.29,3.29,3.33,3.25,3.29,37.1,33.7,33.4,33.1,44.5,38.3,39.3,40.8,48.2,38.2,37.7,36.8,37.0,37.0,34.8,34.0,39.2,36.9,40.8,36.6,33.7,35.8,38.8,40.5,25555183,6942.808409721683
1782591569129,1.03,-0.23,-0.14,0.2099999999999999,1.05,-0.28,0.0,0.0,14.45,3.0,0.000333,0.000321,5.09,78.31,17825805415.0,-19.8644035,-43.9724696,0.0,-8.07,0.0,0.0,23.750999999999998,23.750999999999998,213.018,5.0,6.0,0.0,7.0,334.0,14.638,0,175.3,375.0,5.902,0,178.0,0.0,0.0,23.2,0.0,0.0,0.0,2.0,1.0,0.0,110.0,4.0,3.0,0.0,0.0,0.0,0.0,0.0,0.0,0.0,0.0,0.0,2.0,0.0,0.0,0.0,0.0,0.0,0.0,0,3.0,0.1,0.0,0.0,4.0,192.0,8.0,169.0,0,1.0,0.0,1185.0,2.0,0.0,37.43,48.91,3.25,3.24,3.25,3.26,3.28,3.27,3.29,3.28,3.29,3.29,3.29,3.29,3.28,3.29,3.29,3.29,3.29,3.29,3.28,3.29,3.29,3.33,3.25,3.29,37.1,33.7,33.4,33.1,44.5,38.3,39.3,40.8,48.2,38.2,37.7,36.8,37.0,37.0,34.8,34.0,39.2,36.9,40.8,36.6,33.7,35.8,38.8,40.5,25555201,6942.808409721683
1782591569145,1.03,-0.23,-0.14,0.2099999999999999,1.05,-0.28,0.0,0.0,14.45,3.0,0.000333,0.000321,5.09,78.31,17825805415.0,-19.8644035,-43.9724696,0.0,-8.07,0.0,0.0,23.750999999999998,23.750999999999998,213.018,5.0,6.0,0.0,7.0,410.0,17.276999999999997,0,175.3,375.0,5.902,0,178.0,0.0,0.0,23.2,0.0,0.0,0.0,2.0,1.0,0.0,110.0,4.0,3.0,0.0,0.0,0.0,0.0,0.0,0.0,0.0,0.0,0.0,2.0,0.0,0.0,0.0,0.0,0.0,0.0,0,3.0,0.1,0.0,0.0,4.0,192.0,8.0,169.0,0,1.0,0.0,1185.0,2.0,0.0,37.43,48.91,3.25,3.24,3.25,3.26,3.28,3.27,3.29,3.28,3.29,3.29,3.29,3.29,3.28,3.29,3.29,3.29,3.29,3.29,3.28,3.29,3.29,3.33,3.25,3.29,37.1,33.7,33.4,33.1,44.5,38.3,39.3,40.8,48.2,38.2,37.7,36.8,37.0,37.0,34.8,34.0,39.2,36.9,40.8,36.6,33.7,35.8,38.8,40.5,25555217,6942.808409721683
1782591569162,1.03,-0.23,-0.14,0.2099999999999999,1.05,0.2099999999999999,0.0,0.0,14.45,3.0,0.000333,0.000321,5.09,78.31,17825805415.0,-19.8644035,-43.9724696,0.0,-8.07,0.0,0.0,23.750999999999998,23.750999999999998,213.018,5.0,6.0,0.0,7.0,410.0,17.276999999999997,0,175.3,375.0,5.902,0,178.0,0.0,0.0,23.2,0.0,0.0,0.0,2.0,1.0,0.0,110.0,4.0,3.0,0.0,0.0,0.0,0.0,0.0,0.0,0.0,0.0,0.0,2.0,0.0,0.0,0.0,0.0,0.0,0.0,0,3.0,0.1,0.0,0.0,4.0,192.0,8.0,169.0,0,1.0,0.0,1185.0,2.0,0.0,37.43,48.91,3.25,3.24,3.25,3.26,3.28,3.27,3.29,3.28,3.29,3.29,3.29,3.29,3.28,3.29,3.29,3.29,3.29,3.29,3.28,3.29,3.29,3.33,3.25,3.29,37.1,33.7,33.4,33.1,44.5,38.3,39.3,40.8,48.2,38.2,37.7,36.8,37.0,37.0,34.8,34.0,39.2,36.9,40.8,36.6,33.7,35.8,38.8,40.5,25555234,6942.808409721683
1782591569178,1.03,-0.2099999999999999,-0.14,0.2099999999999999,1.05,0.2099999999999999,0.0,0.0,14.45,3.0,0.000333,0.000321,5.09,78.31,17825805415.0,-19.8644035,-43.9724696,0.0,-8.07,0.0,0.0,23.750999999999998,23.750999999999998,213.018,5.0,6.0,0.0,7.0,410.0,17.276999999999997,0,175.10000000000002,375.0,5.902,0,178.0,0.0,0.0,23.2,0.0,0.0,0.0,2.0,1.0,0.0,110.0,4.0,3.0,0.0,0.0,0.0,0.0,0.0,0.0,0.0,0.0,0.0,2.0,0.0,0.0,0.0,0.0,0.0,0.0,0,3.0,0.1,0.0,0.0,4.0,192.0,8.0,169.0,0,1.0,0.0,1185.0,2.0,0.0,37.43,48.91,3.25,3.24,3.25,3.26,3.28,3.27,3.29,3.28,3.29,3.29,3.29,3.29,3.28,3.29,3.29,3.29,3.29,3.29,3.28,3.29,3.29,3.33,3.25,3.29,37.1,33.7,33.4,33.1,44.5,38.3,39.3,40.8,48.2,38.2,37.7,36.8,37.0,37.0,34.8,34.0,39.2,36.9,40.8,36.6,33.7,35.8,38.8,40.5,25555250,6942.808409721683
1782591569211,1.03,-0.2099999999999999,-0.1,0.2099999999999999,1.05,0.2099999999999999,0.0,0.0,14.45,3.0,0.000333,0.000321,5.09,78.31,17825805415.0,-19.8644035,-43.9724696,0.0,-8.07,0.0,0.0,23.750999999999998,23.750999999999998,213.018,5.0,6.0,0.0,7.0,410.0,17.276999999999997,0,175.10000000000002,375.0,5.902,0,178.0,0.0,0.0,23.2,0.0,0.0,0.0,2.0,1.0,0.0,110.0,4.0,3.0,0.0,0.0,0.0,0.0,0.0,0.0,0.0,0.0,0.0,2.0,0.0,0.0,0.0,0.0,0.0,0.0,0,3.0,0.1,0.0,0.0,4.0,192.0,8.0,169.0,0,1.0,0.0,1185.0,2.0,0.0,37.43,48.91,3.25,3.24,3.25,3.26,3.28,3.27,3.29,3.28,3.29,3.29,3.29,3.29,3.28,3.29,3.29,3.29,3.29,3.29,3.28,3.29,3.29,3.33,3.25,3.29,37.1,33.7,33.4,33.1,44.5,38.3,39.3,40.8,48.2,38.2,37.7,36.8,37.0,37.0,34.8,34.0,39.2,36.9,40.8,36.6,33.7,35.8,38.8,40.5,25555283,6942.808409721683
1782591569228,1.03,-0.2099999999999999,-0.1,-0.28,2.03,0.4899999999999999,0.0,0.0,14.45,3.0,0.000333,0.000321,5.09,78.31,17825805415.0,-19.8644035,-43.9724696,0.0,-8.07,0.0,0.0,23.750999999999998,23.750999999999998,213.018,5.0,6.0,0.0,7.0,410.0,17.276999999999997,0,175.10000000000002,375.0,5.902,0,178.0,0.0,0.0,23.2,0.0,0.0,0.0,2.0,1.0,0.0,110.0,4.0,3.0,0.0,0.0,0.0,0.0,0.0,0.0,0.0,0.0,0.0,2.0,0.0,0.0,0.0,0.0,0.0,0.0,0,3.0,0.1,0.0,0.0,4.0,192.0,8.0,169.0,0,1.0,0.0,1185.0,2.0,0.0,37.43,48.91,3.25,3.24,3.25,3.26,3.28,3.27,3.29,3.28,3.29,3.29,3.29,3.29,3.28,3.29,3.29,3.29,3.29,3.29,3.28,3.29,3.29,3.33,3.25,3.29,37.1,33.7,33.4,33.1,44.5,38.3,39.3,40.8,48.2,38.2,37.7,36.8,37.0,37.0,34.8,34.0,39.2,36.9,40.8,36.6,33.7,35.8,38.8,40.5,25555300,6942.808409721683
1782591569245,1.03,-0.2099999999999999,-0.1,-0.28,2.03,0.4899999999999999,0.0,0.0,14.45,3.0,0.000333,0.000321,5.09,78.31,17825805415.0,-19.8644035,-43.9724696,0.0,-8.07,0.0,0.0,23.750999999999998,23.750999999999998,213.018,5.0,6.0,0.0,7.0,410.0,17.276999999999997,0,175.10000000000002,414.0,16.288999999999998,0,178.0,0.0,0.0,23.2,0.0,0.0,0.0,2.0,1.0,0.0,110.0,4.0,3.0,0.0,0.0,0.0,0.0,0.0,0.0,0.0,0.0,0.0,2.0,0.0,0.0,0.0,0.0,0.0,0.0,0,3.0,0.1,0.0,0.0,4.0,192.0,8.0,169.0,0,1.0,0.0,1185.0,2.0,0.0,37.43,48.91,3.25,3.24,3.25,3.26,3.28,3.27,3.29,3.28,3.29,3.29,3.29,3.29,3.28,3.29,3.29,3.29,3.29,3.29,3.28,3.29,3.29,3.33,3.25,3.29,37.1,33.7,33.4,33.1,44.5,38.3,39.3,40.8,48.2,38.2,37.7,36.8,37.0,37.0,34.8,34.0,39.2,36.9,40.8,36.6,33.7,35.8,38.8,40.5,25555317,6942.808409721683
1782591569262,1.03,-0.2099999999999999,-0.0899999999999999,-0.63,2.03,0.8399999999999999,0.0,0.0,14.45,3.0,0.000333,0.000321,5.09,78.31,17825805415.0,-19.8644035,-43.9724696,0.0,-8.07,0.0,0.0,23.750999999999998,23.750999999999998,213.018,5.0,6.0,0.0,7.0,410.0,17.276999999999997,0,175.10000000000002,414.0,16.288999999999998,0,178.0,0.0,0.0,23.2,0.0,0.0,0.0,2.0,1.0,0.0,110.0,4.0,3.0,0.0,0.0,0.0,0.0,0.0,0.0,0.0,0.0,0.0,2.0,0.0,0.0,0.0,0.0,0.0,0.0,0,3.0,0.1,0.0,0.0,4.0,192.0,8.0,169.0,0,1.0,0.0,1185.0,2.0,0.0,37.43,48.91,3.25,3.24,3.25,3.26,3.28,3.27,3.29,3.28,3.29,3.29,3.29,3.29,3.28,3.29,3.29,3.29,3.29,3.29,3.28,3.29,3.29,3.33,3.25,3.29,37.1,33.7,33.4,33.1,44.5,38.3,39.3,40.8,48.2,38.2,37.7,36.8,37.0,37.0,34.8,34.0,39.2,36.9,40.8,36.6,33.7,35.8,38.8,40.5,25555334,6942.808409721683
1782591569278,1.03,-0.2099999999999999,-0.0899999999999999,-0.63,2.03,0.8399999999999999,0.0,0.0,14.45,3.0,0.000333,0.000321,5.09,78.31,17825805415.0,-19.8644035,-43.9724696,0.0,-8.07,0.0,0.0,23.750999999999998,23.750999999999998,213.018,5.0,6.0,0.0,7.0,410.0,17.276999999999997,0,175.10000000000002,414.0,16.288999999999998,0,171.4,0.0,0.0,23.2,0.0,0.0,0.0,2.0,1.0,0.0,110.0,4.0,3.0,0.0,0.0,0.0,0.0,0.0,0.0,0.0,0.0,0.0,2.0,0.0,0.0,0.0,0.0,0.0,0.0,0,3.0,0.1,0.0,0.0,4.0,192.0,8.0,169.0,0,1.0,0.0,1185.0,2.0,0.0,37.43,48.91,3.25,3.24,3.25,3.26,3.28,3.27,3.29,3.28,3.29,3.29,3.29,3.29,3.28,3.29,3.29,3.29,3.29,3.29,3.28,3.29,3.29,3.33,3.25,3.29,37.1,33.7,33.4,33.1,44.5,38.3,39.3,40.8,48.2,38.2,37.7,36.8,37.0,37.0,34.8,34.0,39.2,36.9,40.8,36.6,33.7,35.8,38.8,40.5,25555350,6942.808409721683
1782591569295,1.03,-0.2099999999999999,-0.0899999999999999,-0.63,2.03,0.8399999999999999,0.0,0.0,14.45,3.0,0.000333,0.000321,5.09,78.31,17825805415.0,-19.8644035,-43.9724696,0.0,-8.07,0.0,0.0,23.750999999999998,23.750999999999998,213.018,5.0,6.0,0.0,7.0,410.0,17.276999999999997,0,175.10000000000002,414.0,16.288999999999998,0,171.4,0.0,0.0,26.4,0.0,0.0,0.0,2.0,1.0,0.0,110.0,4.0,3.0,0.0,0.0,0.0,0.0,0.0,0.0,0.0,0.0,0.0,2.0,0.0,0.0,0.0,0.0,0.0,0.0,0,3.0,0.1,0.0,0.0,4.0,192.0,8.0,169.0,0,1.0,0.0,1185.0,2.0,0.0,37.43,48.91,3.25,3.24,3.25,3.26,3.28,3.27,3.29,3.28,3.29,3.29,3.29,3.29,3.28,3.29,3.29,3.29,3.29,3.29,3.28,3.29,3.29,3.33,3.25,3.29,37.1,33.7,33.4,33.1,44.5,38.3,39.3,40.8,48.2,38.2,37.7,36.8,37.0,37.0,34.8,34.0,39.2,36.9,40.8,36.6,33.7,35.8,38.8,40.5,25555367,6942.808409721683
1782591569312,1.04,-0.2099999999999999,-0.07,-0.63,2.03,0.8399999999999999,0.0,0.0,14.45,3.0,0.000333,0.000321,5.09,78.31,17825805415.0,-19.8644035,-43.9724696,0.0,-8.07,0.0,0.0,23.750999999999998,23.750999999999998,213.018,5.0,6.0,0.0,7.0,410.0,17.276999999999997,0,175.10000000000002,414.0,16.288999999999998,0,171.4,0.0,0.0,26.4,0.0,0.0,0.0,2.0,1.0,0.0,110.0,4.0,3.0,0.0,0.0,0.0,0.0,0.0,0.0,0.0,0.0,0.0,2.0,0.0,0.0,0.0,0.0,0.0,0.0,0,3.0,0.1,0.0,0.0,4.0,192.0,8.0,169.0,0,1.0,0.0,1185.0,2.0,0.0,37.43,48.91,3.25,3.24,3.25,3.26,3.28,3.27,3.29,3.28,3.29,3.29,3.29,3.29,3.28,3.29,3.29,3.29,3.29,3.29,3.28,3.29,3.29,3.33,3.25,3.29,37.1,33.7,33.4,33.1,44.5,38.3,39.3,40.8,48.2,38.2,37.7,36.8,37.0,37.0,34.8,34.0,39.2,36.9,40.8,36.6,33.7,35.8,38.8,40.5,25555384,6942.808409721683
1782591569328,1.04,-0.2099999999999999,-0.07,-0.63,2.03,1.05,0.0,0.0,14.45,3.0,0.000333,0.000321,5.09,78.31,17825805415.0,-19.8644035,-43.9724696,0.0,-8.07,0.0,0.0,23.750999999999998,23.750999999999998,213.018,5.0,6.0,0.0,7.0,410.0,17.276999999999997,0,175.10000000000002,414.0,16.288999999999998,0,171.4,0.0,0.0,26.4,0.0,0.0,0.0,2.0,1.0,0.0,110.0,4.0,3.0,0.0,0.0,0.0,0.0,0.0,0.0,0.0,0.0,0.0,2.0,0.0,0.0,0.0,0.0,0.0,0.0,0,3.0,0.1,0.0,0.0,4.0,192.0,8.0,169.0,0,1.0,0.0,1185.0,2.0,0.0,37.43,48.91,3.25,3.24,3.25,3.26,3.28,3.27,3.29,3.28,3.29,3.29,3.29,3.29,3.28,3.29,3.29,3.29,3.29,3.29,3.28,3.29,3.29,3.33,3.25,3.29,37.1,33.7,33.4,33.1,44.5,38.3,39.3,40.8,48.2,38.2,37.7,36.8,37.0,37.0,34.8,34.0,39.2,36.9,40.8,36.6,33.7,35.8,38.8,40.5,25555400,6942.808409721683
1782591569345,1.04,-0.2099999999999999,-0.07,-0.63,2.03,1.05,0.0,0.0,14.45,3.0,0.000333,0.000321,5.09,78.31,17825805415.0,-19.8644035,-43.9724696,0.0,-8.07,0.0,0.0,23.750999999999998,23.750999999999998,213.018,5.0,6.0,0.0,7.0,410.0,17.276999999999997,0,175.10000000000002,414.0,16.288999999999998,0,171.4,0.0,0.0,26.4,0.0,0.0,0.0,2.0,1.0,0.0,110.0,4.0,3.0,0.0,0.0,0.0,0.0,0.0,0.0,0.0,0.0,0.0,2.0,0.0,0.0,0.0,0.0,0.0,0.0,0,3.0,0.1,0.0,0.0,4.0,192.0,8.0,169.0,0,1.0,0.0,1185.0,2.0,0.0,37.43,48.91,3.25,3.24,3.25,3.26,3.28,3.27,3.29,3.28,3.29,3.29,3.29,3.29,3.28,3.29,3.29,3.29,3.29,3.29,3.28,3.29,3.29,3.33,3.25,3.29,37.1,33.7,33.4,33.1,44.5,38.3,39.3,40.8,48.2,38.2,37.7,36.8,37.0,37.0,34.8,34.0,39.2,36.9,40.8,36.6,33.7,35.8,38.8,40.5,25555417,6942.808409721683
1782591569361,1.04,-0.2099999999999999,-0.07,-0.63,1.68,1.05,0.0,0.0,14.45,3.0,0.000333,0.000321,5.09,78.31,17825805415.0,-19.8644035,-43.9724696,0.0,-8.07,0.0,0.0,23.750999999999998,23.750999999999998,213.018,5.0,6.0,0.0,7.0,410.0,17.276999999999997,0,175.10000000000002,414.0,16.288999999999998,0,171.4,0.0,0.0,26.4,0.0,0.0,0.0,2.0,1.0,0.0,110.0,4.0,3.0,0.0,0.0,0.0,0.0,0.0,0.0,0.0,0.0,0.0,2.0,0.0,0.0,0.0,0.0,0.0,0.0,0,3.0,0.1,0.0,0.0,4.0,192.0,8.0,169.0,0,1.0,0.0,1185.0,2.0,0.0,37.43,48.91,3.25,3.24,3.25,3.26,3.28,3.27,3.29,3.28,3.29,3.29,3.29,3.29,3.28,3.29,3.29,3.29,3.29,3.29,3.28,3.29,3.29,3.33,3.25,3.29,37.1,33.7,33.4,33.1,44.5,38.3,39.3,40.8,48.2,38.2,37.7,36.8,37.0,37.0,34.8,34.0,39.2,36.9,40.8,36.6,33.7,35.8,38.8,40.5,25555433,6942.808409721683
1782591569378,1.04,-0.2099999999999999,-0.07,-0.63,1.68,1.05,0.0,0.0,14.45,3.0,0.000333,0.000321,5.09,78.31,17825807683.0,-19.8644035,-43.9724696,0.0,-8.07,0.0,0.0,23.750999999999998,23.750999999999998,213.018,5.0,6.0,0.0,7.0,410.0,17.276999999999997,0,175.10000000000002,414.0,16.288999999999998,0,171.4,0.0,0.0,26.4,0.0,0.0,0.0,2.0,1.0,0.0,110.0,4.0,3.0,0.0,0.0,0.0,0.0,0.0,0.0,0.0,0.0,0.0,2.0,0.0,0.0,0.0,0.0,0.0,0.0,0,3.0,0.1,0.0,0.0,4.0,192.0,8.0,169.0,0,1.0,0.0,1185.0,2.0,0.0,37.43,48.91,3.25,3.24,3.25,3.26,3.28,3.27,3.29,3.28,3.29,3.29,3.29,3.29,3.28,3.29,3.29,3.29,3.29,3.29,3.28,3.29,3.29,3.33,3.25,3.29,37.1,33.7,33.4,33.1,44.5,38.3,39.3,40.8,48.2,38.2,37.7,36.8,37.0,37.0,34.8,34.0,39.2,36.9,40.8,36.6,33.7,35.8,38.8,40.5,25555450,6942.808409721683
1782591569395,1.01,-0.23,-0.16,-1.19,1.19,-1.19,0.0,0.0,14.45,3.0,0.000333,0.000321,5.09,78.31,17825807683.0,-19.8644035,-43.9724696,0.0,-8.07,0.0,0.0,23.750999999999998,23.750999999999998,213.018,5.0,6.0,0.0,7.0,410.0,17.276999999999997,0,175.10000000000002,414.0,16.288999999999998,0,171.4,0.0,0.0,26.4,0.0,0.0,0.0,2.0,1.0,0.0,110.0,4.0,3.0,0.0,0.0,0.0,0.0,0.0,0.0,0.0,0.0,0.0,2.0,0.0,0.0,0.0,0.0,0.0,0.0,0,3.0,0.1,0.0,0.0,4.0,192.0,8.0,169.0,0,1.0,0.0,1185.0,2.0,0.0,37.43,48.91,3.25,3.24,3.25,3.26,3.28,3.27,3.29,3.28,3.29,3.29,3.29,3.29,3.28,3.29,3.29,3.29,3.29,3.29,3.28,3.29,3.29,3.33,3.25,3.29,37.1,33.7,33.4,33.1,44.5,38.3,39.3,40.8,48.2,38.2,37.7,36.8,37.0,37.0,34.8,34.0,39.2,36.9,40.8,36.6,33.7,35.8,38.8,40.5,25555467,6942.808409721683
1782591569428,1.03,-0.23,-0.1499999999999999,-1.19,1.19,-1.19,0.0,0.0,14.45,3.0,0.000333,0.000321,5.09,78.31,17825807683.0,-19.8644035,-43.9724696,0.0,-8.07,0.0,0.0,23.750999999999998,23.750999999999998,213.018,5.0,6.0,0.0,7.0,410.0,17.276999999999997,0,175.10000000000002,414.0,16.288999999999998,0,171.4,0.0,0.0,26.4,0.0,0.0,0.0,2.0,1.0,0.0,110.0,4.0,3.0,0.0,0.0,0.0,0.0,0.0,0.0,0.0,0.0,0.0,2.0,0.0,0.0,0.0,0.0,0.0,0.0,0,3.0,0.1,0.0,0.0,4.0,192.0,8.0,169.0,0,1.0,0.0,1185.0,2.0,0.0,37.43,48.91,3.25,3.24,3.25,3.26,3.28,3.27,3.29,3.28,3.29,3.29,3.29,3.29,3.28,3.29,3.29,3.29,3.29,3.29,3.28,3.29,3.29,3.33,3.25,3.29,37.1,33.7,33.4,33.1,44.5,38.3,39.3,40.8,48.2,38.2,37.7,36.8,37.0,37.0,34.8,34.0,39.2,36.9,40.8,36.6,33.7,35.8,38.8,40.5,25555500,6942.808409721683
1782591569445,1.03,-0.23,-0.1499999999999999,-1.19,1.19,-1.19,0.0,0.0,14.45,3.0,0.000333,0.000321,5.09,78.31,17825807683.0,-19.8644035,-43.9724696,4.8,-4.29,642.0,0.0,23.750999999999998,23.750999999999998,213.018,5.0,6.0,0.0,7.0,410.0,17.276999999999997,0,175.10000000000002,414.0,16.288999999999998,0,171.4,0.0,0.0,26.4,0.0,0.0,0.0,2.0,1.0,0.0,110.0,4.0,3.0,0.0,0.0,0.0,0.0,0.0,0.0,0.0,0.0,0.0,2.0,0.0,0.0,0.0,0.0,0.0,0.0,0,3.0,0.1,0.0,0.0,4.0,192.0,8.0,169.0,0,1.0,0.0,1185.0,2.0,0.0,37.43,48.91,3.25,3.24,3.25,3.26,3.28,3.27,3.29,3.28,3.29,3.29,3.29,3.29,3.28,3.29,3.29,3.29,3.29,3.29,3.28,3.29,3.29,3.33,3.25,3.29,37.1,33.7,33.4,33.1,44.5,38.3,39.3,40.8,48.2,38.2,37.7,36.8,37.0,37.0,34.8,34.0,39.2,36.9,40.8,36.6,33.7,35.8,38.8,40.5,25555517,6942.808409721683
1782591569461,1.03,-0.23,-0.1499999999999999,1.12,2.73,-1.26,0.0,0.0,14.45,3.0,0.000333,0.000321,5.09,78.31,17825807683.0,-19.8644035,-43.9724696,4.8,-4.29,642.0,0.0,23.750999999999998,23.750999999999998,213.018,5.0,6.0,0.0,7.0,410.0,17.276999999999997,0,175.10000000000002,414.0,16.288999999999998,0,171.4,0.0,0.0,26.4,0.0,0.0,0.0,2.0,1.0,0.0,110.0,4.0,3.0,0.0,0.0,0.0,0.0,0.0,0.0,0.0,0.0,0.0,2.0,0.0,0.0,0.0,0.0,0.0,0.0,0,3.0,0.1,0.0,0.0,4.0,192.0,8.0,169.0,0,1.0,0.0,1185.0,2.0,0.0,37.43,48.91,3.24,3.16,3.22,3.23,3.28,3.27,3.29,3.28,3.29,3.29,3.29,3.29,3.28,3.29,3.29,3.29,3.29,3.29,3.28,3.29,3.29,3.33,3.25,3.29,37.1,33.7,33.4,33.1,44.5,38.3,39.3,40.8,48.2,38.2,37.7,36.8,37.0,37.0,34.8,34.0,39.2,36.9,40.8,36.6,33.7,35.8,38.8,40.5,25555533,6942.808409721683
1782591569478,1.03,-0.23,-0.1499999999999999,1.12,2.73,-1.26,0.0,0.0,14.45,3.0,0.000333,0.000321,5.09,78.31,17825807683.0,-19.8644035,-43.9724696,4.8,-4.29,642.0,0.0,23.750999999999998,23.750999999999998,213.018,5.0,6.0,0.0,7.0,410.0,17.276999999999997,0,175.10000000000002,414.0,16.288999999999998,0,171.4,0.0,0.0,26.4,0.0,0.0,0.0,2.0,1.0,0.0,110.0,4.0,3.0,0.0,0.0,0.0,0.0,0.0,0.0,0.0,0.0,0.0,2.0,0.0,0.0,0.0,0.0,0.0,0.0,0,3.0,0.1,0.0,0.0,4.0,192.0,8.0,169.0,0,1.0,0.0,1185.0,2.0,0.0,37.43,48.91,3.24,3.16,3.22,3.23,3.18,3.2,3.2,3.12,3.29,3.29,3.29,3.29,3.28,3.29,3.29,3.29,3.29,3.29,3.28,3.29,3.29,3.33,3.25,3.29,37.1,33.7,33.4,33.1,44.5,38.3,39.3,40.8,48.2,38.2,37.7,36.8,37.0,37.0,34.8,34.0,39.2,36.9,40.8,36.6,33.7,35.8,38.8,40.5,25555550,6942.808409721683
1782591569495,1.03,-0.23,-0.1499999999999999,1.12,2.73,-1.26,0.0,0.0,14.45,3.0,0.000333,0.000321,5.09,78.31,17825807683.0,-19.8644035,-43.9724696,4.8,-4.29,642.0,0.0,20.865,20.865,213.018,5.0,6.0,0.0,7.0,410.0,17.276999999999997,0,175.10000000000002,414.0,16.288999999999998,0,171.4,0.0,0.0,26.4,0.0,0.0,0.0,2.0,1.0,0.0,110.0,4.0,3.0,0.0,0.0,0.0,0.0,0.0,0.0,0.0,0.0,0.0,2.0,0.0,0.0,0.0,0.0,0.0,0.0,0,3.0,0.1,0.0,0.0,4.0,192.0,8.0,169.0,0,1.0,0.0,1185.0,2.0,0.0,37.43,48.91,3.24,3.16,3.22,3.23,3.18,3.2,3.2,3.12,3.27,3.21,2.96,3.26,3.28,3.29,3.29,3.29,3.29,3.29,3.28,3.29,3.29,3.33,3.25,3.29,37.1,33.7,33.4,33.1,44.5,38.3,39.3,40.8,48.2,38.2,37.7,36.8,37.0,37.0,34.8,34.0,39.2,36.9,40.8,36.6,33.7,35.8,38.8,40.5,25555567,6942.808409721683
1782591569511,1.03,-0.23,-0.1499999999999999,1.12,2.73,-1.26,0.0,0.0,14.45,3.0,0.000333,0.000321,5.09,78.31,17825807683.0,-19.8644035,-43.9724696,4.8,-4.29,642.0,0.0,20.865,20.865,213.018,5.0,6.0,0.0,7.0,410.0,17.276999999999997,0,175.10000000000002,414.0,16.288999999999998,0,171.4,0.0,0.0,26.4,0.0,0.0,0.0,2.0,1.0,0.0,110.0,4.0,3.0,0.0,0.0,0.0,0.0,0.0,0.0,0.0,0.0,0.0,2.0,0.0,0.0,0.0,0.0,0.0,0.0,0,3.0,0.1,0.0,0.0,4.0,192.0,8.0,169.0,0,1.0,0.0,1185.0,2.0,0.0,37.43,48.91,3.24,3.16,3.22,3.23,3.18,3.2,3.2,3.12,3.27,3.21,2.96,3.26,3.28,3.24,3.01,3.23,3.29,3.29,3.28,3.29,3.29,3.33,3.25,3.29,37.1,33.7,33.4,33.1,44.5,38.3,39.3,40.8,48.2,38.2,37.7,36.8,37.0,37.0,34.8,34.0,39.2,36.9,40.8,36.6,33.7,35.8,38.8,40.5,25555583,6942.808409721683
1782591569528,1.03,-0.23,-0.1499999999999999,1.12,2.73,-1.26,0.0,0.0,14.45,3.0,0.000333,0.000321,5.09,78.31,17825807683.0,-19.8644035,-43.9724696,4.8,-4.29,642.0,0.0,20.865,20.865,213.018,8.0,8.0,0.0,9.0,410.0,17.276999999999997,0,175.10000000000002,414.0,16.288999999999998,0,171.4,0.0,0.0,26.4,0.0,0.0,0.0,2.0,1.0,0.0,110.0,4.0,3.0,0.0,0.0,0.0,0.0,0.0,0.0,0.0,0.0,0.0,2.0,0.0,0.0,0.0,0.0,0.0,0.0,0,3.0,0.1,0.0,0.0,4.0,192.0,8.0,169.0,0,1.0,0.0,1185.0,2.0,0.0,37.43,48.91,3.24,3.16,3.22,3.23,3.18,3.2,3.2,3.12,3.27,3.21,2.96,3.26,3.28,3.24,3.01,3.23,3.23,3.24,2.91,3.22,3.29,3.33,3.25,3.29,37.1,33.7,33.4,33.1,44.5,38.3,39.3,40.8,48.2,38.2,37.7,36.8,37.0,37.0,34.8,34.0,39.2,36.9,40.8,36.6,33.7,35.8,38.8,40.5,25555600,6942.808409721683
1782591569545,1.03,-0.23,-0.1499999999999999,1.12,2.73,-1.26,0.0,0.0,14.45,3.0,0.000333,0.000321,5.09,78.31,17825807683.0,-19.8644035,-43.9724696,4.8,-4.29,642.0,0.0,20.865,20.865,213.018,8.0,8.0,0.0,9.0,410.0,17.276999999999997,0,175.10000000000002,414.0,16.288999999999998,0,171.4,0.0,0.0,26.4,0.0,0.0,0.0,2.0,1.0,0.0,110.0,4.0,3.0,0.0,0.0,0.0,0.0,0.0,0.0,0.0,0.0,0.0,2.0,0.0,0.0,0.0,0.0,0.0,0.0,0,3.0,0.1,0.0,0.0,4.0,192.0,8.0,169.0,0,1.0,0.0,1185.0,2.0,0.0,37.43,48.91,3.24,3.16,3.22,3.23,3.18,3.2,3.2,3.12,3.27,3.21,2.96,3.26,3.28,3.24,3.01,3.23,3.23,3.24,2.91,3.22,3.29,3.33,3.25,3.29,37.1,33.7,33.4,33.1,44.5,38.3,39.3,40.8,48.2,38.2,37.7,36.8,37.0,37.0,34.8,34.0,39.2,36.9,40.8,36.6,33.7,35.8,38.8,40.5,25555617,6942.808409721683
1782591569561,1.03,-0.23,-0.1499999999999999,1.12,2.73,-1.26,0.0,0.0,14.45,3.0,0.000333,0.000321,5.09,78.31,17825807683.0,-19.8644035,-43.9724696,4.8,-4.29,642.0,0.0,20.865,20.865,213.018,8.0,8.0,0.0,9.0,410.0,17.276999999999997,0,175.10000000000002,414.0,16.288999999999998,0,171.4,0.0,0.0,26.4,0.0,0.0,0.0,2.0,1.0,0.0,110.0,4.0,3.0,0.0,0.0,0.0,0.0,0.0,0.0,0.0,0.0,0.0,2.0,0.0,0.0,0.0,0.0,0.0,0.0,0,3.0,0.1,0.0,0.0,4.0,192.0,8.0,169.0,0,1.0,0.0,1185.0,2.0,0.0,37.43,48.91,3.24,3.16,3.22,3.23,3.18,3.2,3.2,3.12,3.27,3.21,2.96,3.26,3.28,3.24,3.01,3.23,3.23,3.24,2.91,3.22,3.25,3.32,3.04,3.26,37.1,33.7,33.4,33.1,44.5,38.3,39.3,40.8,48.2,38.2,37.7,36.8,37.0,37.0,34.8,34.0,39.2,36.9,40.8,36.6,33.7,35.8,38.8,40.5,25555633,6942.808409721683
1782591569594,1.03,-0.23,-0.1499999999999999,-1.19,3.85,-1.61,0.0,0.0,14.45,3.0,0.000333,0.000321,5.09,78.31,17825807683.0,-19.8644035,-43.9724696,4.8,-4.29,642.0,0.0,20.865,20.865,213.018,8.0,8.0,0.0,9.0,410.0,17.276999999999997,0,175.10000000000002,414.0,16.288999999999998,0,171.4,0.0,0.0,26.4,0.0,0.0,0.0,2.0,1.0,0.0,110.0,4.0,3.0,0.0,0.0,0.0,0.0,0.0,0.0,0.0,0.0,0.0,2.0,0.0,0.0,0.0,0.0,0.0,0.0,0,3.0,0.1,0.0,0.0,4.0,192.0,8.0,169.0,0,1.0,0.0,1185.0,2.0,0.0,40.5,49.63,3.24,3.16,3.22,3.23,3.18,3.2,3.2,3.12,3.27,3.21,2.96,3.26,3.28,3.24,3.01,3.23,3.23,3.24,2.91,3.22,3.25,3.32,3.04,3.26,37.1,33.7,33.4,33.1,44.5,38.3,39.3,40.8,48.2,38.2,37.7,36.8,37.0,37.0,34.8,34.0,39.2,36.9,40.8,36.6,33.7,35.8,38.8,40.5,25555666,6942.808409721683
1782591569611,1.03,-0.23,-0.1499999999999999,-1.19,3.85,-1.61,0.0,0.0,14.45,3.0,0.000333,0.000321,5.09,78.31,17825807683.0,-19.8644035,-43.9724696,4.8,-4.29,642.0,0.0,20.865,20.865,213.018,8.0,8.0,0.0,9.0,410.0,17.276999999999997,0,175.10000000000002,414.0,16.288999999999998,0,171.4,0.0,0.0,26.4,0.0,0.0,0.0,2.0,1.0,0.0,110.0,4.0,3.0,0.0,0.0,0.0,0.0,0.0,0.0,0.0,0.0,0.0,2.0,0.0,0.0,0.0,0.0,0.0,0.0,0,3.0,0.1,0.0,0.0,4.0,192.0,8.0,169.0,0,1.0,0.0,1185.0,2.0,0.0,40.5,49.63,3.24,3.16,3.22,3.23,3.18,3.2,3.2,3.12,3.27,3.21,2.96,3.26,3.28,3.24,3.01,3.23,3.23,3.24,2.91,3.22,3.25,3.32,3.04,3.26,37.1,33.7,33.4,33.1,44.5,38.3,39.3,40.8,48.2,38.2,37.7,36.8,37.0,37.0,34.8,34.0,39.2,36.9,40.8,36.6,33.7,35.8,38.8,40.5,25555683,6942.808409721683
1782591569628,1.03,-0.23,-0.1499999999999999,-1.19,3.85,-1.61,0.0,0.0,14.45,3.0,0.000333,0.000321,5.09,78.31,17825807683.0,-19.8644035,-43.9724696,4.8,-4.29,642.0,0.0,20.865,20.865,213.018,8.0,8.0,0.0,9.0,410.0,17.276999999999997,0,175.10000000000002,414.0,16.288999999999998,0,171.4,0.0,0.0,26.4,0.0,0.0,0.0,2.0,1.0,0.0,110.0,4.0,3.0,0.0,0.0,0.0,0.0,0.0,0.0,0.0,0.0,0.0,2.0,0.0,0.0,0.0,0.0,0.0,0.0,0,3.0,0.1,0.0,0.0,4.0,192.0,8.0,170.0,0,1.0,0.0,1185.0,2.0,0.0,40.5,49.63,3.24,3.16,3.22,3.23,3.18,3.2,3.2,3.12,3.27,3.21,2.96,3.26,3.28,3.24,3.01,3.23,3.23,3.24,2.91,3.22,3.25,3.32,3.04,3.26,37.1,33.7,33.4,33.1,44.5,38.3,39.3,40.8,48.2,38.2,37.7,36.8,37.0,37.0,34.8,34.0,39.2,36.9,40.8,36.6,33.7,35.8,38.8,40.5,25555700,6942.808409721683
1782591569645,1.03,-0.23,-0.1499999999999999,3.71,-0.4899999999999999,1.05,0.0,0.0,14.45,3.0,0.000333,0.000321,5.09,78.31,17825807683.0,-19.8644035,-43.9724696,4.8,-4.29,642.0,0.0,20.865,20.865,213.018,8.0,8.0,0.0,9.0,410.0,17.276999999999997,0,175.10000000000002,414.0,16.288999999999998,0,171.4,0.0,0.0,26.4,0.0,0.0,0.0,2.0,1.0,0.0,110.0,4.0,3.0,0.0,0.0,0.0,0.0,0.0,0.0,0.0,0.0,0.0,2.0,0.0,0.0,0.0,0.0,0.0,0.0,0,3.0,0.1,0.0,0.0,4.0,192.0,8.0,170.0,0,1.0,0.0,1185.0,2.0,0.0,40.5,49.63,3.24,3.16,3.22,3.23,3.18,3.2,3.2,3.12,3.27,3.21,2.96,3.26,3.28,3.24,3.01,3.23,3.23,3.24,2.91,3.22,3.25,3.32,3.04,3.26,37.1,33.7,33.4,33.1,44.5,38.3,39.3,40.8,48.2,38.2,37.7,36.8,37.0,37.0,34.8,34.0,39.2,36.9,40.8,36.6,33.7,35.8,38.8,40.5,25555717,6942.808409721683
1782591569661,1.03,-0.23,-0.1499999999999999,3.71,-0.4899999999999999,1.05,0.0,0.0,14.45,3.0,0.000333,0.000321,5.09,78.31,17825807683.0,-19.8644035,-43.9724696,4.8,-4.29,642.0,0.0,20.865,20.865,213.018,8.0,8.0,0.0,9.0,410.0,17.276999999999997,0,175.10000000000002,414.0,16.288999999999998,0,171.4,0.0,0.0,26.4,0.0,0.0,0.0,2.0,1.0,0.0,110.0,4.0,3.0,0.0,0.0,0.0,0.0,0.0,0.0,0.0,0.0,0.0,2.0,0.0,0.0,0.0,0.0,0.0,0.0,0,3.0,0.1,0.0,0.0,4.0,192.0,8.0,170.0,0,0.0,0.0,1185.0,2.0,0.0,40.5,49.63,3.24,3.16,3.22,3.23,3.18,3.2,3.2,3.12,3.27,3.21,2.96,3.26,3.28,3.24,3.01,3.23,3.23,3.24,2.91,3.22,3.25,3.32,3.04,3.26,37.1,33.7,33.4,33.1,44.5,38.3,39.3,40.8,48.2,38.2,37.7,36.8,37.0,37.0,34.8,34.0,39.2,36.9,40.8,36.6,33.7,35.8,38.8,40.5,25555733,6942.808409721683
1782591569678,1.03,-0.23,-0.1499999999999999,3.71,-0.4899999999999999,1.05,0.0,0.0,14.45,3.0,0.000333,0.000321,5.09,78.31,17825807683.0,-19.8644035,-43.9724696,4.8,-4.29,642.0,0.0,20.865,20.865,213.018,8.0,8.0,0.0,9.0,410.0,17.276999999999997,0,175.10000000000002,414.0,16.288999999999998,0,171.4,0.0,0.0,26.4,0.0,0.0,0.0,2.0,1.0,0.0,110.0,4.0,3.0,0.0,0.0,0.0,0.0,0.0,0.0,0.0,0.0,0.0,2.0,0.0,0.0,0.0,0.0,0.0,0.0,0,3.0,0.1,0.0,0.0,4.0,192.0,8.0,170.0,0,0.0,0.0,1185.0,2.0,0.0,40.5,49.63,3.24,3.16,3.22,3.23,3.18,3.2,3.2,3.12,3.27,3.21,2.96,3.26,3.28,3.24,3.01,3.23,3.23,3.24,2.91,3.22,3.25,3.32,3.04,3.26,37.1,33.7,33.4,33.1,44.5,38.3,39.3,40.8,48.2,38.2,37.7,36.8,37.0,37.0,34.8,34.0,39.2,36.9,40.8,36.6,33.7,35.8,38.8,40.5,25555750,6942.808409721683
1782591569695,1.03,-0.23,-0.1499999999999999,2.8,-0.56,1.12,0.0,0.0,14.45,3.0,0.000333,0.000321,5.09,78.31,17825807683.0,-19.8644035,-43.9724696,4.8,-4.29,642.0,0.0,20.865,20.865,213.018,8.0,8.0,0.0,9.0,410.0,17.276999999999997,0,175.10000000000002,414.0,16.288999999999998,0,171.4,0.0,0.0,26.4,0.0,0.0,0.0,2.0,1.0,0.0,110.0,4.0,3.0,0.0,0.0,0.0,0.0,0.0,0.0,0.0,0.0,0.0,2.0,0.0,0.0,0.0,0.0,0.0,0.0,0,3.0,0.1,0.0,0.0,4.0,192.0,8.0,170.0,0,0.0,0.0,1185.0,2.0,0.0,40.5,49.63,3.24,3.16,3.22,3.23,3.18,3.2,3.2,3.12,3.27,3.21,2.96,3.26,3.28,3.24,3.01,3.23,3.23,3.24,2.91,3.22,3.25,3.32,3.04,3.26,37.1,33.7,33.4,33.1,44.5,38.3,39.3,40.8,48.2,38.2,37.7,36.8,37.0,37.0,34.8,34.0,39.2,36.9,40.8,36.6,33.7,35.8,38.8,40.5,25555767,6942.808409721683
1782591569711,0.98,-0.26,-0.11,2.8,-0.56,1.12,0.0,0.0,14.45,3.0,0.000333,0.000321,5.09,78.31,17825807683.0,-19.8644035,-43.9724696,4.8,-4.29,642.0,0.0,20.865,20.865,213.018,8.0,8.0,0.0,9.0,410.0,17.276999999999997,0,175.10000000000002,414.0,16.288999999999998,0,171.4,0.0,0.0,26.4,0.0,0.0,0.0,2.0,1.0,0.0,110.0,4.0,3.0,0.0,0.0,0.0,0.0,0.0,0.0,0.0,0.0,0.0,2.0,0.0,0.0,0.0,0.0,0.0,0.0,0,3.0,0.1,0.0,0.0,4.0,192.0,8.0,170.0,0,0.0,0.0,1185.0,2.0,0.0,40.5,49.63,3.24,3.16,3.22,3.23,3.18,3.2,3.2,3.12,3.27,3.21,2.96,3.26,3.28,3.24,3.01,3.23,3.23,3.24,2.91,3.22,3.25,3.32,3.04,3.26,37.1,33.7,33.4,33.1,44.5,38.3,39.3,40.8,48.2,38.2,37.7,36.8,37.0,37.0,34.8,34.0,39.2,36.9,40.8,36.6,33.7,35.8,38.8,40.5,25555783,6942.808409721683
1782591569728,0.98,-0.26,-0.11,2.8,-0.56,1.12,0.0,0.0,14.45,3.0,0.000333,0.000321,5.09,78.31,17825807683.0,-19.8644035,-43.9724696,4.8,-4.29,642.0,0.0,20.865,20.865,213.018,8.0,8.0,0.0,9.0,410.0,17.276999999999997,0,175.10000000000002,414.0,16.288999999999998,0,171.4,0.0,0.0,26.4,0.0,0.0,0.0,2.0,1.0,0.0,110.0,4.0,3.0,0.0,0.0,0.0,0.0,0.0,0.0,0.0,0.0,0.0,2.0,0.0,0.0,0.0,0.0,0.0,0.0,0,3.0,0.1,0.0,0.0,4.0,192.0,8.0,170.0,0,0.0,0.0,1185.0,2.0,0.0,40.5,49.63,3.24,3.16,3.22,3.23,3.18,3.2,3.2,3.12,3.27,3.21,2.96,3.26,3.28,3.24,3.01,3.23,3.23,3.24,2.91,3.22,3.25,3.32,3.04,3.26,37.1,33.7,33.4,33.1,44.5,38.3,39.3,40.8,48.2,38.2,37.7,36.8,37.0,37.0,34.8,34.0,39.2,36.9,40.8,36.6,33.7,35.8,38.8,40.5,25555800,6942.808409721683
1782591569744,0.98,-0.26,-0.11,2.8,-0.56,0.8399999999999999,0.0,0.0,14.45,3.0,0.000333,0.000321,5.09,78.31,17825807683.0,-19.8644035,-43.9724696,4.8,-4.29,642.0,0.0,20.865,20.865,213.018,8.0,8.0,0.0,9.0,410.0,17.276999999999997,0,175.10000000000002,414.0,16.288999999999998,0,171.4,0.0,0.0,26.4,0.0,0.0,0.0,2.0,1.0,0.0,110.0,4.0,3.0,0.0,0.0,0.0,0.0,0.0,0.0,0.0,0.0,0.0,2.0,0.0,0.0,0.0,0.0,0.0,0.0,0,3.0,0.1,0.0,0.0,4.0,192.0,8.0,170.0,0,0.0,0.0,1185.0,2.0,0.0,40.5,49.63,3.24,3.16,3.22,3.23,3.18,3.2,3.2,3.12,3.27,3.21,2.96,3.26,3.28,3.24,3.01,3.23,3.23,3.24,2.91,3.22,3.25,3.32,3.04,3.26,37.1,33.7,33.4,33.1,44.5,38.3,39.3,40.8,48.2,38.2,37.7,36.8,37.0,37.0,34.8,34.0,39.2,36.9,40.8,36.6,33.7,35.8,38.8,40.5,25555816,6942.808409721683
