timestamp,THROTTLE,BRAKE,ECU_MODE_ID,TORQUE_GAIN,TORQUE_REF_LEFT_MOTOR,TORQUE_REF_RIGHT_MOTOR,LEFT_MOTOR_RPM,LEFT_MOTOR_TORQUE,LEFT_MOTOR_POWER,LEFT_MOTOR_CURRENT,RIGHT_MOTOR_RPM,RIGHT_MOTOR_TORQUE,RIGHT_MOTOR_POWER,RIGHT_MOTOR_CURRENT,REAR_LEFT_WHEEL_SPEED,REAR_RIGHT_WHEEL_SPEED,FRONT_LEFT_WHEEL_SPEED,FRONT_RIGHT_WHEEL_SPEED,ACCEL_LONGITUDINAL,ACCEL_LATERAL,ACCEL_NORMAL,VEL_ANGULAR_YAW,VEL_ANGULAR_PITCH,VEL_ANGULAR_ROLL,ELETROBUILD_TEMPERATURE,STACK_1_CELL_1,STACK_1_CELL_2,STACK_1_CELL_3,STACK_1_CELL_4,STACK_2_CELL_1,STACK_2_CELL_2,STACK_2_CELL_3,STACK_2_CELL_4,STACK_3_CELL_1,STACK_3_CELL_2,STACK_3_CELL_3,STACK_3_CELL_4,STACK_4_CELL_1,STACK_4_CELL_2,STACK_4_CELL_3,STACK_4_CELL_4,STACK_5_CELL_1,STACK_5_CELL_2,STACK_5_CELL_3,STACK_5_CELL_4,STACK_6_CELL_1,STACK_6_CELL_2,STACK_6_CELL_3,STACK_6_CELL_4,MAX_VOLTAGE,MIN_VOLTAGE,SHUNT_CURRENT,BMS_MODE_ID,BMS_ERROR_ID,AIR_P,AIR_N,t,VEHICLE_SPEED,TOTAL_VOLTAGE,HODOMETRO
1765225605019,0.0,0.0,2.0,25.0,0.0,0.0,0.0,0.0,0.0,0.0,0.0,0.0,0.0,0.0,0.0,0.0,0.0,0.0,-0.014152,-0.002806,0.99186,-0.6300000000000001,0.35000000000000003,0.0,25.0,3.29,3.32,3.28,3.28,3.27,3.28,3.28,3.28,3.31,3.31,3.31,3.3,3.27,3.28,3.27,3.29,3.29,3.28,3.29,3.28,3.31,3.31,3.31,3.3,3.32,3.27,44.0,1.0,0.0,1.0,1.0,7099993,0.0,78.99000000000001,1401.0845648052734
1765225605036,0.0,0.0,2.0,25.0,0.0,0.0,0.0,0.0,0.0,0.0,0.0,0.0,0.0,0.0,0.0,0.0,0.0,0.0,-0.014152,-0.002806,0.99186,-0.6300000000000001,0.35000000000000003,0.0,25.0,3.29,3.32,3.28,3.28,3.27,3.28,3.28,3.28,3.31,3.31,3.31,3.3,3.27,3.28,3.27,3.29,3.29,3.28,3.29,3.28,3.31,3.31,3.31,3.3,3.32,3.27,44.0,1.0,0.0,1.0,1.0,7100010,0.0,78.99000000000001,1401.0845648052734
1765225605052,0.0,0.0,2.0,25.0,0.0,0.0,0.0,0.0,0.0,0.0,0.0,0.0,0.0,0.0,0.0,0.0,0.0,0.0,-0.014152,-0.002806,0.99186,-0.6300000000000001,0.35000000000000003,0.0,25.0,3.29,3.32,3.28,3.28,3.27,3.28,3.28,3.28,3.31,3.31,3.31,3.3,3.27,3.28,3.27,3.29,3.29,3.28,3.29,3.28,3.31,3.31,3.31,3.3,3.32,3.27,44.0,1.0,0.0,1.0,1.0,7100026,0.0,78.99000000000001,1401.0845648052734
1765225605087,0.0,0.0,2.0,25.0,0.0,0.0,0.0,0.0,0.0,0.0,0.0,0.0,0.0,0.0,0.0,0.0,0.0,0.0,-0.018666,0.00061,0.9891759999999999,-0.6300000000000001,0.35000000000000003,0.0,25.0,3.29,3.32,3.28,3.28,3.27,3.28,3.28,3.28,3.31,3.31,3.31,3.3,3.27,3.28,3.27,3.29,3.29,3.28,3.29,3.28,3.31,3.31,3.31,3.3,3.32,3.27,44.0,1.0,0.0,1.0,1.0,7100061,0.0,78.99000000000001,1401.0845648052734
1765225605135,0.0,0.0,2.0,25.0,0.0,0.0,0.0,0.0,0.0,0.0,0.0,0.0,0.0,0.0,0.0,0.0,0.0,0.0,-0.018666,0.00061,0.9891759999999999,-0.56,0.28,-0.14,25.0,3.29,3.32,3.28,3.28,3.27,3.28,3.28,3.28,3.31,3.31,3.31,3.3,3.27,3.28,3.27,3.29,3.29,3.28,3.29,3.28,3.31,3.31,3.31,3.3,3.32,3.27,44.0,1.0,0.0,1.0,1.0,7100109,0.0,78.99000000000001,1401.0845648052734
1765225605151,0.0,0.0,2.0,25.0,0.0,0.0,0.0,0.0,0.0,0.0,0.0,0.0,0.0,0.0,0.0,0.0,0.0,0.0,-0.018666,0.00061,0.9891759999999999,-0.56,0.28,-0.14,25.0,3.29,3.32,3.28,3.28,3.27,3.28,3.28,3.28,3.31,3.31,3.31,3.3,3.27,3.28,3.27,3.29,3.29,3.28,3.29,3.28,3.31,3.31,3.31,3.3,3.32,3.27,44.0,1.0,0.0,1.0,1.0,7100125,0.0,78.99000000000001,1401.0845648052734
1765225605202,0.0,0.0,2.0,25.0,0.0,0.0,0.0,0.0,0.0,0.0,0.0,0.0,0.0,0.0,0.0,0.0,0.0,0.0,-0.018666,0.00061,0.9891759999999999,-0.56,0.28,-0.14,25.0,3.29,3.32,3.28,3.28,3.27,3.28,3.28,3.28,3.31,3.31,3.31,3.3,3.27,3.28,3.27,3.29,3.29,3.28,3.29,3.28,3.31,3.31,3.31,3.3,3.32,3.27,44.0,1.0,0.0,1.0,1.0,7100176,0.0,78.99000000000001,1401.0845648052734
1765225605252,0.0,0.0,2.0,25.0,0.0,0.0,0.0,0.0,0.0,0.0,0.0,0.0,0.0,0.0,0.0,0.0,0.0,0.0,-0.017079999999999998,-0.00366,0.99674,-0.6300000000000001,0.42000000000000004,0.0,25.0,3.29,3.32,3.28,3.28,3.27,3.28,3.28,3.28,3.31,3.31,3.31,3.3,3.27,3.28,3.27,3.29,3.29,3.28,3.29,3.28,3.31,3.31,3.31,3.3,3.32,3.27,44.0,1.0,0.0,1.0,1.0,7100226,0.0,78.99000000000001,1401.0845648052734
1765225605268,0.0,0.0,2.0,25.0,0.0,0.0,0.0,0.0,0.0,0.0,0.0,0.0,0.0,0.0,0.0,0.0,0.0,0.0,-0.017079999999999998,-0.00366,0.99674,-0.6300000000000001,0.42000000000000004,0.0,25.0,3.29,3.32,3.28,3.28,3.27,3.28,3.28,3.28,3.31,3.31,3.31,3.3,3.27,3.28,3.27,3.29,3.29,3.28,3.29,3.28,3.31,3.31,3.31,3.3,3.32,3.27,44.0,1.0,0.0,1.0,1.0,7100242,0.0,78.99000000000001,1401.0845648052734
1765225605302,0.0,0.0,2.0,25.0,0.0,0.0,0.0,0.0,0.0,0.0,0.0,0.0,0.0,0.0,0.0,0.0,0.0,0.0,-0.017079999999999998,-0.00366,0.99674,-0.6300000000000001,0.42000000000000004,0.0,25.0,3.29,3.32,3.28,3.28,3.27,3.28,3.28,3.28,3.31,3.31,3.31,3.3,3.27,3.28,3.27,3.29,3.29,3.28,3.29,3.28,3.31,3.31,3.31,3.3,3.32,3.27,44.0,1.0,0.0,1.0,1.0,7100276,0.0,78.99000000000001,1401.0845648052734
1765225605318,0.0,0.0,2.0,25.0,0.0,0.0,0.0,0.0,0.0,0.0,0.0,0.0,0.0,0.0,0.0,0.0,0.0,0.0,-0.017079999999999998,-0.00366,0.99674,-0.6300000000000001,0.42000000000000004,0.0,25.0,3.29,3.32,3.28,3.28,3.27,3.28,3.28,3.28,3.31,3.31,3.31,3.3,3.27,3.28,3.27,3.29,3.29,3.28,3.29,3.28,3.31,3.31,3.31,3.3,3.32,3.27,44.0,1.0,0.0,1.0,1.0,7100292,0.0,78.99000000000001,1401.0845648052734
1765225605337,0.0,0.0,2.0,25.0,0.0,0.0,0.0,0.0,0.0,0.0,0.0,0.0,0.0,0.0,0.0,0.0,0.0,0.0,-0.017079999999999998,-0.00366,0.99674,-0.6300000000000001,0.42000000000000004,0.0,25.0,3.29,3.32,3.28,3.28,3.27,3.28,3.28,3.28,3.31,3.31,3.31,3.3,3.27,3.28,3.27,3.29,3.29,3.28,3.29,3.28,3.31,3.31,3.31,3.3,3.32,3.27,44.0,1.0,0.0,1.0,1.0,7100311,0.0,78.99000000000001,1401.0845648052734
1765225605370,0.0,0.0,2.0,25.0,0.0,0.0,0.0,0.0,0.0,0.0,0.0,0.0,0.0,0.0,0.0,0.0,0.0,0.0,-0.017079999999999998,-0.00366,0.99674,-0.6300000000000001,0.42000000000000004,0.0,25.0,3.29,3.32,3.28,3.28,3.27,3.28,3.28,3.28,3.31,3.31,3.31,3.3,3.27,3.28,3.27,3.29,3.29,3.28,3.29,3.28,3.31,3.31,3.31,3.3,3.32,3.27,44.0,1.0,0.0,1.0,1.0,7100344,0.0,78.99000000000001,1401.0845648052734
1765225605401,0.0,0.0,2.0,25.0,0.0,0.0,0.0,0.0,0.0,0.0,0.0,0.0,0.0,0.0,0.0,0.0,0.0,0.0,-0.017079999999999998,-0.00366,0.99674,-0.6300000000000001,0.42000000000000004,0.0,25.0,3.3,3.32,3.31,3.29,3.27,3.28,3.28,3.28,3.31,3.31,3.31,3.3,3.27,3.28,3.27,3.29,3.29,3.28,3.29,3.28,3.31,3.31,3.31,3.3,3.32,3.27,44.0,1.0,0.0,1.0,1.0,7100375,0.0,79.04,1401.0845648052734
1765225605434,0.0,0.0,2.0,25.0,0.0,0.0,0.0,0.0,0.0,0.0,0.0,0.0,0.0,0.0,0.0,0.0,0.0,0.0,-0.017079999999999998,-0.00366,0.99674,-0.6300000000000001,0.42000000000000004,0.0,25.0,3.3,3.32,3.31,3.29,3.28,3.29,3.28,3.28,3.31,3.31,3.31,3.3,3.27,3.28,3.27,3.29,3.29,3.28,3.29,3.28,3.31,3.31,3.31,3.3,3.32,3.27,44.0,1.0,0.0,1.0,1.0,7100408,0.0,79.06,1401.0845648052734
1765225605451,0.0,0.0,2.0,25.0,0.0,0.0,0.0,0.0,0.0,0.0,0.0,0.0,0.0,0.0,0.0,0.0,0.0,0.0,-0.017079999999999998,-0.00366,0.99674,-0.6300000000000001,0.42000000000000004,0.0,25.0,3.3,3.32,3.31,3.29,3.28,3.29,3.28,3.28,3.32,3.32,3.32,3.31,3.27,3.28,3.27,3.29,3.29,3.28,3.29,3.28,3.31,3.31,3.31,3.3,3.32,3.27,44.0,1.0,0.0,1.0,1.0,7100425,0.0,79.10000000000001,1401.0845648052734
1765225605469,0.0,0.0,2.0,25.0,0.0,0.0,0.0,0.0,0.0,0.0,0.0,0.0,0.0,0.0,0.0,0.0,0.0,0.0,-0.017079999999999998,-0.00366,0.99674,-0.6300000000000001,0.42000000000000004,0.0,25.0,3.3,3.32,3.31,3.29,3.28,3.29,3.28,3.28,3.32,3.32,3.32,3.31,3.28,3.28,3.28,3.29,3.29,3.28,3.29,3.28,3.31,3.31,3.31,3.3,3.32,3.27,44.0,1.0,0.0,1.0,1.0,7100443,0.0,79.12,1401.0845648052734
1765225605501,0.0,0.0,2.0,25.0,0.0,0.0,0.0,0.0,0.0,0.0,0.0,0.0,0.0,0.0,0.0,0.0,0.0,0.0,-0.017079999999999998,-0.00366,0.99674,-0.6300000000000001,0.42000000000000004,0.0,25.0,3.3,3.32,3.31,3.29,3.28,3.29,3.28,3.28,3.32,3.32,3.32,3.31,3.28,3.28,3.28,3.29,3.29,3.29,3.29,3.29,3.31,3.31,3.31,3.3,3.32,3.27,44.0,1.0,0.0,1.0,1.0,7100475,0.0,79.14000000000001,1401.0845648052734
1765225605518,0.0,0.0,2.0,25.0,0.0,0.0,0.0,0.0,0.0,0.0,0.0,0.0,0.0,0.0,0.0,0.0,0.0,0.0,-0.017079999999999998,-0.00366,0.99674,-0.6300000000000001,0.42000000000000004,0.0,25.0,3.3,3.32,3.31,3.29,3.28,3.29,3.28,3.28,3.32,3.32,3.32,3.31,3.28,3.28,3.28,3.29,3.29,3.29,3.29,3.29,3.32,3.32,3.32,3.31,3.32,3.27,44.0,1.0,0.0,1.0,1.0,7100492,0.0,79.17999999999999,1401.0845648052734
1765225605553,0.0,0.0,2.0,25.0,0.0,0.0,0.0,0.0,0.0,0.0,0.0,0.0,0.0,0.0,0.0,0.0,0.0,0.0,-0.017079999999999998,-0.00366,0.99674,-0.6300000000000001,0.42000000000000004,0.0,25.0,3.3,3.32,3.31,3.29,3.28,3.29,3.28,3.28,3.32,3.32,3.32,3.31,3.28,3.28,3.28,3.29,3.29,3.29,3.29,3.29,3.32,3.32,3.32,3.31,3.32,3.27,44.0,1.0,0.0,1.0,1.0,7100527,0.0,79.17999999999999,1401.0845648052734
1765225605585,0.0,0.0,2.0,25.0,0.0,0.0,0.0,0.0,0.0,0.0,0.0,0.0,0.0,0.0,0.0,0.0,0.0,0.0,-0.017079999999999998,-0.00366,0.99674,-0.6300000000000001,0.42000000000000004,0.0,25.0,3.3,3.32,3.31,3.3,3.28,3.29,3.28,3.28,3.32,3.32,3.32,3.31,3.28,3.28,3.28,3.29,3.29,3.29,3.29,3.29,3.32,3.32,3.32,3.31,3.32,3.27,44.0,1.0,0.0,1.0,1.0,7100559,0.0,79.18999999999998,1401.0845648052734
1765225605618,0.0,0.0,2.0,25.0,0.0,0.0,0.0,0.0,0.0,0.0,0.0,0.0,0.0,0.0,0.0,0.0,0.0,0.0,-0.017079999999999998,-0.00366,0.99674,-0.6300000000000001,0.42000000000000004,0.0,25.0,3.3,3.32,3.31,3.3,3.28,3.29,3.28,3.28,3.32,3.32,3.32,3.31,3.28,3.28,3.28,3.29,3.29,3.29,3.29,3.29,3.32,3.32,3.32,3.31,3.32,3.27,44.0,1.0,0.0,1.0,1.0,7100592,0.0,79.18999999999998,1401.0845648052734
1765225605651,0.0,0.0,2.0,25.0,0.0,0.0,0.0,0.0,0.0,0.0,0.0,0.0,0.0,0.0,0.0,0.0,0.0,0.0,-0.017079999999999998,-0.00366,0.99674,-0.6300000000000001,0.42000000000000004,0.0,25.0,3.3,3.32,3.31,3.3,3.28,3.29,3.28,3.28,3.32,3.32,3.32,3.31,3.28,3.28,3.28,3.29,3.29,3.29,3.29,3.29,3.32,3.32,3.32,3.31,3.32,3.27,44.0,1.0,0.0,1.0,1.0,7100625,0.0,79.18999999999998,1401.0845648052734
1765225605667,0.0,0.0,2.0,25.0,0.0,0.0,0.0,0.0,0.0,0.0,0.0,0.0,0.0,0.0,0.0,0.0,0.0,0.0,-0.015738,-0.000244,0.990762,-0.6300000000000001,0.42000000000000004,0.0,25.0,3.3,3.32,3.31,3.3,3.28,3.29,3.28,3.28,3.32,3.32,3.32,3.31,3.28,3.28,3.28,3.29,3.29,3.29,3.29,3.29,3.32,3.32,3.32,3.31,3.32,3.27,44.0,1.0,0.0,1.0,1.0,7100641,0.0,79.18999999999998,1401.0845648052734
1765225605685,0.0,0.0,2.0,25.0,0.0,0.0,0.0,0.0,0.0,0.0,0.0,0.0,0.0,0.0,0.0,0.0,0.0,0.0,-0.015738,-0.000244,0.990762,-0.6300000000000001,0.42000000000000004,0.0,25.0,3.3,3.32,3.31,3.3,3.28,3.29,3.28,3.28,3.32,3.32,3.32,3.31,3.28,3.28,3.28,3.29,3.29,3.29,3.29,3.29,3.32,3.32,3.32,3.31,3.32,3.27,44.0,1.0,0.0,1.0,1.0,7100659,0.0,79.18999999999998,1401.0845648052734
1765225605719,0.0,0.0,2.0,25.0,0.0,0.0,0.0,0.0,0.0,0.0,0.0,0.0,0.0,0.0,0.0,0.0,0.0,0.0,-0.015738,-0.000244,0.990762,-0.6300000000000001,0.28,0.07,25.0,3.3,3.32,3.31,3.3,3.28,3.29,3.28,3.28,3.32,3.32,3.32,3.31,3.28,3.28,3.28,3.29,3.29,3.29,3.29,3.29,3.32,3.32,3.32,3.31,3.32,3.27,44.0,1.0,0.0,1.0,1.0,7100693,0.0,79.18999999999998,1401.0845648052734
1765225605751,0.0,0.0,2.0,25.0,0.0,0.0,0.0,0.0,0.0,0.0,0.0,0.0,0.0,0.0,0.0,0.0,0.0,0.0,-0.015738,-0.000244,0.990762,-0.6300000000000001,0.28,0.07,25.0,3.3,3.32,3.31,3.3,3.28,3.29,3.28,3.28,3.32,3.32,3.32,3.31,3.28,3.28,3.28,3.29,3.29,3.29,3.29,3.29,3.32,3.32,3.32,3.31,3.32,3.27,44.0,1.0,0.0,1.0,1.0,7100725,0.0,79.18999999999998,1401.0845648052734
1765225605785,0.0,0.0,2.0,25.0,0.0,0.0,0.0,0.0,0.0,0.0,0.0,0.0,0.0,0.0,0.0,0.0,0.0,0.0,-0.015738,-0.000244,0.990762,-0.6300000000000001,0.28,0.07,25.0,3.3,3.32,3.31,3.3,3.28,3.29,3.28,3.28,3.32,3.32,3.32,3.31,3.28,3.28,3.28,3.29,3.29,3.29,3.29,3.29,3.32,3.32,3.32,3.31,3.32,3.27,44.0,1.0,0.0,1.0,1.0,7100759,0.0,79.18999999999998,1401.0845648052734
1765225605801,0.0,0.0,2.0,25.0,0.0,0.0,0.0,0.0,0.0,0.0,0.0,0.0,0.0,0.0,0.0,0.0,0.0,0.0,-0.015738,-0.000244,0.990762,-0.6300000000000001,0.28,0.07,25.0,3.3,3.32,3.31,3.3,3.28,3.29,3.28,3.28,3.32,3.32,3.32,3.31,3.28,3.28,3.28,3.29,3.29,3.29,3.29,3.29,3.32,3.32,3.32,3.31,3.32,3.27,44.0,1.0,0.0,1.0,1.0,7100775,0.0,79.18999999999998,1401.0845648052734
1765225605818,0.0,0.0,2.0,25.0,0.0,0.0,0.0,0.0,0.0,0.0,0.0,0.0,0.0,0.0,0.0,0.0,0.0,0.0,-0.017324,0.000366,0.994178,-0.6300000000000001,0.28,0.07,25.0,3.3,3.32,3.31,3.3,3.28,3.29,3.28,3.28,3.32,3.32,3.32,3.31,3.28,3.28,3.28,3.29,3.29,3.29,3.29,3.29,3.32,3.32,3.32,3.31,3.32,3.27,44.0,1.0,0.0,1.0,1.0,7100792,0.0,79.18999999999998,1401.0845648052734
1765225605836,0.0,0.0,2.0,25.0,0.0,0.0,0.0,0.0,0.0,0.0,0.0,0.0,0.0,0.0,0.0,0.0,0.0,0.0,-0.017324,0.000366,0.994178,-0.6300000000000001,0.28,0.07,25.0,3.3,3.32,3.31,3.3,3.28,3.29,3.28,3.28,3.32,3.32,3.32,3.31,3.28,3.28,3.28,3.29,3.29,3.29,3.29,3.29,3.32,3.32,3.32,3.31,3.32,3.27,44.0,1.0,0.0,1.0,1.0,7100810,0.0,79.18999999999998,1401.0845648052734
1765225605886,0.0,0.0,2.0,25.0,0.0,0.0,0.0,0.0,0.0,0.0,0.0,0.0,0.0,0.0,0.0,0.0,0.0,0.0,-0.017324,0.000366,0.994178,-0.56,0.42000000000000004,0.0,25.0,3.3,3.32,3.31,3.3,3.28,3.29,3.28,3.28,3.32,3.32,3.32,3.31,3.28,3.28,3.28,3.29,3.29,3.29,3.29,3.29,3.32,3.32,3.32,3.31,3.32,3.27,44.0,1.0,0.0,1.0,1.0,7100860,0.0,79.18999999999998,1401.0845648052734
1765225605902,0.0,0.0,2.0,25.0,0.0,0.0,0.0,0.0,0.0,0.0,0.0,0.0,0.0,0.0,0.0,0.0,0.0,0.0,-0.017324,0.000366,0.994178,-0.56,0.42000000000000004,0.0,25.0,3.3,3.32,3.31,3.3,3.28,3.29,3.28,3.28,3.32,3.32,3.32,3.31,3.28,3.28,3.28,3.29,3.29,3.29,3.29,3.29,3.32,3.32,3.32,3.31,3.32,3.27,44.0,1.0,0.0,1.0,1.0,7100876,0.0,79.18999999999998,1401.0845648052734
1765225605934,0.0,0.0,2.0,25.0,0.0,0.0,0.0,0.0,0.0,0.0,0.0,0.0,0.0,0.0,0.0,0.0,0.0,0.0,-0.017324,0.000366,0.994178,-0.56,0.42000000000000004,0.0,25.0,3.3,3.32,3.31,3.3,3.28,3.29,3.28,3.28,3.32,3.32,3.32,3.31,3.28,3.28,3.28,3.29,3.29,3.29,3.29,3.29,3.32,3.32,3.32,3.31,3.32,3.27,44.0,1.0,0.0,1.0,1.0,7100908,0.0,79.18999999999998,1401.0845648052734
1765225605983,0.0,0.0,2.0,25.0,0.0,0.0,0.0,0.0,0.0,0.0,0.0,0.0,0.0,0.0,0.0,0.0,0.0,0.0,-0.018422,0.00183,0.997594,-0.56,0.42000000000000004,0.0,25.0,3.3,3.32,3.31,3.3,3.28,3.29,3.28,3.28,3.32,3.32,3.32,3.31,3.28,3.28,3.28,3.29,3.29,3.29,3.29,3.29,3.32,3.32,3.32,3.31,3.32,3.27,44.0,1.0,0.0,1.0,1.0,7100957,0.0,79.18999999999998,1401.0845648052734
1765225606001,0.0,0.0,2.0,25.0,0.0,0.0,0.0,0.0,0.0,0.0,0.0,0.0,0.0,0.0,0.0,0.0,0.0,0.0,-0.018422,0.00183,0.997594,-0.56,0.28,0.28,25.0,3.3,3.32,3.31,3.3,3.28,3.29,3.28,3.28,3.32,3.32,3.32,3.31,3.28,3.28,3.28,3.29,3.29,3.29,3.29,3.29,3.32,3.32,3.32,3.31,3.32,3.27,44.0,1.0,0.0,1.0,1.0,7100975,0.0,79.18999999999998,1401.0845648052734
1765225606017,0.0,0.0,2.0,25.0,0.0,0.0,0.0,0.0,0.0,0.0,0.0,0.0,0.0,0.0,0.0,0.0,0.0,0.0,-0.018422,0.00183,0.997594,-0.56,0.28,0.28,25.0,3.3,3.32,3.31,3.3,3.28,3.29,3.28,3.28,3.32,3.32,3.32,3.31,3.28,3.28,3.28,3.29,3.29,3.29,3.29,3.29,3.32,3.32,3.32,3.31,3.32,3.27,44.0,1.0,0.0,1.0,1.0,7100991,0.0,79.18999999999998,1401.0845648052734
1765225606051,0.0,0.0,2.0,25.0,0.0,0.0,0.0,0.0,0.0,0.0,0.0,0.0,0.0,0.0,0.0,0.0,0.0,0.0,-0.018422,0.00183,0.997594,-0.56,0.28,0.28,25.0,3.3,3.32,3.31,3.3,3.28,3.29,3.28,3.28,3.32,3.32,3.32,3.31,3.28,3.28,3.28,3.29,3.29,3.29,3.29,3.29,3.32,3.32,3.32,3.31,3.32,3.27,44.0,1.0,0.0,1.0,1.0,7101025,0.0,79.18999999999998,1401.0845648052734
1765225606068,0.0,0.0,2.0,25.0,0.0,0.0,0.0,0.0,0.0,0.0,0.0,0.0,0.0,0.0,0.0,0.0,0.0,0.0,-0.018422,0.00183,0.997594,-0.56,0.28,0.28,25.0,3.3,3.32,3.31,3.3,3.28,3.29,3.28,3.28,3.32,3.32,3.32,3.31,3.28,3.28,3.28,3.29,3.29,3.29,3.29,3.29,3.32,3.32,3.32,3.31,3.32,3.27,44.0,1.0,0.0,1.0,1.0,7101042,0.0,79.18999999999998,1401.0845648052734
1765225606084,0.0,0.0,2.0,25.0,0.0,0.0,0.0,0.0,0.0,0.0,0.0,0.0,0.0,0.0,0.0,0.0,0.0,0.0,-0.018422,0.00183,0.997594,-0.56,0.28,0.28,25.0,3.3,3.32,3.31,3.3,3.28,3.29,3.28,3.28,3.32,3.32,3.32,3.31,3.28,3.28,3.28,3.29,3.29,3.29,3.29,3.29,3.32,3.32,3.32,3.31,3.32,3.27,44.0,1.0,0.0,1.0,1.0,7101058,0.0,79.18999999999998,1401.0845648052734
1765225606118,0.0,0.0,2.0,25.0,0.0,0.0,0.0,0.0,0.0,0.0,0.0,0.0,0.0,0.0,0.0,0.0,0.0,0.0,-0.018422,0.00183,0.997594,-0.56,0.28,0.28,25.0,3.3,3.32,3.31,3.3,3.28,3.29,3.28,3.28,3.32,3.32,3.32,3.31,3.28,3.28,3.28,3.29,3.29,3.29,3.29,3.29,3.32,3.32,3.32,3.31,3.32,3.27,44.0,1.0,0.0,1.0,1.0,7101092,0.0,79.18999999999998,1401.0845648052734
1765225606149,0.0,0.0,2.0,25.0,0.0,0.0,0.0,0.0,0.0,0.0,0.0,0.0,0.0,0.0,0.0,0.0,0.0,0.0,-0.015616,0.0,0.984418,-0.56,0.28,0.28,25.0,3.3,3.32,3.31,3.3,3.28,3.29,3.28,3.28,3.32,3.32,3.32,3.31,3.28,3.28,3.28,3.29,3.29,3.29,3.29,3.29,3.32,3.32,3.32,3.31,3.32,3.27,44.0,1.0,0.0,1.0,1.0,7101123,0.0,79.18999999999998,1401.0845648052734
1765225606168,0.0,0.0,2.0,25.0,0.0,0.0,0.0,0.0,0.0,0.0,0.0,0.0,0.0,0.0,0.0,0.0,0.0,0.0,-0.015616,0.0,0.984418,-0.56,0.28,0.28,25.0,3.3,3.32,3.31,3.3,3.28,3.29,3.28,3.28,3.32,3.32,3.32,3.31,3.28,3.28,3.28,3.29,3.29,3.29,3.29,3.29,3.32,3.32,3.32,3.31,3.32,3.27,44.0,1.0,0.0,1.0,1.0,7101142,0.0,79.18999999999998,1401.0845648052734
1765225606184,0.0,0.0,2.0,25.0,0.0,0.0,0.0,0.0,0.0,0.0,0.0,0.0,0.0,0.0,0.0,0.0,0.0,0.0,-0.015616,0.0,0.984418,-0.56,0.28,0.28,25.0,3.3,3.32,3.31,3.3,3.28,3.29,3.28,3.28,3.32,3.32,3.32,3.31,3.28,3.28,3.28,3.29,3.29,3.29,3.29,3.29,3.32,3.32,3.32,3.31,3.32,3.27,44.0,1.0,0.0,1.0,1.0,7101158,0.0,79.18999999999998,1401.0845648052734
1765225606201,0.0,0.0,2.0,25.0,0.0,0.0,0.0,0.0,0.0,0.0,0.0,0.0,0.0,0.0,0.0,0.0,0.0,0.0,-0.015616,0.0,0.984418,-0.7000000000000001,0.28,-0.07,25.0,3.3,3.32,3.31,3.3,3.28,3.29,3.28,3.28,3.32,3.32,3.32,3.31,3.28,3.28,3.28,3.29,3.29,3.29,3.29,3.29,3.32,3.32,3.32,3.31,3.32,3.27,44.0,1.0,0.0,1.0,1.0,7101175,0.0,79.18999999999998,1401.0845648052734
1765225606218,0.0,0.0,2.0,25.0,0.0,0.0,0.0,0.0,0.0,0.0,0.0,0.0,0.0,0.0,0.0,0.0,0.0,0.0,-0.015616,0.0,0.984418,-0.7000000000000001,0.28,-0.07,25.0,3.3,3.32,3.31,3.3,3.28,3.29,3.28,3.28,3.32,3.32,3.32,3.31,3.28,3.28,3.28,3.29,3.29,3.29,3.29,3.29,3.32,3.32,3.32,3.31,3.32,3.27,44.0,1.0,0.0,1.0,1.0,7101192,0.0,79.18999999999998,1401.0845648052734
1765225606252,0.0,0.0,2.0,25.0,0.0,0.0,0.0,0.0,0.0,0.0,0.0,0.0,0.0,0.0,0.0,0.0,0.0,0.0,-0.015616,0.0,0.984418,-0.7000000000000001,0.28,-0.07,25.0,3.3,3.32,3.31,3.3,3.28,3.29,3.28,3.28,3.32,3.32,3.32,3.31,3.28,3.28,3.28,3.29,3.29,3.29,3.29,3.29,3.32,3.32,3.32,3.31,3.32,3.27,44.0,1.0,0.0,1.0,1.0,7101226,0.0,79.18999999999998,1401.0845648052734
1765225606267,0.0,0.0,2.0,25.0,0.0,0.0,0.0,0.0,0.0,0.0,0.0,0.0,0.0,0.0,0.0,0.0,0.0,0.0,-0.015616,0.0,0.984418,-0.7000000000000001,0.28,-0.07,25.0,3.3,3.32,3.31,3.3,3.28,3.29,3.28,3.28,3.32,3.32,3.32,3.31,3.28,3.28,3.28,3.29,3.29,3.29,3.29,3.29,3.32,3.32,3.32,3.31,3.32,3.27,44.0,1.0,0.0,1.0,1.0,7101241,0.0,79.18999999999998,1401.0845648052734
1765225606304,0.0,0.0,2.0,25.0,0.0,0.0,0.0,0.0,0.0,0.0,0.0,0.0,0.0,0.0,0.0,0.0,0.0,0.0,-0.015616,0.0,0.984418,-0.7000000000000001,0.28,-0.07,25.0,3.3,3.32,3.31,3.3,3.28,3.29,3.28,3.28,3.32,3.32,3.32,3.31,3.28,3.28,3.28,3.29,3.29,3.29,3.29,3.29,3.32,3.32,3.32,3.31,3.32,3.27,44.0,1.0,0.0,1.0,1.0,7101278,0.0,79.18999999999998,1401.0845648052734
1765225606385,0.0,0.0,2.0,25.0,0.0,0.0,0.0,0.0,0.0,0.0,0.0,0.0,0.0,0.0,0.0,0.0,0.0,0.0,-0.017202,0.0013419999999999999,0.993812,-0.49000000000000005,0.42000000000000004,-0.07,25.0,3.3,3.32,3.31,3.3,3.28,3.29,3.28,3.28,3.32,3.32,3.32,3.31,3.28,3.28,3.28,3.29,3.29,3.29,3.29,3.29,3.32,3.32,3.32,3.31,3.32,3.27,44.0,1.0,0.0,1.0,1.0,7101359,0.0,79.18999999999998,1401.0845648052734
1765225606402,0.0,0.0,2.0,25.0,0.0,0.0,0.0,0.0,0.0,0.0,0.0,0.0,0.0,0.0,0.0,0.0,0.0,0.0,-0.017202,0.0013419999999999999,0.993812,-0.49000000000000005,0.42000000000000004,-0.07,25.0,3.3,3.32,3.31,3.3,3.28,3.29,3.28,3.28,3.32,3.32,3.32,3.31,3.28,3.28,3.28,3.29,3.29,3.29,3.29,3.29,3.32,3.32,3.32,3.31,3.32,3.27,44.0,1.0,0.0,1.0,1.0,7101376,0.0,79.18999999999998,1401.0845648052734
1765225606418,0.0,0.0,2.0,25.0,0.0,0.0,0.0,0.0,0.0,0.0,0.0,0.0,0.0,0.0,0.0,0.0,0.0,0.0,-0.017202,0.0013419999999999999,0.993812,-0.49000000000000005,0.42000000000000004,-0.07,25.0,3.3,3.32,3.31,3.3,3.28,3.29,3.28,3.28,3.32,3.32,3.32,3.31,3.28,3.28,3.28,3.29,3.29,3.29,3.29,3.29,3.32,3.32,3.32,3.31,3.32,3.28,46.0,1.0,0.0,1.0,1.0,7101392,0.0,79.18999999999998,1401.0845648052734
1765225606435,0.0,0.0,2.0,25.0,0.0,0.0,0.0,0.0,0.0,0.0,0.0,0.0,0.0,0.0,0.0,0.0,0.0,0.0,-0.017202,0.0013419999999999999,0.993812,-0.49000000000000005,0.42000000000000004,-0.07,25.0,3.3,3.32,3.31,3.3,3.28,3.29,3.28,3.28,3.32,3.32,3.32,3.31,3.28,3.28,3.28,3.29,3.29,3.29,3.29,3.29,3.32,3.32,3.32,3.31,3.32,3.28,46.0,1.0,0.0,1.0,1.0,7101409,0.0,79.18999999999998,1401.0845648052734
1765225606483,0.0,0.0,2.0,25.0,0.0,0.0,0.0,0.0,0.0,0.0,0.0,0.0,0.0,0.0,0.0,0.0,0.0,0.0,-0.017202,0.0013419999999999999,0.993812,-0.49000000000000005,0.42000000000000004,-0.07,25.0,3.3,3.32,3.31,3.3,3.28,3.29,3.28,3.28,3.32,3.32,3.32,3.31,3.28,3.28,3.28,3.29,3.29,3.29,3.29,3.29,3.32,3.32,3.32,3.31,3.32,3.28,46.0,1.0,0.0,1.0,1.0,7101457,0.0,79.18999999999998,1401.0845648052734
1765225606500,0.0,0.0,2.0,25.0,0.0,0.0,0.0,0.0,0.0,0.0,0.0,0.0,0.0,0.0,0.0,0.0,0.0,0.0,-0.017202,0.0013419999999999999,0.993812,-0.49000000000000005,0.42000000000000004,-0.07,25.0,3.3,3.32,3.31,3.3,3.28,3.29,3.28,3.28,3.32,3.32,3.32,3.31,3.28,3.28,3.28,3.29,3.29,3.29,3.29,3.29,3.32,3.32,3.32,3.31,3.32,3.28,46.0,1.0,0.0,1.0,1.0,7101474,0.0,79.18999999999998,1401.0845648052734
1765225606519,0.0,0.0,2.0,25.0,0.0,0.0,0.0,0.0,0.0,0.0,0.0,0.0,0.0,0.0,0.0,0.0,0.0,0.0,-0.017202,0.0013419999999999999,0.993812,-0.49000000000000005,0.42000000000000004,-0.07,25.0,3.3,3.32,3.31,3.3,3.28,3.29,3.28,3.28,3.32,3.32,3.32,3.31,3.28,3.28,3.28,3.29,3.29,3.29,3.29,3.29,3.32,3.32,3.32,3.31,3.32,3.28,46.0,1.0,0.0,1.0,1.0,7101493,0.0,79.18999999999998,1401.0845648052734
1765225606536,0.0,0.0,2.0,25.0,0.0,0.0,0.0,0.0,0.0,0.0,0.0,0.0,0.0,0.0,0.0,0.0,0.0,0.0,-0.01769,0.0,0.993324,-0.49000000000000005,0.42000000000000004,-0.07,25.0,3.3,3.32,3.31,3.3,3.28,3.29,3.28,3.28,3.32,3.32,3.32,3.31,3.28,3.28,3.28,3.29,3.29,3.29,3.29,3.29,3.32,3.32,3.32,3.31,3.32,3.28,46.0,1.0,0.0,1.0,1.0,7101510,0.0,79.18999999999998,1401.0845648052734
1765225606551,0.0,0.0,2.0,25.0,0.0,0.0,0.0,0.0,0.0,0.0,0.0,0.0,0.0,0.0,0.0,0.0,0.0,0.0,-0.01769,0.0,0.993324,-0.49000000000000005,0.42000000000000004,-0.07,25.0,3.3,3.32,3.31,3.3,3.28,3.29,3.28,3.28,3.32,3.32,3.32,3.31,3.28,3.28,3.28,3.29,3.29,3.29,3.29,3.29,3.32,3.32,3.32,3.31,3.32,3.28,46.0,1.0,0.0,1.0,1.0,7101525,0.0,79.18999999999998,1401.0845648052734
1765225606568,0.0,0.0,2.0,25.0,0.0,0.0,0.0,0.0,0.0,0.0,0.0,0.0,0.0,0.0,0.0,0.0,0.0,0.0,-0.01769,0.0,0.993324,-0.6300000000000001,0.42000000000000004,-0.07,25.0,3.3,3.32,3.31,3.3,3.28,3.29,3.28,3.28,3.32,3.32,3.32,3.31,3.28,3.28,3.28,3.29,3.29,3.29,3.29,3.29,3.32,3.32,3.32,3.31,3.32,3.28,46.0,1.0,0.0,1.0,1.0,7101542,0.0,79.18999999999998,1401.0845648052734
1765225606618,0.0,0.0,2.0,25.0,0.0,0.0,0.0,0.0,0.0,0.0,0.0,0.0,0.0,0.0,0.0,0.0,0.0,0.0,-0.01769,0.0,0.993324,-0.6300000000000001,0.42000000000000004,-0.07,25.0,3.3,3.32,3.31,3.3,3.28,3.29,3.28,3.28,3.32,3.32,3.32,3.31,3.28,3.28,3.28,3.29,3.29,3.29,3.29,3.29,3.32,3.32,3.32,3.31,3.32,3.28,46.0,1.0,0.0,1.0,1.0,7101592,0.0,79.18999999999998,1401.0845648052734
1765225606635,0.0,0.0,2.0,25.0,0.0,0.0,0.0,0.0,0.0,0.0,0.0,0.0,0.0,0.0,0.0,0.0,0.0,0.0,-0.01769,0.0,0.993324,-0.6300000000000001,0.42000000000000004,-0.07,25.0,3.3,3.32,3.31,3.3,3.28,3.29,3.28,3.28,3.32,3.32,3.32,3.31,3.28,3.28,3.28,3.29,3.29,3.29,3.29,3.29,3.32,3.32,3.32,3.31,3.32,3.28,46.0,1.0,0.0,1.0,1.0,7101609,0.0,79.18999999999998,1401.0845648052734
1765225606702,0.0,0.0,2.0,25.0,0.0,0.0,0.0,0.0,0.0,0.0,0.0,0.0,0.0,0.0,0.0,0.0,0.0,0.0,-0.016347999999999998,0.000732,0.992592,-0.6300000000000001,0.42000000000000004,-0.07,25.0,3.3,3.32,3.31,3.3,3.28,3.29,3.28,3.28,3.32,3.32,3.32,3.31,3.28,3.28,3.28,3.29,3.29,3.29,3.29,3.29,3.32,3.32,3.32,3.31,3.32,3.28,46.0,1.0,0.0,1.0,1.0,7101676,0.0,79.18999999999998,1401.0845648052734
1765225606717,0.0,0.0,2.0,25.0,0.0,0.0,0.0,0.0,0.0,0.0,0.0,0.0,0.0,0.0,0.0,0.0,0.0,0.0,-0.016347999999999998,0.000732,0.992592,-0.77,0.35000000000000003,0.07,25.0,3.3,3.32,3.31,3.3,3.28,3.29,3.28,3.28,3.32,3.32,3.32,3.31,3.28,3.28,3.28,3.29,3.29,3.29,3.29,3.29,3.32,3.32,3.32,3.31,3.32,3.28,46.0,1.0,0.0,1.0,1.0,7101691,0.0,79.18999999999998,1401.0845648052734
1765225606734,0.0,0.0,2.0,25.0,0.0,0.0,0.0,0.0,0.0,0.0,0.0,0.0,0.0,0.0,0.0,0.0,0.0,0.0,-0.016347999999999998,0.000732,0.992592,-0.77,0.35000000000000003,0.07,25.0,3.3,3.32,3.31,3.3,3.28,3.29,3.28,3.28,3.32,3.32,3.32,3.31,3.28,3.28,3.28,3.29,3.29,3.29,3.29,3.29,3.32,3.32,3.32,3.31,3.32,3.28,46.0,1.0,0.0,1.0,1.0,7101708,0.0,79.18999999999998,1401.0845648052734
1765225606785,0.0,0.0,2.0,25.0,0.0,0.0,0.0,0.0,0.0,0.0,0.0,0.0,0.0,0.0,0.0,0.0,0.0,0.0,-0.016347999999999998,0.000732,0.992592,-0.7000000000000001,0.35000000000000003,0.0,25.0,3.3,3.32,3.31,3.3,3.28,3.29,3.28,3.28,3.32,3.32,3.32,3.31,3.28,3.28,3.28,3.29,3.29,3.29,3.29,3.29,3.32,3.32,3.32,3.31,3.32,3.28,46.0,1.0,0.0,1.0,1.0,7101759,0.0,79.18999999999998,1401.0845648052734
1765225606819,0.0,0.0,2.0,25.0,0.0,0.0,0.0,0.0,0.0,0.0,0.0,0.0,0.0,0.0,0.0,0.0,0.0,0.0,-0.016347999999999998,0.000732,0.992592,-0.7000000000000001,0.35000000000000003,0.0,25.0,3.3,3.32,3.31,3.3,3.28,3.29,3.28,3.28,3.32,3.32,3.32,3.31,3.28,3.28,3.28,3.29,3.29,3.29,3.29,3.29,3.32,3.32,3.32,3.31,3.32,3.28,46.0,1.0,0.0,1.0,1.0,7101793,0.0,79.18999999999998,1401.0845648052734
1765225606852,0.0,0.0,2.0,25.0,0.0,0.0,0.0,0.0,0.0,0.0,0.0,0.0,0.0,0.0,0.0,0.0,0.0,0.0,-0.016347999999999998,0.001098,0.994544,-0.6300000000000001,0.35000000000000003,-0.07,25.0,3.3,3.32,3.31,3.3,3.28,3.29,3.28,3.28,3.32,3.32,3.32,3.31,3.28,3.28,3.28,3.29,3.29,3.29,3.29,3.29,3.32,3.32,3.32,3.31,3.32,3.28,46.0,1.0,0.0,1.0,1.0,7101826,0.0,79.18999999999998,1401.0845648052734
1765225606885,0.0,0.0,2.0,25.0,0.0,0.0,0.0,0.0,0.0,0.0,0.0,0.0,0.0,0.0,0.0,0.0,0.0,0.0,-0.016347999999999998,0.001098,0.994544,-0.6300000000000001,0.35000000000000003,-0.07,25.0,3.3,3.32,3.31,3.3,3.28,3.29,3.28,3.28,3.32,3.32,3.32,3.31,3.28,3.28,3.28,3.29,3.29,3.29,3.29,3.29,3.32,3.32,3.32,3.31,3.32,3.28,46.0,1.0,0.0,1.0,1.0,7101859,0.0,79.18999999999998,1401.0845648052734
1765225606901,0.0,0.0,2.0,25.0,0.0,0.0,0.0,0.0,0.0,0.0,0.0,0.0,0.0,0.0,0.0,0.0,0.0,0.0,-0.016347999999999998,0.001098,0.994544,-0.6300000000000001,0.35000000000000003,-0.07,25.0,3.3,3.32,3.31,3.3,3.28,3.29,3.28,3.28,3.32,3.32,3.32,3.31,3.28,3.28,3.28,3.29,3.29,3.29,3.29,3.29,3.32,3.32,3.32,3.31,3.32,3.28,46.0,1.0,0.0,1.0,1.0,7101875,0.0,79.18999999999998,1401.0845648052734
1765225606918,0.0,0.0,2.0,25.0,0.0,0.0,0.0,0.0,0.0,0.0,0.0,0.0,0.0,0.0,0.0,0.0,0.0,0.0,-0.016347999999999998,0.001098,0.994544,-0.6300000000000001,0.35000000000000003,-0.07,25.0,3.3,3.32,3.31,3.3,3.28,3.29,3.28,3.28,3.32,3.32,3.32,3.31,3.28,3.28,3.28,3.29,3.29,3.29,3.29,3.29,3.32,3.32,3.32,3.31,3.32,3.28,46.0,1.0,0.0,1.0,1.0,7101892,0.0,79.18999999999998,1401.0845648052734
1765225606935,0.0,0.0,2.0,25.0,0.0,0.0,0.0,0.0,0.0,0.0,0.0,0.0,0.0,0.0,0.0,0.0,0.0,0.0,-0.016347999999999998,0.001098,0.994544,-0.6300000000000001,0.35000000000000003,-0.07,25.0,3.3,3.32,3.31,3.3,3.28,3.29,3.28,3.28,3.32,3.32,3.32,3.31,3.28,3.28,3.28,3.29,3.29,3.29,3.29,3.29,3.32,3.32,3.32,3.31,3.32,3.28,46.0,1.0,0.0,1.0,1.0,7101909,0.0,79.18999999999998,1401.0845648052734
1765225606952,0.0,0.0,2.0,25.0,0.0,0.0,0.0,0.0,0.0,0.0,0.0,0.0,0.0,0.0,0.0,0.0,0.0,0.0,-0.016347999999999998,0.001098,0.994544,-0.6300000000000001,0.35000000000000003,-0.07,25.0,3.3,3.32,3.31,3.3,3.28,3.29,3.28,3.28,3.32,3.32,3.32,3.31,3.28,3.28,3.28,3.29,3.29,3.29,3.29,3.29,3.32,3.32,3.32,3.31,3.32,3.28,46.0,1.0,0.0,1.0,1.0,7101926,0.0,79.18999999999998,1401.0845648052734
1765225607018,0.0,0.0,2.0,25.0,0.0,0.0,0.0,0.0,0.0,0.0,0.0,0.0,0.0,0.0,0.0,0.0,0.0,0.0,-0.016347999999999998,0.001098,0.994544,-0.6300000000000001,0.35000000000000003,-0.07,25.0,3.3,3.32,3.31,3.3,3.28,3.29,3.28,3.28,3.32,3.32,3.32,3.31,3.28,3.28,3.28,3.29,3.29,3.29,3.29,3.29,3.32,3.32,3.32,3.31,3.32,3.28,46.0,1.0,0.0,1.0,1.0,7101992,0.0,79.18999999999998,1401.0845648052734
1765225607085,0.0,0.0,2.0,25.0,0.0,0.0,0.0,0.0,0.0,0.0,0.0,0.0,0.0,0.0,0.0,0.0,0.0,0.0,-0.01647,0.00061,0.99186,-0.6300000000000001,0.35000000000000003,-0.07,25.0,3.3,3.32,3.31,3.3,3.28,3.29,3.28,3.28,3.32,3.32,3.32,3.31,3.28,3.28,3.28,3.29,3.29,3.29,3.29,3.29,3.32,3.32,3.32,3.31,3.32,3.28,46.0,1.0,0.0,1.0,1.0,7102059,0.0,79.18999999999998,1401.0845648052734
1765225607101,0.0,0.0,2.0,25.0,0.0,0.0,0.0,0.0,0.0,0.0,0.0,0.0,0.0,0.0,0.0,0.0,0.0,0.0,-0.01647,0.00061,0.99186,-0.6300000000000001,0.35000000000000003,-0.07,25.0,3.3,3.32,3.31,3.3,3.28,3.29,3.28,3.28,3.32,3.32,3.32,3.31,3.28,3.28,3.28,3.29,3.29,3.29,3.29,3.29,3.32,3.32,3.32,3.31,3.32,3.28,46.0,1.0,0.0,1.0,1.0,7102075,0.0,79.18999999999998,1401.0845648052734
1765225607135,0.0,0.0,2.0,25.0,0.0,0.0,0.0,0.0,0.0,0.0,0.0,0.0,0.0,0.0,0.0,0.0,0.0,0.0,-0.01647,0.00061,0.99186,-0.6300000000000001,0.35000000000000003,-0.07,25.0,3.3,3.32,3.31,3.29,3.28,3.29,3.28,3.28,3.32,3.32,3.32,3.31,3.28,3.28,3.28,3.29,3.29,3.29,3.29,3.29,3.32,3.32,3.32,3.31,3.32,3.28,46.0,1.0,0.0,1.0,1.0,7102109,0.0,79.17999999999999,1401.0845648052734
1765225607151,0.0,0.0,2.0,25.0,0.0,0.0,0.0,0.0,0.0,0.0,0.0,0.0,0.0,0.0,0.0,0.0,0.0,0.0,-0.01647,0.00061,0.99186,-0.6300000000000001,0.35000000000000003,-0.07,25.0,3.3,3.32,3.31,3.29,3.28,3.29,3.28,3.28,3.32,3.32,3.32,3.31,3.28,3.28,3.28,3.29,3.29,3.29,3.29,3.29,3.32,3.32,3.32,3.31,3.32,3.28,46.0,1.0,0.0,1.0,1.0,7102125,0.0,79.17999999999999,1401.0845648052734
1765225607184,0.0,0.0,2.0,25.0,0.0,0.0,0.0,0.0,0.0,0.0,0.0,0.0,0.0,0.0,0.0,0.0,0.0,0.0,-0.01647,0.00061,0.99186,-0.6300000000000001,0.35000000000000003,-0.07,25.0,3.3,3.32,3.31,3.29,3.28,3.29,3.28,3.28,3.32,3.32,3.32,3.31,3.28,3.28,3.28,3.29,3.29,3.29,3.29,3.29,3.32,3.32,3.32,3.31,3.32,3.28,46.0,1.0,0.0,1.0,1.0,7102158,0.0,79.17999999999999,1401.0845648052734
1765225607201,0.0,0.0,2.0,25.0,0.0,0.0,0.0,0.0,0.0,0.0,0.0,0.0,0.0,0.0,0.0,0.0,0.0,0.0,-0.01647,0.00061,0.99186,-0.6300000000000001,0.35000000000000003,-0.07,25.0,3.3,3.32,3.31,3.29,3.28,3.29,3.28,3.28,3.32,3.32,3.32,3.31,3.28,3.28,3.28,3.29,3.29,3.29,3.29,3.29,3.32,3.32,3.32,3.31,3.32,3.28,46.0,1.0,0.0,1.0,1.0,7102175,0.0,79.17999999999999,1401.0845648052734
1765225607218,0.0,0.0,2.0,25.0,0.0,0.0,0.0,0.0,0.0,0.0,0.0,0.0,0.0,0.0,0.0,0.0,0.0,0.0,-0.01647,0.00061,0.99186,-0.6300000000000001,0.35000000000000003,-0.07,25.0,3.3,3.32,3.31,3.29,3.28,3.29,3.28,3.28,3.32,3.32,3.32,3.31,3.28,3.28,3.28,3.29,3.29,3.29,3.29,3.29,3.32,3.32,3.32,3.31,3.32,3.28,46.0,1.0,0.0,1.0,1.0,7102192,0.0,79.17999999999999,1401.0845648052734
1765225607233,0.0,0.0,2.0,25.0,0.0,0.0,0.0,0.0,0.0,0.0,0.0,0.0,0.0,0.0,0.0,0.0,0.0,0.0,-0.01647,0.00061,0.99186,-0.6300000000000001,0.35000000000000003,-0.07,25.0,3.3,3.32,3.31,3.29,3.28,3.29,3.28,3.28,3.32,3.32,3.32,3.31,3.28,3.28,3.28,3.29,3.29,3.29,3.29,3.29,3.32,3.32,3.32,3.31,3.32,3.28,46.0,1.0,0.0,1.0,1.0,7102207,0.0,79.17999999999999,1401.0845648052734
1765225607250,0.0,0.0,2.0,25.0,0.0,0.0,0.0,0.0,0.0,0.0,0.0,0.0,0.0,0.0,0.0,0.0,0.0,0.0,-0.01647,0.00061,0.99186,-0.6300000000000001,0.35000000000000003,-0.07,25.0,3.3,3.32,3.31,3.29,3.28,3.29,3.28,3.28,3.32,3.32,3.32,3.31,3.28,3.28,3.28,3.29,3.29,3.29,3.29,3.29,3.32,3.32,3.32,3.31,3.32,3.28,46.0,1.0,0.0,1.0,1.0,7102224,0.0,79.17999999999999,1401.0845648052734
1765225607285,0.0,0.0,2.0,25.0,0.0,0.0,0.0,0.0,0.0,0.0,0.0,0.0,0.0,0.0,0.0,0.0,0.0,0.0,-0.016226,-0.000366,0.994544,-0.6300000000000001,0.35000000000000003,-0.07,25.0,3.3,3.32,3.31,3.29,3.28,3.29,3.28,3.28,3.32,3.32,3.32,3.31,3.28,3.28,3.28,3.29,3.29,3.29,3.29,3.29,3.32,3.32,3.32,3.31,3.32,3.28,46.0,1.0,0.0,1.0,1.0,7102259,0.0,79.17999999999999,1401.0845648052734
1765225607303,0.0,0.0,2.0,25.0,0.0,0.0,0.0,0.0,0.0,0.0,0.0,0.0,0.0,0.0,0.0,0.0,0.0,0.0,-0.016226,-0.000366,0.994544,-0.6300000000000001,0.35000000000000003,-0.07,25.0,3.3,3.32,3.31,3.29,3.28,3.29,3.28,3.28,3.32,3.32,3.32,3.31,3.28,3.28,3.28,3.29,3.29,3.29,3.29,3.29,3.32,3.32,3.32,3.31,3.32,3.28,46.0,1.0,0.0,1.0,1.0,7102277,0.0,79.17999999999999,1401.0845648052734
1765225607334,0.0,0.0,2.0,25.0,0.0,0.0,0.0,0.0,0.0,0.0,0.0,0.0,0.0,0.0,0.0,0.0,0.0,0.0,-0.016226,-0.000366,0.994544,-0.6300000000000001,0.42000000000000004,0.07,25.0,3.3,3.32,3.31,3.29,3.28,3.29,3.28,3.28,3.32,3.32,3.32,3.31,3.28,3.28,3.28,3.29,3.29,3.29,3.29,3.29,3.32,3.32,3.32,3.31,3.32,3.28,46.0,1.0,0.0,1.0,1.0,7102308,0.0,79.17999999999999,1401.0845648052734
1765225607368,0.0,0.0,2.0,25.0,0.0,0.0,0.0,0.0,0.0,0.0,0.0,0.0,0.0,0.0,0.0,0.0,0.0,0.0,-0.016226,-0.000366,0.994544,-0.6300000000000001,0.42000000000000004,0.07,25.0,3.3,3.32,3.31,3.29,3.28,3.29,3.28,3.28,3.32,3.32,3.32,3.31,3.28,3.28,3.28,3.29,3.29,3.29,3.29,3.29,3.32,3.32,3.32,3.31,3.32,3.28,46.0,1.0,0.0,1.0,1.0,7102342,0.0,79.17999999999999,1401.0845648052734
1765225607401,0.0,0.0,2.0,25.0,0.0,0.0,0.0,0.0,0.0,0.0,0.0,0.0,0.0,0.0,0.0,0.0,0.0,0.0,-0.016226,-0.000366,0.994544,-0.6300000000000001,0.42000000000000004,0.07,25.0,3.3,3.32,3.31,3.29,3.28,3.29,3.28,3.28,3.32,3.32,3.32,3.31,3.28,3.28,3.28,3.29,3.29,3.29,3.29,3.29,3.32,3.32,3.32,3.31,3.32,3.28,46.0,1.0,0.0,1.0,1.0,7102375,0.0,79.17999999999999,1401.0845648052734
1765225607417,0.0,0.0,2.0,25.0,0.0,0.0,0.0,0.0,0.0,0.0,0.0,0.0,0.0,0.0,0.0,0.0,0.0,0.0,-0.016226,-0.000366,0.994544,-0.6300000000000001,0.42000000000000004,0.07,25.0,3.3,3.32,3.31,3.29,3.28,3.29,3.28,3.28,3.32,3.32,3.32,3.31,3.28,3.28,3.28,3.29,3.29,3.29,3.29,3.29,3.32,3.32,3.32,3.31,3.32,3.28,46.0,1.0,0.0,1.0,1.0,7102391,0.0,79.17999999999999,1401.0845648052734
1765225607435,0.0,0.0,2.0,25.0,0.0,0.0,0.0,0.0,0.0,0.0,0.0,0.0,0.0,0.0,0.0,0.0,0.0,0.0,-0.016226,-0.000366,0.994544,-0.6300000000000001,0.42000000000000004,0.07,25.0,3.3,3.32,3.31,3.29,3.28,3.29,3.28,3.28,3.32,3.32,3.32,3.31,3.28,3.28,3.28,3.29,3.29,3.29,3.29,3.29,3.32,3.32,3.32,3.31,3.32,3.28,46.0,1.0,0.0,1.0,1.0,7102409,0.0,79.17999999999999,1401.0845648052734
1765225607467,0.0,0.0,2.0,25.0,0.0,0.0,0.0,0.0,0.0,0.0,0.0,0.0,0.0,0.0,0.0,0.0,0.0,0.0,-0.014274,0.00549,1.00101,-0.6300000000000001,0.42000000000000004,0.07,25.0,3.3,3.32,3.31,3.29,3.28,3.29,3.28,3.28,3.32,3.32,3.32,3.31,3.28,3.28,3.28,3.29,3.29,3.29,3.29,3.29,3.32,3.32,3.32,3.31,3.32,3.28,46.0,1.0,0.0,1.0,1.0,7102441,0.0,79.17999999999999,1401.0845648052734
1765225607485,0.0,0.0,2.0,25.0,0.0,0.0,0.0,0.0,0.0,0.0,0.0,0.0,0.0,0.0,0.0,0.0,0.0,0.0,-0.014274,0.00549,1.00101,-0.6300000000000001,0.42000000000000004,0.07,25.0,3.3,3.32,3.31,3.29,3.28,3.29,3.28,3.28,3.32,3.32,3.32,3.31,3.28,3.28,3.28,3.29,3.29,3.29,3.29,3.29,3.32,3.32,3.32,3.31,3.32,3.28,46.0,1.0,0.0,1.0,1.0,7102459,0.0,79.17999999999999,1401.0845648052734
1765225607535,0.0,0.0,2.0,25.0,0.0,0.0,0.0,0.0,0.0,0.0,0.0,0.0,0.0,0.0,0.0,0.0,0.0,0.0,-0.014274,0.00549,1.00101,-0.49000000000000005,0.35000000000000003,0.35000000000000003,25.0,3.3,3.32,3.31,3.29,3.28,3.29,3.28,3.28,3.32,3.32,3.32,3.31,3.28,3.28,3.28,3.29,3.29,3.29,3.29,3.29,3.32,3.32,3.32,3.31,3.32,3.28,46.0,1.0,0.0,1.0,1.0,7102509,0.0,79.17999999999999,1401.0845648052734
1765225607568,0.0,0.0,2.0,25.0,0.0,0.0,0.0,0.0,0.0,0.0,0.0,0.0,0.0,0.0,0.0,0.0,0.0,0.0,-0.014274,0.00549,1.00101,-0.49000000000000005,0.35000000000000003,0.35000000000000003,25.0,3.3,3.32,3.31,3.29,3.28,3.29,3.28,3.28,3.32,3.32,3.32,3.31,3.28,3.28,3.28,3.29,3.29,3.29,3.29,3.29,3.32,3.32,3.32,3.31,3.32,3.28,46.0,1.0,0.0,1.0,1.0,7102542,0.0,79.17999999999999,1401.0845648052734
1765225607584,0.0,0.0,2.0,25.0,0.0,0.0,0.0,0.0,0.0,0.0,0.0,0.0,0.0,0.0,0.0,0.0,0.0,0.0,-0.015493999999999999,0.0060999999999999995,0.983808,-0.49000000000000005,0.35000000000000003,0.35000000000000003,25.0,3.3,3.32,3.31,3.29,3.28,3.29,3.28,3.28,3.32,3.32,3.32,3.31,3.28,3.28,3.28,3.29,3.29,3.29,3.29,3.29,3.32,3.32,3.32,3.31,3.32,3.28,46.0,1.0,0.0,1.0,1.0,7102558,0.0,79.17999999999999,1401.0845648052734
1765225607619,0.0,0.0,2.0,25.0,0.0,0.0,0.0,0.0,0.0,0.0,0.0,0.0,0.0,0.0,0.0,0.0,0.0,0.0,-0.015493999999999999,0.0060999999999999995,0.983808,-0.6300000000000001,0.42000000000000004,-0.14,25.0,3.3,3.32,3.31,3.29,3.28,3.29,3.28,3.28,3.32,3.32,3.32,3.31,3.28,3.28,3.28,3.29,3.29,3.29,3.29,3.29,3.32,3.32,3.32,3.31,3.32,3.28,46.0,1.0,0.0,1.0,1.0,7102593,0.0,79.17999999999999,1401.0845648052734
1765225607637,0.0,0.0,2.0,25.0,0.0,0.0,0.0,0.0,0.0,0.0,0.0,0.0,0.0,0.0,0.0,0.0,0.0,0.0,-0.015493999999999999,0.0060999999999999995,0.983808,-0.6300000000000001,0.42000000000000004,-0.14,25.0,3.3,3.32,3.31,3.29,3.28,3.29,3.28,3.28,3.32,3.32,3.32,3.31,3.28,3.28,3.28,3.29,3.29,3.29,3.29,3.29,3.32,3.32,3.32,3.31,3.32,3.28,46.0,1.0,0.0,1.0,1.0,7102611,0.0,79.17999999999999,1401.0845648052734
1765225607653,0.0,0.0,2.0,25.0,0.0,0.0,0.0,0.0,0.0,0.0,0.0,0.0,0.0,0.0,0.0,0.0,0.0,0.0,-0.015493999999999999,0.0060999999999999995,0.983808,-0.6300000000000001,0.42000000000000004,-0.14,25.0,3.3,3.32,3.31,3.29,3.28,3.29,3.28,3.28,3.32,3.32,3.32,3.31,3.28,3.28,3.28,3.29,3.29,3.29,3.29,3.29,3.32,3.32,3.32,3.31,3.32,3.28,46.0,1.0,0.0,1.0,1.0,7102627,0.0,79.17999999999999,1401.0845648052734
1765225607668,0.0,0.0,2.0,25.0,0.0,0.0,0.0,0.0,0.0,0.0,0.0,0.0,0.0,0.0,0.0,0.0,0.0,0.0,-0.015493999999999999,0.0060999999999999995,0.983808,-0.6300000000000001,0.42000000000000004,-0.14,25.0,3.3,3.32,3.31,3.29,3.28,3.29,3.28,3.28,3.32,3.32,3.32,3.31,3.28,3.28,3.28,3.29,3.29,3.29,3.29,3.29,3.32,3.32,3.32,3.31,3.32,3.28,46.0,1.0,0.0,1.0,1.0,7102642,0.0,79.17999999999999,1401.0845648052734
1765225607687,0.0,0.0,2.0,25.0,0.0,0.0,0.0,0.0,0.0,0.0,0.0,0.0,0.0,0.0,0.0,0.0,0.0,0.0,-0.015493999999999999,0.0060999999999999995,0.983808,-0.6300000000000001,0.42000000000000004,-0.14,25.0,3.3,3.32,3.31,3.29,3.28,3.29,3.28,3.28,3.32,3.32,3.32,3.31,3.28,3.28,3.28,3.29,3.29,3.29,3.29,3.29,3.32,3.32,3.32,3.31,3.32,3.28,46.0,1.0,0.0,1.0,1.0,7102661,0.0,79.17999999999999,1401.0845648052734
1765225607703,0.0,0.0,2.0,25.0,0.0,0.0,0.0,0.0,0.0,0.0,0.0,0.0,0.0,0.0,0.0,0.0,0.0,0.0,-0.015493999999999999,0.0060999999999999995,0.983808,-0.6300000000000001,0.42000000000000004,-0.14,25.0,3.3,3.32,3.31,3.29,3.28,3.29,3.28,3.28,3.32,3.32,3.32,3.31,3.28,3.28,3.28,3.29,3.29,3.29,3.29,3.29,3.32,3.32,3.32,3.31,3.32,3.28,46.0,1.0,0.0,1.0,1.0,7102677,0.0,79.17999999999999,1401.0845648052734
1765225607767,0.0,0.0,2.0,25.0,0.0,0.0,0.0,0.0,0.0,0.0,0.0,0.0,0.0,0.0,0.0,0.0,0.0,0.0,-0.015493999999999999,0.0060999999999999995,0.983808,-0.6300000000000001,0.42000000000000004,-0.14,25.0,3.3,3.32,3.31,3.29,3.28,3.29,3.28,3.28,3.32,3.32,3.32,3.31,3.28,3.28,3.28,3.29,3.29,3.29,3.29,3.29,3.32,3.32,3.32,3.31,3.32,3.28,46.0,1.0,0.0,1.0,1.0,7102741,0.0,79.17999999999999,1401.0845648052734
1765225607835,0.0,0.0,2.0,25.0,0.0,0.0,0.0,0.0,0.0,0.0,0.0,0.0,0.0,0.0,0.0,0.0,0.0,0.0,-0.013054,0.003294,0.99186,-0.7000000000000001,0.28,-0.21000000000000002,25.0,3.3,3.32,3.31,3.29,3.28,3.29,3.28,3.28,3.32,3.32,3.32,3.31,3.28,3.28,3.28,3.29,3.29,3.29,3.29,3.29,3.32,3.32,3.32,3.31,3.32,3.28,46.0,1.0,0.0,1.0,1.0,7102809,0.0,79.17999999999999,1401.0845648052734
1765225607867,0.0,0.0,2.0,25.0,0.0,0.0,0.0,0.0,0.0,0.0,0.0,0.0,0.0,0.0,0.0,0.0,0.0,0.0,-0.013054,0.003294,0.99186,-0.7000000000000001,0.28,-0.21000000000000002,25.0,3.3,3.32,3.31,3.29,3.28,3.29,3.28,3.28,3.32,3.32,3.32,3.31,3.28,3.28,3.28,3.29,3.29,3.29,3.29,3.29,3.32,3.32,3.32,3.31,3.32,3.28,46.0,1.0,0.0,1.0,1.0,7102841,0.0,79.17999999999999,1401.0845648052734
1765225607884,0.0,0.0,2.0,25.0,0.0,0.0,0.0,0.0,0.0,0.0,0.0,0.0,0.0,0.0,0.0,0.0,0.0,0.0,-0.019275999999999998,-0.0017079999999999999,1.00162,-0.7000000000000001,0.28,-0.21000000000000002,25.0,3.3,3.32,3.31,3.29,3.28,3.29,3.28,3.28,3.32,3.32,3.32,3.31,3.28,3.28,3.28,3.29,3.29,3.29,3.29,3.29,3.32,3.32,3.32,3.31,3.32,3.28,46.0,1.0,0.0,1.0,1.0,7102858,0.0,79.17999999999999,1401.0845648052734
1765225607918,0.0,0.0,2.0,25.0,0.0,0.0,0.0,0.0,0.0,0.0,0.0,0.0,0.0,0.0,0.0,0.0,0.0,0.0,-0.019275999999999998,-0.0017079999999999999,1.00162,-0.7000000000000001,0.28,-0.21000000000000002,25.0,3.3,3.32,3.31,3.29,3.28,3.29,3.28,3.28,3.32,3.32,3.32,3.31,3.28,3.28,3.28,3.29,3.29,3.29,3.29,3.29,3.32,3.32,3.32,3.31,3.32,3.28,46.0,1.0,0.0,1.0,1.0,7102892,0.0,79.17999999999999,1401.0845648052734
1765225607935,0.0,0.0,2.0,25.0,0.0,0.0,0.0,0.0,0.0,0.0,0.0,0.0,0.0,0.0,0.0,0.0,0.0,0.0,-0.019275999999999998,-0.0017079999999999999,1.00162,-0.7000000000000001,0.28,-0.21000000000000002,25.0,3.3,3.32,3.31,3.29,3.28,3.29,3.28,3.28,3.32,3.32,3.32,3.31,3.28,3.28,3.28,3.29,3.29,3.29,3.29,3.29,3.32,3.32,3.32,3.31,3.32,3.28,46.0,1.0,0.0,1.0,1.0,7102909,0.0,79.17999999999999,1401.0845648052734
1765225607951,0.0,0.0,2.0,25.0,0.0,0.0,0.0,0.0,0.0,0.0,0.0,0.0,0.0,0.0,0.0,0.0,0.0,0.0,-0.019275999999999998,-0.0017079999999999999,1.00162,-0.7000000000000001,0.56,0.07,25.0,3.3,3.32,3.31,3.29,3.28,3.29,3.28,3.28,3.32,3.32,3.32,3.31,3.28,3.28,3.28,3.29,3.29,3.29,3.29,3.29,3.32,3.32,3.32,3.31,3.32,3.28,46.0,1.0,0.0,1.0,1.0,7102925,0.0,79.17999999999999,1401.0845648052734
1765225607967,0.0,0.0,2.0,25.0,0.0,0.0,0.0,0.0,0.0,0.0,0.0,0.0,0.0,0.0,0.0,0.0,0.0,0.0,-0.019275999999999998,-0.0017079999999999999,1.00162,-0.7000000000000001,0.56,0.07,25.0,3.3,3.32,3.31,3.29,3.28,3.29,3.28,3.28,3.32,3.32,3.32,3.31,3.28,3.28,3.28,3.29,3.29,3.29,3.29,3.29,3.32,3.32,3.32,3.31,3.32,3.28,46.0,1.0,0.0,1.0,1.0,7102941,0.0,79.17999999999999,1401.0845648052734
1765225608002,0.0,0.0,2.0,25.0,0.0,0.0,0.0,0.0,0.0,0.0,0.0,0.0,0.0,0.0,0.0,0.0,0.0,0.0,-0.019275999999999998,-0.0017079999999999999,1.00162,-0.7000000000000001,0.56,0.07,25.0,3.3,3.32,3.31,3.29,3.28,3.29,3.28,3.28,3.32,3.32,3.32,3.31,3.28,3.28,3.28,3.29,3.29,3.29,3.29,3.29,3.32,3.32,3.32,3.31,3.32,3.28,46.0,1.0,0.0,1.0,1.0,7102976,0.0,79.17999999999999,1401.0845648052734
1765225608034,0.0,0.0,2.0,25.0,0.0,0.0,0.0,0.0,0.0,0.0,0.0,0.0,0.0,0.0,0.0,0.0,0.0,0.0,-0.019275999999999998,-0.0017079999999999999,1.00162,-0.7000000000000001,0.56,0.07,25.0,3.3,3.32,3.31,3.29,3.28,3.29,3.28,3.28,3.32,3.32,3.32,3.31,3.28,3.28,3.28,3.29,3.29,3.29,3.29,3.29,3.32,3.32,3.32,3.31,3.32,3.28,46.0,1.0,0.0,1.0,1.0,7103008,0.0,79.17999999999999,1401.0845648052734
1765225608051,0.0,0.0,2.0,25.0,0.0,0.0,0.0,0.0,0.0,0.0,0.0,0.0,0.0,0.0,0.0,0.0,0.0,0.0,-0.019275999999999998,-0.0017079999999999999,1.00162,-0.7000000000000001,0.56,0.07,25.0,3.3,3.32,3.31,3.29,3.28,3.29,3.28,3.28,3.32,3.32,3.32,3.31,3.28,3.28,3.28,3.29,3.29,3.29,3.29,3.29,3.32,3.32,3.32,3.31,3.32,3.28,46.0,1.0,0.0,1.0,1.0,7103025,0.0,79.17999999999999,1401.0845648052734
1765225608068,0.0,0.0,2.0,25.0,0.0,0.0,0.0,0.0,0.0,0.0,0.0,0.0,0.0,0.0,0.0,0.0,0.0,0.0,-0.019275999999999998,-0.0017079999999999999,1.00162,-0.7000000000000001,0.56,0.07,25.0,3.3,3.32,3.31,3.29,3.28,3.29,3.28,3.28,3.32,3.32,3.32,3.31,3.28,3.28,3.28,3.29,3.29,3.29,3.29,3.29,3.32,3.32,3.32,3.31,3.32,3.28,46.0,1.0,0.0,1.0,1.0,7103042,0.0,79.17999999999999,1401.0845648052734
1765225608084,0.0,0.0,2.0,25.0,0.0,0.0,0.0,0.0,0.0,0.0,0.0,0.0,0.0,0.0,0.0,0.0,0.0,0.0,-0.019275999999999998,-0.0017079999999999999,1.00162,-0.7000000000000001,0.56,0.07,25.0,3.3,3.32,3.31,3.29,3.28,3.29,3.28,3.28,3.32,3.32,3.32,3.31,3.28,3.28,3.28,3.29,3.29,3.29,3.29,3.29,3.32,3.32,3.32,3.31,3.32,3.28,46.0,1.0,0.0,1.0,1.0,7103058,0.0,79.17999999999999,1401.0845648052734
1765225608102,0.0,0.0,2.0,25.0,0.0,0.0,0.0,0.0,0.0,0.0,0.0,0.0,0.0,0.0,0.0,0.0,0.0,0.0,-0.015982,0.0017079999999999999,0.990274,-0.7000000000000001,0.56,0.07,25.0,3.3,3.32,3.31,3.29,3.28,3.29,3.28,3.28,3.32,3.32,3.32,3.31,3.28,3.28,3.28,3.29,3.29,3.29,3.29,3.29,3.32,3.32,3.32,3.31,3.32,3.28,46.0,1.0,0.0,1.0,1.0,7103076,0.0,79.17999999999999,1401.0845648052734
1765225608120,0.0,0.0,2.0,25.0,0.0,0.0,0.0,0.0,0.0,0.0,0.0,0.0,0.0,0.0,0.0,0.0,0.0,0.0,-0.015982,0.0017079999999999999,0.990274,-0.7000000000000001,0.56,0.07,25.0,3.3,3.32,3.31,3.29,3.28,3.29,3.28,3.28,3.32,3.32,3.32,3.31,3.28,3.28,3.28,3.29,3.29,3.29,3.29,3.29,3.32,3.32,3.32,3.31,3.32,3.28,46.0,1.0,0.0,1.0,1.0,7103094,0.0,79.17999999999999,1401.0845648052734
1765225608152,0.0,0.0,2.0,25.0,0.0,0.0,0.0,0.0,0.0,0.0,0.0,0.0,0.0,0.0,0.0,0.0,0.0,0.0,-0.015982,0.0017079999999999999,0.990274,-0.6300000000000001,0.35000000000000003,0.0,25.0,3.3,3.32,3.31,3.29,3.28,3.29,3.28,3.28,3.32,3.32,3.32,3.31,3.28,3.28,3.28,3.29,3.29,3.29,3.29,3.29,3.32,3.32,3.32,3.31,3.32,3.28,46.0,1.0,0.0,1.0,1.0,7103126,0.0,79.17999999999999,1401.0845648052734
1765225608183,0.0,0.0,2.0,25.0,0.0,0.0,0.0,0.0,0.0,0.0,0.0,0.0,0.0,0.0,0.0,0.0,0.0,0.0,-0.015982,0.0017079999999999999,0.990274,-0.6300000000000001,0.35000000000000003,0.0,25.0,3.3,3.32,3.31,3.29,3.28,3.29,3.28,3.28,3.32,3.32,3.32,3.31,3.28,3.28,3.28,3.29,3.29,3.29,3.29,3.29,3.32,3.32,3.32,3.31,3.32,3.28,46.0,1.0,0.0,1.0,1.0,7103157,0.0,79.17999999999999,1401.0845648052734
1765225608200,0.0,0.0,2.0,25.0,0.0,0.0,0.0,0.0,0.0,0.0,0.0,0.0,0.0,0.0,0.0,0.0,0.0,0.0,-0.015982,0.0017079999999999999,0.990274,-0.6300000000000001,0.35000000000000003,0.0,25.0,3.3,3.32,3.31,3.29,3.28,3.29,3.28,3.28,3.32,3.32,3.32,3.31,3.28,3.28,3.28,3.29,3.29,3.29,3.29,3.29,3.32,3.32,3.32,3.31,3.32,3.28,47.0,1.0,0.0,1.0,1.0,7103174,0.0,79.17999999999999,1401.0845648052734
1765225608252,0.0,0.0,2.0,25.0,0.0,0.0,0.0,0.0,0.0,0.0,0.0,0.0,0.0,0.0,0.0,0.0,0.0,0.0,-0.015982,0.0017079999999999999,0.990274,-0.6300000000000001,0.35000000000000003,0.0,25.0,3.3,3.32,3.31,3.29,3.28,3.29,3.28,3.28,3.32,3.32,3.32,3.31,3.28,3.28,3.28,3.29,3.29,3.29,3.29,3.29,3.32,3.32,3.32,3.31,3.32,3.28,47.0,1.0,0.0,1.0,1.0,7103226,0.0,79.17999999999999,1401.0845648052734
1765225608285,0.0,0.0,2.0,25.0,0.0,0.0,0.0,0.0,0.0,0.0,0.0,0.0,0.0,0.0,0.0,0.0,0.0,0.0,-0.015982,0.0017079999999999999,0.990274,-0.6300000000000001,0.35000000000000003,0.0,25.0,3.3,3.32,3.31,3.29,3.28,3.29,3.28,3.28,3.32,3.32,3.32,3.31,3.28,3.28,3.28,3.29,3.29,3.29,3.29,3.29,3.32,3.32,3.32,3.31,3.32,3.28,47.0,1.0,0.0,1.0,1.0,7103259,0.0,79.17999999999999,1401.0845648052734
1765225608318,0.0,0.0,2.0,25.0,0.0,0.0,0.0,0.0,0.0,0.0,0.0,0.0,0.0,0.0,0.0,0.0,0.0,0.0,-0.019764,-0.0013419999999999999,0.9928359999999999,-0.6300000000000001,0.42000000000000004,0.0,25.0,3.3,3.32,3.31,3.29,3.28,3.29,3.28,3.28,3.32,3.32,3.32,3.31,3.28,3.28,3.28,3.29,3.29,3.29,3.29,3.29,3.32,3.32,3.32,3.31,3.32,3.28,47.0,1.0,0.0,1.0,1.0,7103292,0.0,79.17999999999999,1401.0845648052734
1765225608351,0.0,0.0,2.0,25.0,0.0,0.0,0.0,0.0,0.0,0.0,0.0,0.0,0.0,0.0,0.0,0.0,0.0,0.0,-0.019764,-0.0013419999999999999,0.9928359999999999,-0.6300000000000001,0.42000000000000004,0.0,25.0,3.3,3.32,3.31,3.29,3.28,3.29,3.28,3.28,3.32,3.32,3.32,3.31,3.28,3.28,3.28,3.29,3.29,3.29,3.29,3.29,3.32,3.32,3.32,3.31,3.32,3.28,47.0,1.0,0.0,1.0,1.0,7103325,0.0,79.17999999999999,1401.0845648052734
1765225608368,0.0,0.0,2.0,25.0,0.0,0.0,0.0,0.0,0.0,0.0,0.0,0.0,0.0,0.0,0.0,0.0,0.0,0.0,-0.019764,-0.0013419999999999999,0.9928359999999999,-0.6300000000000001,0.42000000000000004,0.0,25.0,3.3,3.32,3.31,3.29,3.28,3.29,3.28,3.28,3.32,3.32,3.32,3.31,3.28,3.28,3.28,3.29,3.29,3.29,3.29,3.29,3.32,3.32,3.32,3.31,3.32,3.28,47.0,1.0,0.0,1.0,1.0,7103342,0.0,79.17999999999999,1401.0845648052734
1765225608384,0.0,0.0,2.0,25.0,0.0,0.0,0.0,0.0,0.0,0.0,0.0,0.0,0.0,0.0,0.0,0.0,0.0,0.0,-0.019764,-0.0013419999999999999,0.9928359999999999,-0.6300000000000001,0.42000000000000004,0.0,25.0,3.3,3.32,3.31,3.29,3.28,3.29,3.28,3.28,3.32,3.32,3.32,3.31,3.28,3.28,3.28,3.29,3.29,3.29,3.29,3.29,3.32,3.32,3.32,3.31,3.32,3.28,47.0,1.0,0.0,1.0,1.0,7103358,0.0,79.17999999999999,1401.0845648052734
1765225608401,0.0,0.0,2.0,25.0,0.0,0.0,0.0,0.0,0.0,0.0,0.0,0.0,0.0,0.0,0.0,0.0,0.0,0.0,-0.019764,-0.0013419999999999999,0.9928359999999999,-0.6300000000000001,0.42000000000000004,0.0,25.0,3.3,3.32,3.31,3.29,3.28,3.29,3.28,3.28,3.32,3.32,3.32,3.31,3.28,3.28,3.28,3.29,3.29,3.29,3.29,3.29,3.32,3.32,3.32,3.31,3.32,3.28,47.0,1.0,0.0,1.0,1.0,7103375,0.0,79.17999999999999,1401.0845648052734
1765225608434,0.0,0.0,2.0,25.0,0.0,0.0,0.0,0.0,0.0,0.0,0.0,0.0,0.0,0.0,0.0,0.0,0.0,0.0,-0.019764,-0.0013419999999999999,0.9928359999999999,-0.6300000000000001,0.42000000000000004,0.0,25.0,3.3,3.32,3.31,3.29,3.28,3.29,3.28,3.28,3.32,3.32,3.32,3.31,3.28,3.28,3.28,3.29,3.29,3.29,3.29,3.29,3.32,3.32,3.32,3.31,3.32,3.28,47.0,1.0,0.0,1.0,1.0,7103408,0.0,79.17999999999999,1401.0845648052734
1765225608484,0.0,0.0,2.0,25.0,0.0,0.0,0.0,0.0,0.0,0.0,0.0,0.0,0.0,0.0,0.0,0.0,0.0,0.0,-0.019764,-0.0013419999999999999,0.9928359999999999,-0.6300000000000001,0.42000000000000004,0.0,25.0,3.3,3.32,3.31,3.29,3.28,3.29,3.28,3.28,3.32,3.32,3.32,3.31,3.28,3.28,3.28,3.29,3.29,3.29,3.29,3.29,3.32,3.32,3.32,3.31,3.32,3.28,47.0,1.0,0.0,1.0,1.0,7103458,0.0,79.17999999999999,1401.0845648052734
1765225608518,0.0,0.0,2.0,25.0,0.0,0.0,0.0,0.0,0.0,0.0,0.0,0.0,0.0,0.0,0.0,0.0,0.0,0.0,-0.015738,0.000244,0.992714,-0.6300000000000001,0.42000000000000004,0.0,25.0,3.3,3.32,3.31,3.29,3.28,3.29,3.28,3.28,3.32,3.32,3.32,3.31,3.28,3.28,3.28,3.29,3.29,3.29,3.29,3.29,3.32,3.32,3.32,3.31,3.32,3.28,47.0,1.0,0.0,1.0,1.0,7103492,0.0,79.17999999999999,1401.0845648052734
1765225608568,0.0,0.0,2.0,25.0,0.0,0.0,0.0,0.0,0.0,0.0,0.0,0.0,0.0,0.0,0.0,0.0,0.0,0.0,-0.015738,0.000244,0.992714,-0.6300000000000001,0.28,-0.07,25.0,3.3,3.32,3.31,3.29,3.28,3.29,3.28,3.28,3.32,3.32,3.32,3.31,3.28,3.28,3.28,3.29,3.29,3.29,3.29,3.29,3.32,3.32,3.32,3.31,3.32,3.28,47.0,1.0,0.0,1.0,1.0,7103542,0.0,79.17999999999999,1401.0845648052734
1765225608601,0.0,0.0,2.0,25.0,0.0,0.0,0.0,0.0,0.0,0.0,0.0,0.0,0.0,0.0,0.0,0.0,0.0,0.0,-0.015372,0.002196,0.992592,-0.6300000000000001,0.28,-0.07,25.0,3.3,3.32,3.31,3.29,3.28,3.29,3.28,3.28,3.32,3.32,3.32,3.31,3.28,3.28,3.28,3.29,3.29,3.29,3.29,3.29,3.32,3.32,3.32,3.31,3.32,3.28,47.0,1.0,0.0,1.0,1.0,7103575,0.0,79.17999999999999,1401.0845648052734
1765225608618,0.0,0.0,2.0,25.0,0.0,0.0,0.0,0.0,0.0,0.0,0.0,0.0,0.0,0.0,0.0,0.0,0.0,0.0,-0.015372,0.002196,0.992592,-0.6300000000000001,0.28,-0.07,25.0,3.3,3.32,3.31,3.29,3.28,3.29,3.28,3.28,3.32,3.32,3.32,3.31,3.28,3.28,3.28,3.29,3.29,3.29,3.29,3.29,3.32,3.32,3.32,3.31,3.32,3.28,47.0,1.0,0.0,1.0,1.0,7103592,0.0,79.17999999999999,1401.0845648052734
1765225608684,0.0,0.0,2.0,25.0,0.0,0.0,0.0,0.0,0.0,0.0,0.0,0.0,0.0,0.0,0.0,0.0,0.0,0.0,-0.018543999999999998,0.002806,0.9940559999999999,-0.6300000000000001,0.28,-0.07,25.0,3.3,3.32,3.31,3.29,3.28,3.29,3.28,3.28,3.32,3.32,3.32,3.31,3.28,3.28,3.28,3.29,3.29,3.29,3.29,3.29,3.32,3.32,3.32,3.31,3.32,3.28,47.0,1.0,0.0,1.0,1.0,7103658,0.0,79.17999999999999,1401.0845648052734
1765225608701,0.0,0.0,2.0,25.0,0.0,0.0,0.0,0.0,0.0,0.0,0.0,0.0,0.0,0.0,0.0,0.0,0.0,0.0,-0.018543999999999998,0.002806,0.9940559999999999,-0.6300000000000001,0.42000000000000004,0.0,25.0,3.3,3.32,3.31,3.29,3.28,3.29,3.28,3.28,3.32,3.32,3.32,3.31,3.28,3.28,3.28,3.29,3.29,3.29,3.29,3.29,3.32,3.32,3.32,3.31,3.32,3.28,47.0,1.0,0.0,1.0,1.0,7103675,0.0,79.17999999999999,1401.0845648052734
1765225608718,0.0,0.0,2.0,25.0,0.0,0.0,0.0,0.0,0.0,0.0,0.0,0.0,0.0,0.0,0.0,0.0,0.0,0.0,-0.018543999999999998,0.002806,0.9940559999999999,-0.6300000000000001,0.42000000000000004,0.0,25.0,3.3,3.32,3.31,3.29,3.28,3.29,3.28,3.28,3.32,3.32,3.32,3.31,3.28,3.28,3.28,3.29,3.29,3.29,3.29,3.29,3.32,3.32,3.32,3.31,3.32,3.28,47.0,1.0,0.0,1.0,1.0,7103692,0.0,79.17999999999999,1401.0845648052734
1765225608751,0.0,0.0,2.0,25.0,0.0,0.0,0.0,0.0,0.0,0.0,0.0,0.0,0.0,0.0,0.0,0.0,0.0,0.0,-0.018543999999999998,0.002806,0.9940559999999999,-0.6300000000000001,0.42000000000000004,0.0,25.0,3.3,3.32,3.31,3.29,3.28,3.29,3.28,3.28,3.32,3.32,3.32,3.31,3.28,3.28,3.28,3.29,3.29,3.29,3.29,3.29,3.32,3.32,3.32,3.31,3.32,3.28,47.0,1.0,0.0,1.0,1.0,7103725,0.0,79.17999999999999,1401.0845648052734
1765225608784,0.0,0.0,2.0,25.0,0.0,0.0,0.0,0.0,0.0,0.0,0.0,0.0,0.0,0.0,0.0,0.0,0.0,0.0,-0.018543999999999998,0.002806,0.9940559999999999,-0.6300000000000001,0.42000000000000004,0.0,25.0,3.3,3.32,3.31,3.29,3.28,3.29,3.28,3.28,3.32,3.32,3.32,3.31,3.28,3.28,3.28,3.29,3.29,3.29,3.29,3.29,3.32,3.32,3.32,3.31,3.32,3.28,47.0,1.0,0.0,1.0,1.0,7103758,0.0,79.17999999999999,1401.0845648052734
1765225608803,0.0,0.0,2.0,25.0,0.0,0.0,0.0,0.0,0.0,0.0,0.0,0.0,0.0,0.0,0.0,0.0,0.0,0.0,-0.016836,0.0,0.9943,-0.6300000000000001,0.42000000000000004,0.0,25.0,3.3,3.32,3.31,3.29,3.28,3.29,3.28,3.28,3.32,3.32,3.32,3.31,3.28,3.28,3.28,3.29,3.29,3.29,3.29,3.29,3.32,3.32,3.32,3.31,3.32,3.28,47.0,1.0,0.0,1.0,1.0,7103777,0.0,79.17999999999999,1401.0845648052734
1765225608819,0.0,0.0,2.0,25.0,0.0,0.0,0.0,0.0,0.0,0.0,0.0,0.0,0.0,0.0,0.0,0.0,0.0,0.0,-0.016836,0.0,0.9943,-0.6300000000000001,0.42000000000000004,0.0,25.0,3.3,3.32,3.31,3.29,3.28,3.29,3.28,3.28,3.32,3.32,3.32,3.31,3.28,3.28,3.28,3.29,3.29,3.29,3.29,3.29,3.32,3.32,3.32,3.31,3.32,3.28,47.0,1.0,0.0,1.0,1.0,7103793,0.0,79.17999999999999,1401.0845648052734
1765225608835,0.0,0.0,2.0,25.0,0.0,0.0,0.0,0.0,0.0,0.0,0.0,0.0,0.0,0.0,0.0,0.0,0.0,0.0,-0.016836,0.0,0.9943,-0.7000000000000001,0.28,-0.07,25.0,3.3,3.32,3.31,3.29,3.28,3.29,3.28,3.28,3.32,3.32,3.32,3.31,3.28,3.28,3.28,3.29,3.29,3.29,3.29,3.29,3.32,3.32,3.32,3.31,3.32,3.28,47.0,1.0,0.0,1.0,1.0,7103809,0.0,79.17999999999999,1401.0845648052734
1765225608885,0.0,0.0,2.0,25.0,0.0,0.0,0.0,0.0,0.0,0.0,0.0,0.0,0.0,0.0,0.0,0.0,0.0,0.0,-0.016836,0.0,0.9943,-0.7000000000000001,0.28,-0.07,25.0,3.3,3.32,3.31,3.29,3.28,3.29,3.28,3.28,3.32,3.32,3.32,3.31,3.28,3.28,3.28,3.29,3.29,3.29,3.29,3.29,3.32,3.32,3.32,3.31,3.32,3.28,47.0,1.0,0.0,1.0,1.0,7103859,0.0,79.17999999999999,1401.0845648052734
1765225608901,0.0,0.0,2.0,25.0,0.0,0.0,0.0,0.0,0.0,0.0,0.0,0.0,0.0,0.0,0.0,0.0,0.0,0.0,-0.016836,0.0,0.9943,-0.7000000000000001,0.28,-0.07,25.0,3.3,3.32,3.31,3.29,3.28,3.29,3.28,3.28,3.32,3.32,3.32,3.31,3.28,3.28,3.28,3.29,3.29,3.29,3.29,3.29,3.32,3.32,3.32,3.31,3.32,3.28,47.0,1.0,0.0,1.0,1.0,7103875,0.0,79.17999999999999,1401.0845648052734
1765225608951,0.0,0.0,2.0,25.0,0.0,0.0,0.0,0.0,0.0,0.0,0.0,0.0,0.0,0.0,0.0,0.0,0.0,0.0,-0.016836,0.0,0.9943,-0.7000000000000001,0.28,-0.07,25.0,3.3,3.32,3.31,3.3,3.28,3.29,3.28,3.28,3.32,3.32,3.32,3.31,3.28,3.28,3.28,3.29,3.29,3.29,3.29,3.29,3.32,3.32,3.32,3.31,3.32,3.28,47.0,1.0,0.0,1.0,1.0,7103925,0.0,79.18999999999998,1401.0845648052734
1765225608983,0.0,0.0,2.0,25.0,0.0,0.0,0.0,0.0,0.0,0.0,0.0,0.0,0.0,0.0,0.0,0.0,0.0,0.0,-0.016836,0.0,0.9943,-0.7000000000000001,0.28,-0.07,25.0,3.3,3.32,3.31,3.3,3.28,3.29,3.28,3.28,3.32,3.32,3.32,3.31,3.28,3.28,3.28,3.29,3.29,3.29,3.29,3.29,3.32,3.32,3.32,3.31,3.32,3.28,47.0,1.0,0.0,1.0,1.0,7103957,0.0,79.18999999999998,1401.0845648052734
1765225609001,0.0,0.0,2.0,25.0,0.0,0.0,0.0,0.0,0.0,0.0,0.0,0.0,0.0,0.0,0.0,0.0,0.0,0.0,-0.016836,0.0,0.9943,-0.7000000000000001,0.28,-0.07,25.0,3.3,3.32,3.31,3.3,3.28,3.29,3.28,3.28,3.32,3.32,3.32,3.31,3.28,3.28,3.28,3.29,3.29,3.29,3.29,3.29,3.32,3.32,3.32,3.31,3.32,3.28,47.0,1.0,0.0,1.0,1.0,7103975,0.0,79.18999999999998,1401.0845648052734
1765225609017,0.0,0.0,2.0,25.0,0.0,0.0,0.0,0.0,0.0,0.0,0.0,0.0,0.0,0.0,0.0,0.0,0.0,0.0,-0.016836,0.0,0.9943,-0.7000000000000001,0.28,-0.07,25.0,3.3,3.32,3.31,3.3,3.28,3.29,3.28,3.28,3.32,3.32,3.32,3.31,3.28,3.28,3.28,3.29,3.29,3.29,3.29,3.29,3.32,3.32,3.32,3.31,3.32,3.28,47.0,1.0,0.0,1.0,1.0,7103991,0.0,79.18999999999998,1401.0845648052734
1765225609035,0.0,0.0,2.0,25.0,0.0,0.0,0.0,0.0,0.0,0.0,0.0,0.0,0.0,0.0,0.0,0.0,0.0,0.0,-0.016836,0.0,0.9943,-0.7000000000000001,0.28,-0.07,25.0,3.3,3.32,3.31,3.3,3.28,3.29,3.28,3.28,3.32,3.32,3.32,3.31,3.28,3.28,3.28,3.29,3.29,3.29,3.29,3.29,3.32,3.32,3.32,3.31,3.32,3.28,47.0,1.0,0.0,1.0,1.0,7104009,0.0,79.18999999999998,1401.0845648052734
1765225609052,0.0,0.0,2.0,25.0,0.0,0.0,0.0,0.0,0.0,0.0,0.0,0.0,0.0,0.0,0.0,0.0,0.0,0.0,-0.01464,-0.000244,0.989664,-0.7000000000000001,0.28,-0.07,25.0,3.3,3.32,3.31,3.3,3.28,3.29,3.28,3.28,3.32,3.32,3.32,3.31,3.28,3.28,3.28,3.29,3.29,3.29,3.29,3.29,3.32,3.32,3.32,3.31,3.32,3.28,47.0,1.0,0.0,1.0,1.0,7104026,0.0,79.18999999999998,1401.0845648052734
1765225609069,0.0,0.0,2.0,25.0,0.0,0.0,0.0,0.0,0.0,0.0,0.0,0.0,0.0,0.0,0.0,0.0,0.0,0.0,-0.01464,-0.000244,0.989664,-0.77,0.35000000000000003,0.0,25.0,3.3,3.32,3.31,3.3,3.28,3.29,3.28,3.28,3.32,3.32,3.32,3.31,3.28,3.28,3.28,3.29,3.29,3.29,3.29,3.29,3.32,3.32,3.32,3.31,3.32,3.28,47.0,1.0,0.0,1.0,1.0,7104043,0.0,79.18999999999998,1401.0845648052734
1765225609101,0.0,0.0,2.0,25.0,0.0,0.0,0.0,0.0,0.0,0.0,0.0,0.0,0.0,0.0,0.0,0.0,0.0,0.0,-0.01464,-0.000244,0.989664,-0.77,0.35000000000000003,0.0,25.0,3.3,3.32,3.31,3.3,3.28,3.29,3.28,3.28,3.32,3.32,3.32,3.31,3.28,3.28,3.28,3.29,3.29,3.29,3.29,3.29,3.32,3.32,3.32,3.31,3.32,3.28,47.0,1.0,0.0,1.0,1.0,7104075,0.0,79.18999999999998,1401.0845648052734
1765225609116,0.0,0.0,2.0,25.0,0.0,0.0,0.0,0.0,0.0,0.0,0.0,0.0,0.0,0.0,0.0,0.0,0.0,0.0,-0.01464,-0.000244,0.989664,-0.77,0.35000000000000003,0.0,25.0,3.3,3.32,3.31,3.3,3.28,3.29,3.28,3.28,3.32,3.32,3.32,3.31,3.28,3.28,3.28,3.29,3.29,3.29,3.29,3.29,3.32,3.32,3.32,3.31,3.32,3.28,47.0,1.0,0.0,1.0,1.0,7104090,0.0,79.18999999999998,1401.0845648052734
1765225609134,0.0,0.0,2.0,25.0,0.0,0.0,0.0,0.0,0.0,0.0,0.0,0.0,0.0,0.0,0.0,0.0,0.0,0.0,-0.01464,-0.000244,0.989664,-0.77,0.35000000000000003,0.0,25.0,3.3,3.32,3.31,3.3,3.28,3.29,3.28,3.28,3.32,3.32,3.32,3.31,3.28,3.28,3.28,3.29,3.29,3.29,3.29,3.29,3.32,3.32,3.32,3.31,3.32,3.28,47.0,1.0,0.0,1.0,1.0,7104108,0.0,79.18999999999998,1401.0845648052734
1765225609150,0.0,0.0,2.0,25.0,0.0,0.0,0.0,0.0,0.0,0.0,0.0,0.0,0.0,0.0,0.0,0.0,0.0,0.0,-0.01464,-0.000244,0.989664,-0.77,0.35000000000000003,0.0,25.0,3.3,3.32,3.31,3.3,3.28,3.29,3.28,3.28,3.32,3.32,3.32,3.31,3.28,3.28,3.28,3.29,3.29,3.29,3.29,3.29,3.32,3.32,3.32,3.31,3.32,3.28,47.0,1.0,0.0,1.0,1.0,7104124,0.0,79.18999999999998,1401.0845648052734
1765225609183,0.0,0.0,2.0,25.0,0.0,0.0,0.0,0.0,0.0,0.0,0.0,0.0,0.0,0.0,0.0,0.0,0.0,0.0,-0.01464,-0.000244,0.989664,-0.77,0.35000000000000003,0.0,25.0,3.3,3.32,3.31,3.3,3.28,3.29,3.28,3.28,3.32,3.32,3.32,3.31,3.28,3.28,3.28,3.29,3.29,3.29,3.29,3.29,3.32,3.32,3.32,3.31,3.32,3.28,47.0,1.0,0.0,1.0,1.0,7104157,0.0,79.18999999999998,1401.0845648052734
1765225609218,0.0,0.0,2.0,25.0,0.0,0.0,0.0,0.0,0.0,0.0,0.0,0.0,0.0,0.0,0.0,0.0,0.0,0.0,-0.01464,-0.000244,0.989664,-0.77,0.35000000000000003,0.0,25.0,3.3,3.32,3.31,3.3,3.28,3.29,3.28,3.28,3.32,3.32,3.32,3.31,3.28,3.28,3.28,3.29,3.29,3.29,3.29,3.29,3.32,3.32,3.32,3.31,3.32,3.28,47.0,1.0,0.0,1.0,1.0,7104192,0.0,79.18999999999998,1401.0845648052734
1765225609249,0.0,0.0,2.0,25.0,0.0,0.0,0.0,0.0,0.0,0.0,0.0,0.0,0.0,0.0,0.0,0.0,0.0,0.0,-0.01464,-0.000244,0.989664,-0.77,0.35000000000000003,0.0,25.0,3.3,3.32,3.31,3.3,3.28,3.29,3.28,3.28,3.32,3.32,3.32,3.31,3.28,3.28,3.28,3.29,3.29,3.29,3.29,3.29,3.32,3.32,3.32,3.31,3.32,3.28,47.0,1.0,0.0,1.0,1.0,7104223,0.0,79.18999999999998,1401.0845648052734
1765225609267,0.0,0.0,2.0,25.0,0.0,0.0,0.0,0.0,0.0,0.0,0.0,0.0,0.0,0.0,0.0,0.0,0.0,0.0,-0.01464,-0.000244,0.989664,-0.56,0.07,0.0,25.0,3.3,3.32,3.31,3.3,3.28,3.29,3.28,3.28,3.32,3.32,3.32,3.31,3.28,3.28,3.28,3.29,3.29,3.29,3.29,3.29,3.32,3.32,3.32,3.31,3.32,3.28,47.0,1.0,0.0,1.0,1.0,7104241,0.0,79.18999999999998,1401.0845648052734
1765225609283,0.0,0.0,2.0,25.0,0.0,0.0,0.0,0.0,0.0,0.0,0.0,0.0,0.0,0.0,0.0,0.0,0.0,0.0,-0.01464,-0.000244,0.989664,-0.56,0.07,0.0,25.0,3.3,3.32,3.31,3.3,3.28,3.29,3.28,3.28,3.32,3.32,3.32,3.31,3.28,3.28,3.28,3.29,3.29,3.29,3.29,3.29,3.32,3.32,3.32,3.31,3.32,3.28,47.0,1.0,0.0,1.0,1.0,7104257,0.0,79.18999999999998,1401.0845648052734
1765225609334,0.0,0.0,2.0,25.0,0.0,0.0,0.0,0.0,0.0,0.0,0.0,0.0,0.0,0.0,0.0,0.0,0.0,0.0,-0.01464,-0.000244,0.989664,-0.56,0.07,0.0,25.0,3.3,3.32,3.31,3.3,3.28,3.29,3.28,3.28,3.32,3.32,3.32,3.31,3.28,3.28,3.28,3.29,3.29,3.29,3.29,3.29,3.32,3.32,3.32,3.31,3.32,3.28,47.0,1.0,0.0,1.0,1.0,7104308,0.0,79.18999999999998,1401.0845648052734
1765225609349,0.0,0.0,2.0,25.0,0.0,0.0,0.0,0.0,0.0,0.0,0.0,0.0,0.0,0.0,0.0,0.0,0.0,0.0,-0.01464,-0.000244,0.989664,-0.56,0.07,0.0,25.0,3.3,3.32,3.31,3.3,3.28,3.29,3.28,3.28,3.32,3.32,3.32,3.31,3.28,3.28,3.28,3.29,3.29,3.29,3.29,3.29,3.32,3.32,3.32,3.31,3.32,3.28,47.0,1.0,0.0,1.0,1.0,7104323,0.0,79.18999999999998,1401.0845648052734
1765225609724,0.0,0.0,2.0,25.0,0.0,0.0,0.0,0.0,0.0,0.0,0.0,0.0,0.0,0.0,0.0,0.0,0.0,0.0,-0.019764,-6.1e-05,0.9925309999999999,-0.665,0.385,0.0,25.0,3.3,3.32,3.31,3.3,3.28,3.29,3.28,3.28,3.32,3.32,3.32,3.31,3.28,3.28,3.28,3.29,3.29,3.29,3.29,3.29,3.32,3.32,3.32,3.31,3.32,3.28,47.0,1.0,0.0,1.0,1.0,7104698,0.0,79.18999999999998,1401.0845648052734
1765225609733,0.0,0.0,2.0,25.0,0.0,0.0,0.0,0.0,0.0,0.0,0.0,0.0,0.0,0.0,0.0,0.0,0.0,0.0,-0.02501,0.000976,0.9946659999999999,-0.665,0.385,0.0,25.0,3.3,3.32,3.31,3.3,3.28,3.29,3.28,3.28,3.32,3.32,3.32,3.31,3.28,3.28,3.28,3.29,3.29,3.29,3.29,3.29,3.32,3.32,3.32,3.31,3.32,3.28,45.0,1.0,0.0,1.0,1.0,7104707,0.0,79.18999999999998,1401.0845648052734
1765225609768,0.0,0.0,2.0,25.0,0.0,0.0,0.0,0.0,0.0,0.0,0.0,0.0,0.0,0.0,0.0,0.0,0.0,0.0,-0.02501,0.000976,0.9946659999999999,-0.665,0.385,0.0,25.0,3.3,3.32,3.31,3.3,3.28,3.29,3.28,3.28,3.32,3.32,3.32,3.31,3.28,3.28,3.28,3.29,3.29,3.29,3.29,3.29,3.32,3.32,3.32,3.31,3.32,3.28,45.0,1.0,0.0,1.0,1.0,7104742,0.0,79.18999999999998,1401.0845648052734
