timestamp,THROTTLE,BRAKE,ECU_MODE_ID,TORQUE_GAIN,TORQUE_REF_LEFT_MOTOR,TORQUE_REF_RIGHT_MOTOR,LEFT_MOTOR_RPM,LEFT_MOTOR_TORQUE,LEFT_MOTOR_CURRENT,RIGHT_MOTOR_RPM,RIGHT_MOTOR_TORQUE,RIGHT_MOTOR_CURRENT,REAR_LEFT_WHEEL_SPEED,REAR_RIGHT_WHEEL_SPEED,FRONT_LEFT_WHEEL_SPEED,FRONT_RIGHT_WHEEL_SPEED,ACCEL_LONGITUDINAL,ACCEL_LATERAL,ACCEL_NORMAL,VEL_ANGULAR_YAW,VEL_ANGULAR_PITCH,VEL_ANGULAR_ROLL,ELETROBUILD_TEMPERATURE,STACK_1_CELL_1,STACK_1_CELL_2,STACK_1_CELL_3,STACK_1_CELL_4,STACK_2_CELL_1,STACK_2_CELL_2,STACK_2_CELL_3,STACK_2_CELL_4,STACK_3_CELL_1,STACK_3_CELL_2,STACK_3_CELL_3,STACK_3_CELL_4,STACK_4_CELL_1,STACK_4_CELL_2,STACK_4_CELL_3,STACK_4_CELL_4,STACK_5_CELL_1,STACK_5_CELL_2,STACK_5_CELL_3,STACK_5_CELL_4,STACK_6_CELL_1,STACK_6_CELL_2,STACK_6_CELL_3,STACK_6_CELL_4,MAX_VOLTAGE,MIN_VOLTAGE,SHUNT_CURRENT,BMS_MODE_ID,BMS_ERROR_ID,AIR_P,AIR_N,t,VEHICLE_SPEED,TOTAL_VOLTAGE,HODOMETRO
1765224060052,0.0,0.0,0.0,0.0,0.0,0.0,3650.0,26.468,230.3,3440.0,29.9,241.9,3650.0,3440.0,0.0,0.0,-0.014152,0.007076,0.993202,-0.77,0.56,0.0,25.0,3.31,3.31,3.31,3.29,3.28,3.29,3.28,3.3,3.31,3.31,3.31,3.31,3.28,3.3,3.28,3.3,3.31,3.31,3.31,3.31,3.31,3.32,3.31,3.31,3.32,3.28,0.0,1.0,2.0,0.0,0.0,5555026,39.137255785714295,79.26,704.4671127022002
1765224060087,0.0,0.0,0.0,0.0,0.0,0.0,3650.0,26.468,230.3,3440.0,29.9,241.9,3650.0,3440.0,0.0,0.0,-0.014152,0.007076,0.993202,-0.77,0.56,0.0,25.0,3.31,3.31,3.31,3.29,3.28,3.29,3.28,3.3,3.31,3.31,3.31,3.31,3.28,3.3,3.28,3.3,3.31,3.31,3.31,3.31,3.31,3.32,3.31,3.31,3.32,3.28,0.0,1.0,2.0,0.0,0.0,5555061,39.137255785714295,79.26,704.4671127022002
1765224060104,0.0,0.0,0.0,0.0,0.0,0.0,3650.0,26.468,230.3,3440.0,29.9,241.9,3650.0,3440.0,0.0,0.0,-0.014152,0.007076,0.993202,-0.77,0.56,0.0,25.0,3.31,3.31,3.31,3.29,3.28,3.29,3.28,3.3,3.31,3.31,3.31,3.31,3.28,3.3,3.28,3.3,3.31,3.31,3.31,3.31,3.31,3.32,3.31,3.31,3.32,3.28,0.0,1.0,2.0,0.0,0.0,5555078,39.137255785714295,79.26,704.4671127022002
1765224060154,0.0,0.0,0.0,0.0,0.0,0.0,3650.0,26.468,230.3,3440.0,29.9,241.9,3650.0,3440.0,0.0,0.0,-0.014395999999999999,0.007442,0.994788,-0.77,0.56,0.0,25.0,3.31,3.31,3.31,3.29,3.28,3.29,3.28,3.3,3.31,3.31,3.31,3.31,3.28,3.3,3.28,3.3,3.31,3.31,3.31,3.31,3.31,3.32,3.31,3.31,3.32,3.28,0.0,1.0,2.0,0.0,0.0,5555128,39.137255785714295,79.26,704.4671127022002
1765224060187,0.0,0.0,0.0,0.0,0.0,0.0,3650.0,26.468,230.3,3440.0,29.9,241.9,3650.0,3440.0,0.0,0.0,-0.014395999999999999,0.007442,0.994788,-0.7000000000000001,0.6300000000000001,0.0,25.0,3.31,3.31,3.31,3.29,3.28,3.29,3.28,3.3,3.31,3.31,3.31,3.31,3.28,3.3,3.28,3.3,3.31,3.31,3.31,3.31,3.31,3.32,3.31,3.31,3.32,3.28,0.0,1.0,2.0,0.0,0.0,5555161,39.137255785714295,79.26,704.4671127022002
1765224060204,0.0,0.0,0.0,0.0,0.0,0.0,3650.0,26.468,230.3,3440.0,29.9,241.9,3650.0,3440.0,0.0,0.0,-0.014395999999999999,0.007442,0.994788,-0.7000000000000001,0.6300000000000001,0.0,25.0,3.31,3.31,3.31,3.29,3.28,3.29,3.28,3.3,3.31,3.31,3.31,3.31,3.28,3.3,3.28,3.3,3.31,3.31,3.31,3.31,3.31,3.32,3.31,3.31,3.32,3.28,0.0,1.0,2.0,0.0,0.0,5555178,39.137255785714295,79.26,704.4671127022002
1765224060237,0.0,0.0,0.0,0.0,0.0,0.0,3650.0,26.468,230.3,3440.0,29.9,241.9,3650.0,3440.0,0.0,0.0,-0.01464,0.005124,0.9940559999999999,-0.7000000000000001,0.6300000000000001,0.0,25.0,3.31,3.31,3.31,3.29,3.28,3.29,3.28,3.3,3.31,3.31,3.31,3.31,3.28,3.3,3.28,3.3,3.31,3.31,3.31,3.31,3.31,3.32,3.31,3.31,3.32,3.28,0.0,1.0,2.0,0.0,0.0,5555211,39.137255785714295,79.26,704.4671127022002
1765224060271,0.0,0.0,0.0,0.0,0.0,0.0,3650.0,26.468,230.3,3440.0,29.9,241.9,3650.0,3440.0,0.0,0.0,-0.01464,0.005124,0.9940559999999999,-0.77,0.49000000000000005,-0.07,25.0,3.31,3.31,3.31,3.29,3.28,3.29,3.28,3.3,3.31,3.31,3.31,3.31,3.28,3.3,3.28,3.3,3.31,3.31,3.31,3.31,3.31,3.32,3.31,3.31,3.32,3.28,0.0,1.0,2.0,0.0,0.0,5555245,39.137255785714295,79.26,704.4671127022002
1765224060288,0.0,0.0,2.0,25.0,0.0,0.0,3650.0,26.468,230.3,3440.0,29.9,241.9,3650.0,3440.0,0.0,0.0,-0.01464,0.005124,0.9940559999999999,-0.77,0.49000000000000005,-0.07,25.0,3.31,3.31,3.31,3.29,3.28,3.29,3.28,3.3,3.31,3.31,3.31,3.31,3.28,3.3,3.28,3.3,3.31,3.31,3.31,3.31,3.31,3.32,3.31,3.31,3.32,3.28,0.0,1.0,2.0,0.0,0.0,5555262,39.137255785714295,79.26,704.4671127022002
1765224060304,0.0,0.0,2.0,25.0,0.0,0.0,3650.0,26.468,230.3,3440.0,29.9,241.9,3650.0,3440.0,0.0,0.0,-0.01464,0.005124,0.9940559999999999,-0.77,0.49000000000000005,-0.07,25.0,3.31,3.31,3.31,3.29,3.28,3.29,3.28,3.3,3.31,3.31,3.31,3.31,3.28,3.3,3.28,3.3,3.31,3.31,3.31,3.31,3.31,3.32,3.31,3.31,3.32,3.28,0.0,1.0,2.0,0.0,0.0,5555278,39.137255785714295,79.26,704.4671127022002
1765224060321,0.0,0.0,2.0,25.0,0.0,0.0,3650.0,26.468,230.3,3440.0,29.9,241.9,0.0,0.0,0.0,0.0,-0.01464,0.005124,0.9940559999999999,-0.77,0.49000000000000005,-0.07,25.0,3.31,3.31,3.31,3.29,3.28,3.29,3.28,3.3,3.31,3.31,3.31,3.31,3.28,3.3,3.28,3.3,3.31,3.31,3.31,3.31,3.31,3.32,3.31,3.31,3.32,3.28,0.0,1.0,2.0,0.0,0.0,5555295,39.137255785714295,79.26,704.4671127022002
1765224060354,0.0,0.0,2.0,25.0,0.0,0.0,0.0,0.0,0.0,3440.0,29.9,241.9,0.0,0.0,0.0,0.0,-0.01464,0.005124,0.9940559999999999,-0.77,0.49000000000000005,-0.07,25.0,3.31,3.31,3.31,3.29,3.28,3.29,3.28,3.3,3.31,3.31,3.31,3.31,3.28,3.3,3.28,3.3,3.31,3.31,3.31,3.31,3.31,3.32,3.31,3.31,3.32,3.28,0.0,1.0,2.0,0.0,0.0,5555328,18.989021142857144,79.26,704.4671127022002
1765224060404,0.0,0.0,2.0,25.0,0.0,0.0,0.0,0.0,0.0,0.0,0.0,0.0,0.0,0.0,0.0,0.0,-0.01464,0.005124,0.9940559999999999,-0.77,0.49000000000000005,-0.07,25.0,3.31,3.31,3.31,3.29,3.28,3.29,3.28,3.3,3.31,3.31,3.31,3.31,3.28,3.3,3.28,3.3,3.31,3.31,3.31,3.31,3.31,3.32,3.31,3.31,3.32,3.28,0.0,1.0,2.0,0.0,0.0,5555378,0.0,79.26,704.4671127022002
1765224060471,0.0,0.0,2.0,25.0,0.0,0.0,0.0,0.0,0.0,0.0,0.0,0.0,0.0,0.0,0.0,0.0,-0.01464,0.005124,0.9940559999999999,-0.8400000000000001,0.49000000000000005,-0.07,25.0,3.31,3.31,3.31,3.29,3.28,3.29,3.28,3.3,3.31,3.31,3.31,3.31,3.28,3.3,3.28,3.3,3.31,3.31,3.31,3.31,3.31,3.32,3.31,3.31,3.32,3.28,0.0,1.0,2.0,0.0,0.0,5555445,0.0,79.26,704.4671127022002
1765224060488,0.0,0.0,2.0,25.0,0.0,0.0,0.0,0.0,0.0,0.0,0.0,0.0,0.0,0.0,0.0,0.0,-0.01464,0.005124,0.9940559999999999,-0.8400000000000001,0.49000000000000005,-0.07,25.0,3.31,3.31,3.31,3.29,3.28,3.29,3.28,3.3,3.31,3.31,3.31,3.31,3.28,3.3,3.28,3.3,3.31,3.31,3.31,3.31,3.31,3.32,3.31,3.31,3.32,3.28,0.0,1.0,2.0,0.0,0.0,5555462,0.0,79.26,704.4671127022002
1765224060521,0.0,0.0,2.0,25.0,0.0,0.0,0.0,0.0,0.0,0.0,0.0,0.0,0.0,0.0,0.0,0.0,-0.014761999999999999,0.005978,0.995154,-0.8400000000000001,0.49000000000000005,-0.07,25.0,3.31,3.31,3.31,3.29,3.28,3.29,3.28,3.3,3.31,3.31,3.31,3.31,3.28,3.3,3.28,3.3,3.31,3.31,3.31,3.31,3.31,3.32,3.31,3.31,3.32,3.28,0.0,1.0,2.0,0.0,0.0,5555495,0.0,79.26,704.4671127022002
1765224060552,0.0,0.0,2.0,25.0,0.0,0.0,0.0,0.0,0.0,0.0,0.0,0.0,0.0,0.0,0.0,0.0,-0.014761999999999999,0.005978,0.995154,-0.7000000000000001,0.49000000000000005,-0.07,25.0,3.31,3.31,3.31,3.29,3.28,3.29,3.28,3.3,3.31,3.31,3.31,3.31,3.28,3.3,3.28,3.3,3.31,3.31,3.31,3.31,3.31,3.32,3.31,3.31,3.32,3.28,0.0,1.0,2.0,0.0,0.0,5555526,0.0,79.26,704.4671127022002
1765224060569,0.0,0.0,2.0,25.0,0.0,0.0,0.0,0.0,0.0,0.0,0.0,0.0,0.0,0.0,0.0,0.0,-0.014761999999999999,0.005978,0.995154,-0.7000000000000001,0.49000000000000005,-0.07,25.0,3.31,3.31,3.31,3.29,3.28,3.29,3.28,3.3,3.31,3.31,3.31,3.31,3.28,3.3,3.28,3.3,3.31,3.31,3.31,3.31,3.31,3.32,3.31,3.31,3.32,3.28,0.0,1.0,2.0,0.0,0.0,5555543,0.0,79.26,704.4671127022002
1765224060587,0.0,0.0,2.0,25.0,0.0,0.0,0.0,0.0,0.0,0.0,0.0,0.0,0.0,0.0,0.0,0.0,-0.014761999999999999,0.005978,0.995154,-0.7000000000000001,0.49000000000000005,-0.07,25.0,3.31,3.31,3.31,3.29,3.28,3.29,3.28,3.3,3.31,3.31,3.31,3.31,3.28,3.3,3.28,3.3,3.31,3.31,3.31,3.31,3.31,3.32,3.31,3.31,3.32,3.28,0.0,1.0,2.0,0.0,0.0,5555561,0.0,79.26,704.4671127022002
1765224060604,0.0,0.0,2.0,25.0,0.0,0.0,0.0,0.0,0.0,0.0,0.0,0.0,0.0,0.0,0.0,0.0,-0.014761999999999999,0.005978,0.995154,-0.7000000000000001,0.49000000000000005,-0.07,25.0,3.31,3.31,3.31,3.29,3.28,3.29,3.28,3.3,3.31,3.31,3.31,3.31,3.28,3.3,3.28,3.3,3.31,3.31,3.31,3.31,3.31,3.32,3.31,3.31,3.32,3.28,0.0,1.0,2.0,0.0,0.0,5555578,0.0,79.26,704.4671127022002
1765224060620,0.0,0.0,2.0,25.0,0.0,0.0,0.0,0.0,0.0,0.0,0.0,0.0,0.0,0.0,0.0,0.0,-0.014761999999999999,0.005978,0.995154,-0.7000000000000001,0.49000000000000005,-0.07,25.0,3.31,3.31,3.31,3.29,3.28,3.29,3.28,3.3,3.31,3.31,3.31,3.31,3.28,3.3,3.28,3.3,3.31,3.31,3.31,3.31,3.31,3.32,3.31,3.31,3.32,3.28,0.0,1.0,2.0,0.0,0.0,5555594,0.0,79.26,704.4671127022002
1765224060638,0.0,0.0,2.0,25.0,0.0,0.0,0.0,0.0,0.0,0.0,0.0,0.0,0.0,0.0,0.0,0.0,-0.014761999999999999,0.005978,0.995154,-0.7000000000000001,0.49000000000000005,-0.07,25.0,3.31,3.31,3.31,3.29,3.28,3.29,3.28,3.3,3.31,3.31,3.31,3.31,3.28,3.3,3.28,3.3,3.31,3.31,3.31,3.31,3.31,3.32,3.31,3.31,3.32,3.28,0.0,1.0,2.0,0.0,0.0,5555612,0.0,79.26,704.4671127022002
1765224060654,0.0,0.0,2.0,25.0,0.0,0.0,0.0,0.0,0.0,0.0,0.0,0.0,0.0,0.0,0.0,0.0,-0.014761999999999999,0.005978,0.995154,-0.7000000000000001,0.49000000000000005,-0.07,25.0,3.31,3.31,3.31,3.29,3.28,3.29,3.28,3.3,3.31,3.31,3.31,3.31,3.28,3.3,3.28,3.3,3.31,3.31,3.31,3.31,3.31,3.32,3.31,3.31,3.33,3.29,45.0,1.0,2.0,0.0,0.0,5555628,0.0,79.26,704.4671127022002
1765224060704,0.0,0.0,2.0,25.0,0.0,0.0,0.0,0.0,0.0,0.0,0.0,0.0,0.0,0.0,0.0,0.0,-0.014761999999999999,0.005978,0.995154,-0.7000000000000001,0.49000000000000005,-0.07,25.0,3.31,3.31,3.31,3.29,3.28,3.29,3.28,3.3,3.31,3.31,3.31,3.31,3.28,3.3,3.28,3.3,3.31,3.31,3.31,3.31,3.31,3.32,3.31,3.31,3.33,3.29,45.0,1.0,0.0,1.0,1.0,5555678,0.0,79.26,704.4671127022002
1765224060719,0.0,0.0,2.0,25.0,0.0,0.0,0.0,0.0,0.0,0.0,0.0,0.0,0.0,0.0,0.0,0.0,-0.014761999999999999,0.005978,0.995154,-0.7000000000000001,0.49000000000000005,-0.07,25.0,3.31,3.31,3.31,3.29,3.28,3.29,3.28,3.3,3.31,3.31,3.31,3.31,3.28,3.3,3.28,3.3,3.31,3.31,3.31,3.31,3.31,3.32,3.31,3.31,3.33,3.29,45.0,1.0,0.0,1.0,1.0,5555693,0.0,79.26,704.4671127022002
1765224060752,0.0,0.0,2.0,25.0,0.0,0.0,0.0,0.0,0.0,0.0,0.0,0.0,0.0,0.0,0.0,0.0,-0.016104,0.005856,0.9928359999999999,-0.7000000000000001,0.49000000000000005,-0.07,25.0,3.31,3.31,3.31,3.29,3.28,3.29,3.28,3.3,3.31,3.31,3.31,3.31,3.28,3.3,3.28,3.3,3.31,3.31,3.31,3.31,3.31,3.32,3.31,3.31,3.33,3.29,45.0,1.0,0.0,1.0,1.0,5555726,0.0,79.26,704.4671127022002
1765224060785,0.0,0.0,2.0,25.0,0.0,0.0,0.0,0.0,0.0,0.0,0.0,0.0,0.0,0.0,0.0,0.0,-0.016104,0.005856,0.9928359999999999,-0.7000000000000001,0.49000000000000005,-0.07,25.0,3.31,3.31,3.31,3.29,3.28,3.29,3.28,3.3,3.31,3.31,3.31,3.31,3.28,3.3,3.28,3.3,3.31,3.31,3.31,3.31,3.31,3.32,3.31,3.31,3.33,3.29,45.0,1.0,0.0,1.0,1.0,5555759,0.0,79.26,704.4671127022002
1765224060803,0.0,0.0,2.0,25.0,0.0,0.0,0.0,0.0,0.0,0.0,0.0,0.0,0.0,0.0,0.0,0.0,-0.016104,0.005856,0.9928359999999999,-0.8400000000000001,0.49000000000000005,-0.07,25.0,3.31,3.31,3.31,3.29,3.28,3.29,3.28,3.3,3.31,3.31,3.31,3.31,3.28,3.3,3.28,3.3,3.31,3.31,3.31,3.31,3.31,3.32,3.31,3.31,3.33,3.29,45.0,1.0,0.0,1.0,1.0,5555777,0.0,79.26,704.4671127022002
1765224060837,0.0,0.0,2.0,25.0,0.0,0.0,0.0,0.0,0.0,0.0,0.0,0.0,0.0,0.0,0.0,0.0,-0.016104,0.005856,0.9928359999999999,-0.8400000000000001,0.49000000000000005,-0.07,25.0,3.31,3.31,3.31,3.29,3.28,3.29,3.28,3.3,3.31,3.31,3.31,3.31,3.28,3.3,3.28,3.3,3.31,3.31,3.31,3.31,3.31,3.32,3.31,3.31,3.33,3.29,45.0,1.0,0.0,1.0,1.0,5555811,0.0,79.26,704.4671127022002
1765224060854,0.0,0.0,2.0,25.0,0.0,0.0,0.0,0.0,0.0,0.0,0.0,0.0,0.0,0.0,0.0,0.0,-0.016104,0.005856,0.9928359999999999,-0.8400000000000001,0.49000000000000005,-0.07,25.0,3.31,3.31,3.31,3.29,3.28,3.29,3.28,3.3,3.31,3.31,3.31,3.31,3.28,3.3,3.28,3.3,3.31,3.31,3.31,3.31,3.31,3.32,3.31,3.31,3.33,3.29,45.0,1.0,0.0,1.0,1.0,5555828,0.0,79.26,704.4671127022002
1765224060904,0.0,0.0,2.0,25.0,0.0,0.0,0.0,0.0,0.0,0.0,0.0,0.0,0.0,0.0,0.0,0.0,-0.016104,0.005856,0.9928359999999999,-0.8400000000000001,0.49000000000000005,-0.07,25.0,3.31,3.31,3.31,3.29,3.28,3.29,3.28,3.3,3.31,3.31,3.31,3.31,3.28,3.3,3.28,3.3,3.31,3.31,3.31,3.31,3.31,3.32,3.31,3.31,3.33,3.29,46.0,1.0,0.0,1.0,1.0,5555878,0.0,79.26,704.4671127022002
1765224060971,0.0,0.0,2.0,25.0,0.0,0.0,0.0,0.0,0.0,0.0,0.0,0.0,0.0,0.0,0.0,0.0,-0.016714,0.0057339999999999995,0.994788,-0.7000000000000001,0.56,0.0,25.0,3.31,3.31,3.31,3.29,3.28,3.29,3.28,3.3,3.31,3.31,3.31,3.31,3.28,3.3,3.28,3.3,3.31,3.31,3.31,3.31,3.31,3.32,3.31,3.31,3.33,3.29,46.0,1.0,0.0,1.0,1.0,5555945,0.0,79.26,704.4671127022002
1765224061004,0.0,0.0,2.0,25.0,0.0,0.0,0.0,0.0,0.0,0.0,0.0,0.0,0.0,0.0,0.0,0.0,-0.016714,0.0057339999999999995,0.994788,-0.7000000000000001,0.56,0.0,25.0,3.31,3.31,3.31,3.29,3.28,3.29,3.28,3.3,3.31,3.31,3.31,3.31,3.28,3.3,3.28,3.3,3.31,3.31,3.31,3.31,3.31,3.32,3.31,3.31,3.33,3.29,46.0,1.0,0.0,1.0,1.0,5555978,0.0,79.26,704.4671127022002
1765224061020,0.0,0.0,2.0,25.0,0.0,0.0,0.0,0.0,0.0,0.0,0.0,0.0,0.0,0.0,0.0,0.0,-0.016714,0.0057339999999999995,0.994788,-0.7000000000000001,0.56,0.0,25.0,3.31,3.31,3.31,3.29,3.28,3.29,3.28,3.3,3.31,3.31,3.31,3.31,3.28,3.3,3.28,3.3,3.31,3.31,3.31,3.31,3.31,3.32,3.31,3.31,3.33,3.29,46.0,1.0,0.0,1.0,1.0,5555994,0.0,79.26,704.4671127022002
1765224061037,0.0,0.0,2.0,25.0,0.0,0.0,0.0,0.0,0.0,0.0,0.0,0.0,0.0,0.0,0.0,0.0,-0.016714,0.0057339999999999995,0.994788,-0.7000000000000001,0.56,0.0,25.0,3.31,3.31,3.31,3.29,3.28,3.29,3.28,3.3,3.31,3.31,3.31,3.31,3.28,3.3,3.28,3.3,3.31,3.31,3.31,3.31,3.31,3.32,3.31,3.31,3.33,3.29,46.0,1.0,0.0,1.0,1.0,5556011,0.0,79.26,704.4671127022002
1765224061054,0.0,0.0,2.0,25.0,0.0,0.0,0.0,0.0,0.0,0.0,0.0,0.0,0.0,0.0,0.0,0.0,-0.016714,0.0057339999999999995,0.994788,-0.7000000000000001,0.56,0.0,25.0,3.31,3.31,3.31,3.29,3.28,3.29,3.28,3.3,3.31,3.31,3.31,3.31,3.28,3.3,3.28,3.3,3.31,3.31,3.31,3.31,3.31,3.32,3.31,3.31,3.33,3.29,46.0,1.0,0.0,1.0,1.0,5556028,0.0,79.26,704.4671127022002
1765224061070,0.0,0.0,2.0,25.0,0.0,0.0,0.0,0.0,0.0,0.0,0.0,0.0,0.0,0.0,0.0,0.0,-0.016714,0.0057339999999999995,0.994788,-0.7000000000000001,0.56,0.0,25.0,3.31,3.31,3.31,3.29,3.28,3.29,3.28,3.3,3.31,3.31,3.31,3.31,3.28,3.3,3.28,3.3,3.31,3.31,3.31,3.31,3.31,3.32,3.31,3.31,3.33,3.29,46.0,1.0,0.0,1.0,1.0,5556044,0.0,79.26,704.4671127022002
1765224061087,0.0,0.0,2.0,25.0,0.0,0.0,0.0,0.0,0.0,0.0,0.0,0.0,0.0,0.0,0.0,0.0,-0.016714,0.0057339999999999995,0.994788,-0.7000000000000001,0.56,0.0,25.0,3.31,3.31,3.31,3.29,3.28,3.29,3.28,3.3,3.31,3.31,3.31,3.31,3.28,3.3,3.28,3.3,3.31,3.31,3.31,3.31,3.31,3.32,3.31,3.31,3.33,3.29,46.0,1.0,0.0,1.0,1.0,5556061,0.0,79.26,704.4671127022002
1765224061104,0.0,0.0,2.0,25.0,0.0,0.0,0.0,0.0,0.0,0.0,0.0,0.0,0.0,0.0,0.0,0.0,-0.013663999999999999,0.006588,0.9940559999999999,-0.7000000000000001,0.56,0.0,25.0,3.31,3.31,3.31,3.29,3.28,3.29,3.28,3.3,3.31,3.31,3.31,3.31,3.28,3.3,3.28,3.3,3.31,3.31,3.31,3.31,3.31,3.32,3.31,3.31,3.33,3.29,46.0,1.0,0.0,1.0,1.0,5556078,0.0,79.26,704.4671127022002
1765224061154,0.0,0.0,2.0,25.0,0.0,0.0,0.0,0.0,0.0,0.0,0.0,0.0,0.0,0.0,0.0,0.0,-0.013663999999999999,0.006588,0.9940559999999999,-0.7000000000000001,0.49000000000000005,-0.07,25.0,3.31,3.31,3.31,3.29,3.28,3.29,3.28,3.3,3.31,3.31,3.31,3.31,3.28,3.3,3.28,3.3,3.31,3.31,3.31,3.31,3.31,3.32,3.31,3.31,3.33,3.29,46.0,1.0,0.0,1.0,1.0,5556128,0.0,79.26,704.4671127022002
1765224061221,0.0,0.0,2.0,25.0,0.0,0.0,0.0,0.0,0.0,0.0,0.0,0.0,0.0,0.0,0.0,0.0,-0.013663999999999999,0.006588,0.9940559999999999,-0.7000000000000001,0.49000000000000005,-0.07,25.0,3.31,3.31,3.31,3.29,3.28,3.29,3.28,3.3,3.31,3.31,3.31,3.31,3.28,3.3,3.28,3.3,3.31,3.31,3.31,3.31,3.31,3.32,3.31,3.31,3.33,3.29,46.0,1.0,0.0,1.0,1.0,5556195,0.0,79.26,704.4671127022002
1765224061254,0.0,0.0,2.0,25.0,0.0,0.0,0.0,0.0,0.0,0.0,0.0,0.0,0.0,0.0,0.0,0.0,-0.01525,0.0060999999999999995,0.99369,-0.7000000000000001,0.49000000000000005,-0.07,25.0,3.31,3.31,3.31,3.29,3.28,3.29,3.28,3.3,3.31,3.31,3.31,3.31,3.28,3.3,3.28,3.3,3.31,3.31,3.31,3.31,3.31,3.32,3.31,3.31,3.33,3.29,46.0,1.0,0.0,1.0,1.0,5556228,0.0,79.26,704.4671127022002
1765224061271,0.0,0.0,2.0,25.0,0.0,0.0,0.0,0.0,0.0,0.0,0.0,0.0,0.0,0.0,0.0,0.0,-0.01525,0.0060999999999999995,0.99369,-0.77,0.6300000000000001,0.0,25.0,3.31,3.31,3.31,3.29,3.28,3.29,3.28,3.3,3.31,3.31,3.31,3.31,3.28,3.3,3.28,3.3,3.31,3.31,3.31,3.31,3.31,3.32,3.31,3.31,3.33,3.29,46.0,1.0,0.0,1.0,1.0,5556245,0.0,79.26,704.4671127022002
1765224061287,0.0,0.0,2.0,25.0,0.0,0.0,0.0,0.0,0.0,0.0,0.0,0.0,0.0,0.0,0.0,0.0,-0.01525,0.0060999999999999995,0.99369,-0.77,0.6300000000000001,0.0,25.0,3.31,3.31,3.31,3.29,3.28,3.29,3.28,3.3,3.31,3.31,3.31,3.31,3.28,3.3,3.28,3.3,3.31,3.31,3.31,3.31,3.31,3.32,3.31,3.31,3.33,3.29,46.0,1.0,0.0,1.0,1.0,5556261,0.0,79.26,704.4671127022002
1765224061320,0.0,0.0,2.0,25.0,0.0,0.0,0.0,0.0,0.0,0.0,0.0,0.0,0.0,0.0,0.0,0.0,-0.01525,0.0060999999999999995,0.99369,-0.77,0.6300000000000001,0.0,25.0,3.31,3.31,3.31,3.29,3.28,3.29,3.28,3.3,3.31,3.31,3.31,3.31,3.28,3.3,3.28,3.3,3.31,3.31,3.31,3.31,3.31,3.32,3.31,3.31,3.33,3.29,46.0,1.0,0.0,1.0,1.0,5556294,0.0,79.26,704.4671127022002
1765224061370,0.0,0.0,2.0,25.0,0.0,0.0,0.0,0.0,0.0,0.0,0.0,0.0,0.0,0.0,0.0,0.0,-0.01525,0.0060999999999999995,0.99369,-0.77,0.6300000000000001,0.0,25.0,3.31,3.31,3.31,3.29,3.28,3.29,3.28,3.3,3.31,3.31,3.31,3.31,3.28,3.3,3.28,3.3,3.31,3.31,3.31,3.31,3.31,3.32,3.31,3.31,3.33,3.29,46.0,1.0,0.0,1.0,1.0,5556344,0.0,79.26,704.4671127022002
1765224061403,0.0,0.0,2.0,25.0,0.0,0.0,0.0,0.0,0.0,0.0,0.0,0.0,0.0,0.0,0.0,0.0,-0.014395999999999999,0.00488,0.9934459999999999,-0.77,0.6300000000000001,0.0,25.0,3.31,3.31,3.31,3.29,3.28,3.29,3.28,3.3,3.31,3.31,3.31,3.31,3.28,3.3,3.28,3.3,3.31,3.31,3.31,3.31,3.31,3.32,3.31,3.31,3.33,3.29,46.0,1.0,0.0,1.0,1.0,5556377,0.0,79.26,704.4671127022002
1765224061420,0.0,0.0,2.0,25.0,0.0,0.0,0.0,0.0,0.0,0.0,0.0,0.0,0.0,0.0,0.0,0.0,-0.014395999999999999,0.00488,0.9934459999999999,-0.77,0.49000000000000005,-0.07,25.0,3.31,3.31,3.31,3.29,3.28,3.29,3.28,3.3,3.31,3.31,3.31,3.31,3.28,3.3,3.28,3.3,3.31,3.31,3.31,3.31,3.31,3.32,3.31,3.31,3.33,3.29,46.0,1.0,0.0,1.0,1.0,5556394,0.0,79.26,704.4671127022002
1765224061452,0.0,0.0,2.0,25.0,0.0,0.0,0.0,0.0,0.0,0.0,0.0,0.0,0.0,0.0,0.0,0.0,-0.014395999999999999,0.00488,0.9934459999999999,-0.77,0.49000000000000005,-0.07,25.0,3.31,3.31,3.31,3.29,3.28,3.29,3.28,3.3,3.31,3.31,3.31,3.31,3.28,3.3,3.28,3.3,3.31,3.31,3.31,3.31,3.31,3.32,3.31,3.31,3.33,3.29,46.0,1.0,0.0,1.0,1.0,5556426,0.0,79.26,704.4671127022002
1765224061469,0.0,0.0,2.0,25.0,0.0,0.0,0.0,0.0,0.0,0.0,0.0,0.0,0.0,0.0,0.0,0.0,-0.014395999999999999,0.00488,0.9934459999999999,-0.77,0.49000000000000005,-0.07,25.0,3.31,3.31,3.31,3.29,3.28,3.29,3.28,3.3,3.31,3.31,3.31,3.31,3.28,3.3,3.28,3.3,3.31,3.31,3.31,3.31,3.31,3.32,3.31,3.31,3.33,3.29,46.0,1.0,0.0,1.0,1.0,5556443,0.0,79.26,704.4671127022002
1765224061486,0.0,0.0,2.0,25.0,0.0,0.0,0.0,0.0,0.0,0.0,0.0,0.0,0.0,0.0,0.0,0.0,-0.014395999999999999,0.00488,0.9934459999999999,-0.77,0.49000000000000005,-0.07,25.0,3.31,3.31,3.31,3.29,3.28,3.29,3.28,3.3,3.31,3.31,3.31,3.31,3.28,3.3,3.28,3.3,3.31,3.31,3.31,3.31,3.31,3.32,3.31,3.31,3.33,3.29,46.0,1.0,0.0,1.0,1.0,5556460,0.0,79.26,704.4671127022002
1765224061519,0.0,0.0,2.0,25.0,0.0,0.0,0.0,0.0,0.0,0.0,0.0,0.0,0.0,0.0,0.0,0.0,-0.014395999999999999,0.00488,0.9934459999999999,-0.77,0.49000000000000005,-0.07,25.0,3.31,3.31,3.31,3.29,3.28,3.29,3.28,3.3,3.31,3.31,3.31,3.31,3.28,3.3,3.28,3.3,3.31,3.31,3.31,3.31,3.31,3.32,3.31,3.31,3.33,3.29,46.0,1.0,0.0,1.0,1.0,5556493,0.0,79.26,704.4671127022002
1765224061571,0.0,0.0,2.0,25.0,0.0,0.0,0.0,0.0,0.0,0.0,0.0,0.0,0.0,0.0,0.0,0.0,-0.014395999999999999,0.00488,0.9934459999999999,-0.77,0.49000000000000005,-0.07,25.0,3.31,3.31,3.31,3.29,3.28,3.29,3.28,3.3,3.31,3.31,3.31,3.31,3.28,3.3,3.28,3.3,3.31,3.31,3.31,3.31,3.31,3.32,3.31,3.31,3.33,3.29,46.0,1.0,0.0,1.0,1.0,5556545,0.0,79.26,704.4671127022002
1765224061604,0.0,0.0,2.0,25.0,0.0,0.0,0.0,0.0,0.0,0.0,0.0,0.0,0.0,0.0,0.0,0.0,-0.01464,0.00549,0.994544,-0.77,0.49000000000000005,-0.07,25.0,3.31,3.31,3.31,3.29,3.28,3.29,3.28,3.3,3.31,3.31,3.31,3.31,3.28,3.3,3.28,3.3,3.31,3.31,3.31,3.31,3.31,3.32,3.31,3.31,3.33,3.29,46.0,1.0,0.0,1.0,1.0,5556578,0.0,79.26,704.4671127022002
1765224061621,0.0,0.0,2.0,25.0,0.0,0.0,0.0,0.0,0.0,0.0,0.0,0.0,0.0,0.0,0.0,0.0,-0.01464,0.00549,0.994544,-0.77,0.49000000000000005,-0.07,25.0,3.32,3.32,3.32,3.3,3.28,3.29,3.28,3.3,3.31,3.31,3.31,3.31,3.28,3.3,3.28,3.3,3.31,3.31,3.31,3.31,3.31,3.32,3.31,3.31,3.33,3.29,46.0,1.0,0.0,1.0,1.0,5556595,0.0,79.30000000000001,704.4671127022002
1765224061637,0.0,0.0,2.0,25.0,0.0,0.0,0.0,0.0,0.0,0.0,0.0,0.0,0.0,0.0,0.0,0.0,-0.01464,0.00549,0.994544,-0.77,0.49000000000000005,-0.07,25.0,3.32,3.32,3.32,3.3,3.29,3.29,3.29,3.29,3.31,3.31,3.31,3.31,3.28,3.3,3.28,3.3,3.31,3.31,3.31,3.31,3.31,3.32,3.31,3.31,3.33,3.29,46.0,1.0,0.0,1.0,1.0,5556611,0.0,79.31,704.4671127022002
1765224061671,0.0,0.0,2.0,25.0,0.0,0.0,0.0,0.0,0.0,0.0,0.0,0.0,0.0,0.0,0.0,0.0,-0.01464,0.00549,0.994544,-0.77,0.49000000000000005,-0.07,25.0,3.32,3.32,3.32,3.3,3.29,3.29,3.29,3.29,3.32,3.32,3.32,3.32,3.28,3.3,3.28,3.3,3.31,3.31,3.31,3.31,3.31,3.32,3.31,3.31,3.33,3.29,46.0,1.0,0.0,1.0,1.0,5556645,0.0,79.35,704.4671127022002
1765224061687,0.0,0.0,2.0,25.0,0.0,0.0,0.0,0.0,0.0,0.0,0.0,0.0,0.0,0.0,0.0,0.0,-0.01464,0.00549,0.994544,-0.77,0.49000000000000005,-0.07,25.0,3.32,3.32,3.32,3.3,3.29,3.29,3.29,3.29,3.32,3.32,3.32,3.32,3.29,3.29,3.29,3.29,3.31,3.31,3.31,3.31,3.31,3.32,3.31,3.31,3.33,3.29,46.0,1.0,0.0,1.0,1.0,5556661,0.0,79.35,704.4671127022002
1765224061704,0.0,0.0,2.0,25.0,0.0,0.0,0.0,0.0,0.0,0.0,0.0,0.0,0.0,0.0,0.0,0.0,-0.01464,0.00549,0.994544,-0.77,0.56,17.85,25.0,3.32,3.32,3.32,3.3,3.29,3.29,3.29,3.29,3.32,3.32,3.32,3.32,3.29,3.29,3.29,3.29,3.32,3.32,3.32,3.31,3.31,3.32,3.31,3.31,3.33,3.29,46.0,1.0,0.0,1.0,1.0,5556678,0.0,79.38,704.4671127022002
1765224061720,0.0,0.0,2.0,25.0,0.0,0.0,0.0,0.0,0.0,0.0,0.0,0.0,0.0,0.0,0.0,0.0,-0.01464,0.00549,0.994544,-0.77,0.56,17.85,25.0,3.32,3.32,3.32,3.3,3.29,3.29,3.29,3.29,3.32,3.32,3.32,3.32,3.29,3.29,3.29,3.29,3.32,3.32,3.32,3.31,3.32,3.33,3.33,3.32,3.33,3.29,46.0,1.0,0.0,1.0,1.0,5556694,0.0,79.42999999999998,704.4671127022002
1765224061737,0.0,0.0,2.0,25.0,0.0,0.0,0.0,0.0,0.0,0.0,0.0,0.0,0.0,0.0,0.0,0.0,-0.01464,0.00549,0.994544,-0.77,0.56,17.85,25.0,3.32,3.32,3.32,3.3,3.29,3.29,3.29,3.29,3.32,3.32,3.32,3.32,3.29,3.29,3.29,3.29,3.32,3.32,3.32,3.31,3.32,3.33,3.33,3.32,3.33,3.29,46.0,1.0,0.0,1.0,1.0,5556711,0.0,79.42999999999998,704.4671127022002
1765224061771,0.0,0.0,2.0,25.0,0.0,0.0,0.0,0.0,0.0,0.0,0.0,0.0,0.0,0.0,0.0,0.0,-0.01464,0.00549,0.994544,-0.77,0.56,17.85,25.0,3.32,3.32,3.32,3.3,3.29,3.29,3.29,3.29,3.32,3.32,3.32,3.32,3.29,3.29,3.29,3.29,3.32,3.32,3.32,3.31,3.32,3.33,3.33,3.32,3.33,3.29,46.0,1.0,0.0,1.0,1.0,5556745,0.0,79.42999999999998,704.4671127022002
1765224061787,0.0,0.0,2.0,25.0,0.0,0.0,0.0,0.0,0.0,0.0,0.0,0.0,0.0,0.0,0.0,0.0,-0.01464,0.00549,0.994544,-0.77,0.56,17.85,25.0,3.32,3.32,3.32,3.3,3.29,3.29,3.29,3.29,3.32,3.32,3.32,3.32,3.29,3.29,3.29,3.29,3.32,3.32,3.32,3.31,3.32,3.33,3.33,3.32,3.33,3.29,46.0,1.0,0.0,1.0,1.0,5556761,0.0,79.42999999999998,704.4671127022002
1765224061804,0.0,0.0,2.0,25.0,0.0,0.0,0.0,0.0,0.0,0.0,0.0,0.0,0.0,0.0,0.0,0.0,-0.01464,0.00549,0.994544,-0.77,0.56,17.85,25.0,3.32,3.32,3.32,3.3,3.29,3.29,3.29,3.29,3.32,3.32,3.32,3.32,3.29,3.29,3.29,3.29,3.32,3.32,3.32,3.31,3.32,3.33,3.33,3.32,3.33,3.29,46.0,1.0,0.0,1.0,1.0,5556778,0.0,79.42999999999998,704.4671127022002
1765224061820,0.0,0.0,2.0,25.0,0.0,0.0,0.0,0.0,0.0,0.0,0.0,0.0,0.0,0.0,0.0,0.0,-0.013663999999999999,0.00732,0.993568,-0.77,0.56,17.85,25.0,3.32,3.32,3.32,3.3,3.29,3.29,3.29,3.29,3.32,3.32,3.32,3.32,3.29,3.29,3.29,3.29,3.32,3.32,3.32,3.31,3.32,3.33,3.33,3.32,3.33,3.29,46.0,1.0,0.0,1.0,1.0,5556794,0.0,79.42999999999998,704.4671127022002
1765224061837,0.0,0.0,2.0,25.0,0.0,0.0,0.0,0.0,0.0,0.0,0.0,0.0,0.0,0.0,0.0,0.0,-0.013663999999999999,0.00732,0.993568,-0.77,0.56,17.85,25.0,3.32,3.32,3.32,3.3,3.29,3.29,3.29,3.29,3.32,3.32,3.32,3.32,3.29,3.29,3.29,3.29,3.32,3.32,3.32,3.31,3.32,3.33,3.33,3.32,3.33,3.29,46.0,1.0,0.0,1.0,1.0,5556811,0.0,79.42999999999998,704.4671127022002
1765224061853,0.0,0.0,2.0,25.0,0.0,0.0,0.0,0.0,0.0,0.0,0.0,0.0,0.0,0.0,0.0,0.0,-0.013663999999999999,0.00732,0.993568,-0.77,0.56,17.85,25.0,3.32,3.32,3.32,3.3,3.29,3.29,3.29,3.29,3.32,3.32,3.32,3.32,3.29,3.29,3.29,3.29,3.32,3.32,3.32,3.31,3.32,3.33,3.33,3.32,3.33,3.29,46.0,1.0,0.0,1.0,1.0,5556827,0.0,79.42999999999998,704.4671127022002
1765224061870,0.0,0.0,2.0,25.0,0.0,0.0,0.0,0.0,0.0,0.0,0.0,0.0,0.0,0.0,0.0,0.0,-0.013663999999999999,0.00732,0.993568,-0.77,0.49000000000000005,17.85,25.0,3.32,3.32,3.32,3.3,3.29,3.29,3.29,3.29,3.32,3.32,3.32,3.32,3.29,3.29,3.29,3.29,3.32,3.32,3.32,3.31,3.32,3.33,3.33,3.32,3.33,3.29,46.0,1.0,0.0,1.0,1.0,5556844,0.0,79.42999999999998,704.4671127022002
1765224061921,0.0,0.0,2.0,25.0,0.0,0.0,0.0,0.0,0.0,0.0,0.0,0.0,0.0,0.0,0.0,0.0,-0.013663999999999999,0.00732,0.993568,-0.77,0.49000000000000005,17.85,25.0,3.32,3.32,3.32,3.3,3.29,3.29,3.29,3.29,3.32,3.32,3.32,3.32,3.29,3.29,3.29,3.29,3.32,3.32,3.32,3.31,3.32,3.33,3.33,3.32,3.33,3.29,46.0,1.0,0.0,1.0,1.0,5556895,0.0,79.42999999999998,704.4671127022002
1765224061987,0.0,0.0,2.0,25.0,0.0,0.0,0.0,0.0,0.0,0.0,0.0,0.0,0.0,0.0,0.0,0.0,-0.013663999999999999,0.00732,0.993568,-0.77,0.49000000000000005,17.85,25.0,3.32,3.32,3.32,3.3,3.29,3.29,3.29,3.29,3.32,3.32,3.32,3.32,3.29,3.29,3.29,3.29,3.32,3.32,3.32,3.31,3.32,3.33,3.33,3.32,3.33,3.29,46.0,1.0,0.0,1.0,1.0,5556961,0.0,79.42999999999998,704.4671127022002
1765224062020,0.0,0.0,2.0,25.0,0.0,0.0,0.0,0.0,0.0,0.0,0.0,0.0,0.0,0.0,0.0,0.0,-0.014395999999999999,0.006344,0.993202,-0.77,0.49000000000000005,17.85,25.0,3.32,3.32,3.32,3.3,3.29,3.29,3.29,3.29,3.32,3.32,3.32,3.32,3.29,3.29,3.29,3.29,3.32,3.32,3.32,3.31,3.32,3.33,3.33,3.32,3.33,3.29,46.0,1.0,0.0,1.0,1.0,5556994,0.0,79.42999999999998,704.4671127022002
1765224062054,0.0,0.0,2.0,25.0,0.0,0.0,0.0,0.0,0.0,0.0,0.0,0.0,0.0,0.0,0.0,0.0,-0.014395999999999999,0.006344,0.993202,-0.77,0.49000000000000005,17.85,25.0,3.32,3.32,3.32,3.3,3.29,3.29,3.29,3.29,3.32,3.32,3.32,3.32,3.29,3.29,3.29,3.29,3.32,3.32,3.32,3.31,3.32,3.33,3.33,3.32,3.33,3.29,46.0,1.0,0.0,1.0,1.0,5557028,0.0,79.42999999999998,704.4671127022002
1765224062087,0.0,0.0,2.0,25.0,0.0,0.0,0.0,0.0,0.0,0.0,0.0,0.0,0.0,0.0,0.0,0.0,-0.014395999999999999,0.006344,0.993202,-0.77,0.42000000000000004,-0.07,25.0,3.32,3.32,3.32,3.3,3.29,3.29,3.29,3.29,3.32,3.32,3.32,3.32,3.29,3.29,3.29,3.29,3.32,3.32,3.32,3.31,3.32,3.33,3.33,3.32,3.33,3.29,46.0,1.0,0.0,1.0,1.0,5557061,0.0,79.42999999999998,704.4671127022002
1765224062121,0.0,0.0,2.0,25.0,0.0,0.0,0.0,0.0,0.0,0.0,0.0,0.0,0.0,0.0,0.0,0.0,-0.014395999999999999,0.006344,0.993202,-0.77,0.42000000000000004,-0.07,25.0,3.32,3.32,3.32,3.3,3.29,3.29,3.29,3.29,3.32,3.32,3.32,3.32,3.29,3.29,3.29,3.29,3.32,3.32,3.32,3.31,3.32,3.33,3.33,3.32,3.33,3.29,46.0,1.0,0.0,1.0,1.0,5557095,0.0,79.42999999999998,704.4671127022002
1765224062155,0.0,0.0,2.0,25.0,0.0,0.0,0.0,0.0,0.0,0.0,0.0,0.0,0.0,0.0,0.0,0.0,-0.014761999999999999,0.0053679999999999995,0.994788,-0.77,0.42000000000000004,-0.07,25.0,3.32,3.32,3.32,3.3,3.29,3.29,3.29,3.29,3.32,3.32,3.32,3.32,3.29,3.29,3.29,3.29,3.32,3.32,3.32,3.31,3.32,3.33,3.33,3.32,3.33,3.29,46.0,1.0,0.0,1.0,1.0,5557129,0.0,79.42999999999998,704.4671127022002
1765224062170,0.0,0.0,2.0,25.0,0.0,0.0,0.0,0.0,0.0,0.0,0.0,0.0,0.0,0.0,0.0,0.0,-0.014761999999999999,0.0053679999999999995,0.994788,-0.8400000000000001,0.49000000000000005,-0.07,25.0,3.32,3.32,3.32,3.3,3.29,3.29,3.29,3.29,3.32,3.32,3.32,3.32,3.29,3.29,3.29,3.29,3.32,3.32,3.32,3.31,3.32,3.33,3.33,3.32,3.33,3.29,46.0,1.0,0.0,1.0,1.0,5557144,0.0,79.42999999999998,704.4671127022002
1765224062187,0.0,0.0,2.0,25.0,0.0,0.0,0.0,0.0,0.0,0.0,0.0,0.0,0.0,0.0,0.0,0.0,-0.014761999999999999,0.0053679999999999995,0.994788,-0.8400000000000001,0.49000000000000005,-0.07,25.0,3.32,3.32,3.32,3.3,3.29,3.29,3.29,3.29,3.32,3.32,3.32,3.32,3.29,3.29,3.29,3.29,3.32,3.32,3.32,3.31,3.32,3.33,3.33,3.32,3.33,3.29,46.0,1.0,0.0,1.0,1.0,5557161,0.0,79.42999999999998,704.4671127022002
1765224062206,0.0,0.0,2.0,25.0,0.0,0.0,0.0,0.0,0.0,0.0,0.0,0.0,0.0,0.0,0.0,0.0,-0.014761999999999999,0.0053679999999999995,0.994788,-0.8400000000000001,0.49000000000000005,-0.07,25.0,3.32,3.32,3.32,3.3,3.29,3.29,3.29,3.29,3.32,3.32,3.32,3.32,3.29,3.29,3.29,3.29,3.32,3.32,3.32,3.31,3.32,3.33,3.33,3.32,3.33,3.29,46.0,1.0,0.0,1.0,1.0,5557180,0.0,79.42999999999998,704.4671127022002
1765224062221,0.0,0.0,2.0,25.0,0.0,0.0,0.0,0.0,0.0,0.0,0.0,0.0,0.0,0.0,0.0,0.0,-0.014761999999999999,0.0053679999999999995,0.994788,-0.8400000000000001,0.49000000000000005,-0.07,25.0,3.32,3.32,3.32,3.3,3.29,3.29,3.29,3.29,3.32,3.32,3.32,3.32,3.29,3.29,3.29,3.29,3.32,3.32,3.32,3.31,3.32,3.33,3.33,3.32,3.33,3.29,46.0,1.0,0.0,1.0,1.0,5557195,0.0,79.42999999999998,704.4671127022002
1765224062235,0.0,0.0,2.0,25.0,0.0,0.0,0.0,0.0,0.0,0.0,0.0,0.0,0.0,0.0,0.0,0.0,-0.014761999999999999,0.0053679999999999995,0.994788,-0.8400000000000001,0.49000000000000005,-0.07,25.0,3.32,3.32,3.32,3.3,3.29,3.29,3.29,3.29,3.32,3.32,3.32,3.32,3.29,3.29,3.29,3.29,3.32,3.32,3.32,3.31,3.32,3.33,3.33,3.32,3.33,3.29,46.0,1.0,0.0,1.0,1.0,5557209,0.0,79.42999999999998,704.4671127022002
1765224062252,0.0,0.0,2.0,25.0,0.0,0.0,0.0,0.0,0.0,0.0,0.0,0.0,0.0,0.0,0.0,0.0,-0.014761999999999999,0.0053679999999999995,0.994788,-0.8400000000000001,0.49000000000000005,-0.07,25.0,3.32,3.32,3.32,3.3,3.29,3.29,3.29,3.29,3.32,3.32,3.32,3.32,3.29,3.29,3.29,3.29,3.32,3.32,3.32,3.31,3.32,3.33,3.33,3.32,3.33,3.29,46.0,1.0,0.0,1.0,1.0,5557226,0.0,79.42999999999998,704.4671127022002
1765224062268,0.0,0.0,2.0,25.0,0.0,0.0,0.0,0.0,0.0,0.0,0.0,0.0,0.0,0.0,0.0,0.0,-0.014761999999999999,0.0053679999999999995,0.994788,-0.8400000000000001,0.49000000000000005,-0.07,25.0,3.32,3.32,3.32,3.3,3.29,3.29,3.29,3.29,3.32,3.32,3.32,3.32,3.29,3.29,3.29,3.29,3.32,3.32,3.32,3.31,3.32,3.33,3.33,3.32,3.33,3.29,46.0,1.0,0.0,1.0,1.0,5557242,0.0,79.42999999999998,704.4671127022002
1765224062319,0.0,0.0,2.0,25.0,0.0,0.0,0.0,0.0,0.0,0.0,0.0,0.0,0.0,0.0,0.0,0.0,-0.014761999999999999,0.0053679999999999995,0.994788,-0.8400000000000001,0.49000000000000005,-0.07,25.0,3.32,3.32,3.32,3.3,3.29,3.29,3.29,3.29,3.32,3.32,3.32,3.32,3.29,3.29,3.29,3.29,3.32,3.32,3.32,3.31,3.32,3.33,3.33,3.32,3.33,3.29,46.0,1.0,0.0,1.0,1.0,5557293,0.0,79.42999999999998,704.4671127022002
1765224062369,0.0,0.0,2.0,25.0,0.0,0.0,0.0,0.0,0.0,0.0,0.0,0.0,0.0,0.0,0.0,0.0,-0.013908,0.006588,0.993568,-0.8400000000000001,0.49000000000000005,-0.07,25.0,3.32,3.32,3.32,3.3,3.29,3.29,3.29,3.29,3.32,3.32,3.32,3.32,3.29,3.29,3.29,3.29,3.32,3.32,3.32,3.31,3.32,3.33,3.33,3.32,3.33,3.29,46.0,1.0,0.0,1.0,1.0,5557343,0.0,79.42999999999998,704.4671127022002
1765224062404,0.0,0.0,2.0,25.0,0.0,0.0,0.0,0.0,0.0,0.0,0.0,0.0,0.0,0.0,0.0,0.0,-0.013908,0.006588,0.993568,-0.77,0.49000000000000005,-0.07,25.0,3.32,3.32,3.32,3.3,3.29,3.29,3.29,3.29,3.32,3.32,3.32,3.32,3.29,3.29,3.29,3.29,3.32,3.32,3.32,3.31,3.32,3.33,3.33,3.32,3.33,3.29,46.0,1.0,0.0,1.0,1.0,5557378,0.0,79.42999999999998,704.4671127022002
1765224062420,0.0,0.0,2.0,25.0,0.0,0.0,0.0,0.0,0.0,0.0,0.0,0.0,0.0,0.0,0.0,0.0,-0.013908,0.006588,0.993568,-0.77,0.49000000000000005,-0.07,25.0,3.32,3.32,3.32,3.3,3.29,3.29,3.29,3.29,3.32,3.32,3.32,3.32,3.29,3.29,3.29,3.29,3.32,3.32,3.32,3.31,3.32,3.33,3.33,3.32,3.33,3.29,46.0,1.0,0.0,1.0,1.0,5557394,0.0,79.42999999999998,704.4671127022002
1765224062436,0.0,0.0,2.0,25.0,0.0,0.0,0.0,0.0,0.0,0.0,0.0,0.0,0.0,0.0,0.0,0.0,-0.013908,0.006588,0.993568,-0.77,0.49000000000000005,-0.07,25.0,3.32,3.32,3.32,3.3,3.29,3.29,3.29,3.29,3.32,3.32,3.32,3.32,3.29,3.29,3.29,3.29,3.32,3.32,3.32,3.31,3.32,3.33,3.33,3.32,3.33,3.29,45.0,1.0,0.0,1.0,1.0,5557410,0.0,79.42999999999998,704.4671127022002
1765224062470,0.0,0.0,2.0,25.0,0.0,0.0,0.0,0.0,0.0,0.0,0.0,0.0,0.0,0.0,0.0,0.0,-0.013908,0.006588,0.993568,-0.77,0.49000000000000005,-0.07,25.0,3.32,3.32,3.32,3.3,3.29,3.29,3.29,3.29,3.32,3.32,3.32,3.32,3.29,3.29,3.29,3.29,3.32,3.32,3.32,3.31,3.32,3.33,3.33,3.32,3.33,3.29,45.0,1.0,0.0,1.0,1.0,5557444,0.0,79.42999999999998,704.4671127022002
1765224062504,0.0,0.0,2.0,25.0,0.0,0.0,0.0,0.0,0.0,0.0,0.0,0.0,0.0,0.0,0.0,0.0,-0.016347999999999998,0.0046359999999999995,0.994544,-0.77,0.49000000000000005,-0.07,25.0,3.32,3.32,3.32,3.3,3.29,3.29,3.29,3.29,3.32,3.32,3.32,3.32,3.29,3.29,3.29,3.29,3.32,3.32,3.32,3.31,3.32,3.33,3.33,3.32,3.33,3.29,45.0,1.0,0.0,1.0,1.0,5557478,0.0,79.42999999999998,704.4671127022002
1765224062521,0.0,0.0,2.0,25.0,0.0,0.0,0.0,0.0,0.0,0.0,0.0,0.0,0.0,0.0,0.0,0.0,-0.016347999999999998,0.0046359999999999995,0.994544,-0.77,0.49000000000000005,-0.07,25.0,3.32,3.32,3.32,3.3,3.29,3.29,3.29,3.29,3.32,3.32,3.32,3.32,3.29,3.29,3.29,3.29,3.32,3.32,3.32,3.31,3.32,3.33,3.33,3.32,3.33,3.29,45.0,1.0,0.0,1.0,1.0,5557495,0.0,79.42999999999998,704.4671127022002
1765224062537,0.0,0.0,2.0,25.0,0.0,0.0,0.0,0.0,0.0,0.0,0.0,0.0,0.0,0.0,0.0,0.0,-0.016347999999999998,0.0046359999999999995,0.994544,-0.77,0.49000000000000005,-0.07,25.0,3.32,3.32,3.32,3.3,3.29,3.29,3.29,3.29,3.32,3.32,3.32,3.32,3.29,3.29,3.29,3.29,3.32,3.32,3.32,3.31,3.32,3.33,3.33,3.32,3.33,3.29,45.0,1.0,0.0,1.0,1.0,5557511,0.0,79.42999999999998,704.4671127022002
1765224062554,0.0,0.0,2.0,25.0,0.0,0.0,0.0,0.0,0.0,0.0,0.0,0.0,0.0,0.0,0.0,0.0,-0.016347999999999998,0.0046359999999999995,0.994544,-0.77,0.42000000000000004,-0.14,25.0,3.32,3.32,3.32,3.3,3.29,3.29,3.29,3.29,3.32,3.32,3.32,3.32,3.29,3.29,3.29,3.29,3.32,3.32,3.32,3.31,3.32,3.33,3.33,3.32,3.33,3.29,45.0,1.0,0.0,1.0,1.0,5557528,0.0,79.42999999999998,704.4671127022002
1765224062587,0.0,0.0,2.0,25.0,0.0,0.0,0.0,0.0,0.0,0.0,0.0,0.0,0.0,0.0,0.0,0.0,-0.016347999999999998,0.0046359999999999995,0.994544,-0.77,0.42000000000000004,-0.14,25.0,3.32,3.32,3.32,3.3,3.29,3.29,3.29,3.29,3.32,3.32,3.32,3.32,3.29,3.29,3.29,3.29,3.32,3.32,3.32,3.31,3.32,3.33,3.33,3.32,3.33,3.29,45.0,1.0,0.0,1.0,1.0,5557561,0.0,79.42999999999998,704.4671127022002
1765224062621,0.0,0.0,2.0,25.0,0.0,0.0,0.0,0.0,0.0,0.0,0.0,0.0,0.0,0.0,0.0,0.0,-0.016347999999999998,0.0046359999999999995,0.994544,-0.77,0.42000000000000004,-0.14,25.0,3.32,3.32,3.32,3.3,3.29,3.29,3.29,3.29,3.32,3.32,3.32,3.32,3.29,3.29,3.29,3.29,3.32,3.32,3.32,3.31,3.32,3.33,3.33,3.32,3.33,3.29,45.0,1.0,0.0,1.0,1.0,5557595,0.0,79.42999999999998,704.4671127022002
1765224062638,0.0,0.0,2.0,25.0,0.0,0.0,0.0,0.0,0.0,0.0,0.0,0.0,0.0,0.0,0.0,0.0,-0.016347999999999998,0.0046359999999999995,0.994544,-0.77,0.42000000000000004,-0.14,25.0,3.32,3.32,3.32,3.3,3.29,3.29,3.29,3.29,3.32,3.32,3.32,3.32,3.29,3.29,3.29,3.29,3.32,3.32,3.32,3.31,3.32,3.33,3.33,3.32,3.33,3.29,45.0,1.0,0.0,1.0,1.0,5557612,0.0,79.42999999999998,704.4671127022002
1765224062653,0.0,0.0,2.0,25.0,0.0,0.0,0.0,0.0,0.0,0.0,0.0,0.0,0.0,0.0,0.0,0.0,-0.016347999999999998,0.0046359999999999995,0.994544,-0.77,0.42000000000000004,-0.14,25.0,3.32,3.32,3.32,3.3,3.29,3.29,3.29,3.29,3.32,3.32,3.32,3.32,3.29,3.29,3.29,3.29,3.32,3.32,3.32,3.31,3.32,3.33,3.33,3.32,3.33,3.29,45.0,1.0,0.0,1.0,1.0,5557627,0.0,79.42999999999998,704.4671127022002
1765224062670,0.0,0.0,2.0,25.0,0.0,0.0,0.0,0.0,0.0,0.0,0.0,0.0,0.0,0.0,0.0,0.0,-0.016347999999999998,0.0046359999999999995,0.994544,-0.77,0.42000000000000004,-0.14,25.0,3.32,3.32,3.32,3.3,3.29,3.29,3.29,3.29,3.32,3.32,3.32,3.32,3.29,3.29,3.29,3.29,3.32,3.32,3.32,3.31,3.32,3.33,3.33,3.32,3.33,3.29,45.0,1.0,0.0,1.0,1.0,5557644,0.0,79.42999999999998,704.4671127022002
1765224062704,0.0,0.0,2.0,25.0,0.0,0.0,0.0,0.0,0.0,0.0,0.0,0.0,0.0,0.0,0.0,0.0,-0.016347999999999998,0.0046359999999999995,0.994544,-0.77,0.42000000000000004,-0.14,25.0,3.32,3.32,3.32,3.3,3.29,3.29,3.29,3.29,3.32,3.32,3.32,3.32,3.29,3.29,3.29,3.29,3.32,3.32,3.32,3.31,3.32,3.33,3.33,3.32,3.33,3.29,45.0,1.0,0.0,1.0,1.0,5557678,0.0,79.42999999999998,704.4671127022002
1765224062720,0.0,0.0,2.0,25.0,0.0,0.0,0.0,0.0,0.0,0.0,0.0,0.0,0.0,0.0,0.0,0.0,-0.013542,0.0060999999999999995,0.993934,-0.77,0.42000000000000004,-0.14,25.0,3.32,3.32,3.32,3.3,3.29,3.29,3.29,3.29,3.32,3.32,3.32,3.32,3.29,3.29,3.29,3.29,3.32,3.32,3.32,3.31,3.32,3.33,3.33,3.32,3.33,3.29,45.0,1.0,0.0,1.0,1.0,5557694,0.0,79.42999999999998,704.4671127022002
1765224062771,0.0,0.0,2.0,25.0,0.0,0.0,0.0,0.0,0.0,0.0,0.0,0.0,0.0,0.0,0.0,0.0,-0.013542,0.0060999999999999995,0.993934,-0.77,0.42000000000000004,-0.14,25.0,3.32,3.32,3.32,3.3,3.29,3.29,3.29,3.29,3.32,3.32,3.32,3.32,3.29,3.29,3.29,3.29,3.32,3.32,3.32,3.31,3.32,3.33,3.33,3.32,3.33,3.29,45.0,1.0,0.0,1.0,1.0,5557745,0.0,79.42999999999998,704.4671127022002
1765224062787,0.0,0.0,2.0,25.0,0.0,0.0,0.0,0.0,0.0,0.0,0.0,0.0,0.0,0.0,0.0,0.0,-0.013542,0.0060999999999999995,0.993934,-0.77,0.49000000000000005,0.0,25.0,3.32,3.32,3.32,3.3,3.29,3.29,3.29,3.29,3.32,3.32,3.32,3.32,3.29,3.29,3.29,3.29,3.32,3.32,3.32,3.31,3.32,3.33,3.33,3.32,3.33,3.29,45.0,1.0,0.0,1.0,1.0,5557761,0.0,79.42999999999998,704.4671127022002
1765224062820,0.0,0.0,2.0,25.0,0.0,0.0,0.0,0.0,0.0,0.0,0.0,0.0,0.0,0.0,0.0,0.0,-0.013542,0.0060999999999999995,0.993934,-0.77,0.49000000000000005,0.0,25.0,3.32,3.32,3.32,3.3,3.29,3.29,3.29,3.29,3.32,3.32,3.32,3.32,3.29,3.29,3.29,3.29,3.32,3.32,3.32,3.31,3.32,3.33,3.33,3.32,3.33,3.29,45.0,1.0,0.0,1.0,1.0,5557794,0.0,79.42999999999998,704.4671127022002
1765224062870,0.0,0.0,2.0,25.0,0.0,0.0,0.0,0.0,0.0,0.0,0.0,0.0,0.0,0.0,0.0,0.0,-0.014152,0.00549,0.9940559999999999,-0.77,0.49000000000000005,0.0,25.0,3.32,3.32,3.32,3.3,3.29,3.29,3.29,3.29,3.32,3.32,3.32,3.32,3.29,3.29,3.29,3.29,3.32,3.32,3.32,3.31,3.32,3.33,3.33,3.32,3.33,3.29,45.0,1.0,0.0,1.0,1.0,5557844,0.0,79.42999999999998,704.4671127022002
1765224062886,0.0,0.0,2.0,25.0,0.0,0.0,0.0,0.0,0.0,0.0,0.0,0.0,0.0,0.0,0.0,0.0,-0.014152,0.00549,0.9940559999999999,-0.77,0.42000000000000004,-0.07,25.0,3.32,3.32,3.32,3.3,3.29,3.29,3.29,3.29,3.32,3.32,3.32,3.32,3.29,3.29,3.29,3.29,3.32,3.32,3.32,3.31,3.32,3.33,3.33,3.32,3.33,3.29,45.0,1.0,0.0,1.0,1.0,5557860,0.0,79.42999999999998,704.4671127022002
1765224062905,0.0,0.0,2.0,25.0,0.0,0.0,0.0,0.0,0.0,0.0,0.0,0.0,0.0,0.0,0.0,0.0,-0.014152,0.00549,0.9940559999999999,-0.77,0.42000000000000004,-0.07,25.0,3.32,3.32,3.32,3.3,3.29,3.29,3.29,3.29,3.32,3.32,3.32,3.32,3.29,3.29,3.29,3.29,3.32,3.32,3.32,3.31,3.32,3.33,3.33,3.32,3.33,3.29,45.0,1.0,0.0,1.0,1.0,5557879,0.0,79.42999999999998,704.4671127022002
1765224062920,0.0,0.0,2.0,25.0,0.0,0.0,0.0,0.0,0.0,0.0,0.0,0.0,0.0,0.0,0.0,0.0,-0.014152,0.00549,0.9940559999999999,-0.77,0.42000000000000004,-0.07,25.0,3.32,3.32,3.32,3.3,3.29,3.29,3.29,3.29,3.32,3.32,3.32,3.32,3.29,3.29,3.29,3.29,3.32,3.32,3.32,3.31,3.32,3.33,3.33,3.32,3.33,3.29,45.0,1.0,0.0,1.0,1.0,5557894,0.0,79.42999999999998,704.4671127022002
1765224062937,0.0,0.0,2.0,25.0,0.0,0.0,0.0,0.0,0.0,0.0,0.0,0.0,0.0,0.0,0.0,0.0,-0.014152,0.00549,0.9940559999999999,-0.77,0.42000000000000004,-0.07,25.0,3.32,3.32,3.32,3.3,3.29,3.29,3.29,3.29,3.32,3.32,3.32,3.32,3.29,3.29,3.29,3.29,3.32,3.32,3.32,3.31,3.32,3.33,3.33,3.32,3.33,3.29,45.0,1.0,0.0,1.0,1.0,5557911,0.0,79.42999999999998,704.4671127022002
1765224062954,0.0,0.0,2.0,25.0,0.0,0.0,0.0,0.0,0.0,0.0,0.0,0.0,0.0,0.0,0.0,0.0,-0.014152,0.00549,0.9940559999999999,-0.77,0.42000000000000004,-0.07,25.0,3.32,3.32,3.32,3.3,3.29,3.29,3.29,3.29,3.32,3.32,3.32,3.32,3.29,3.29,3.29,3.29,3.32,3.32,3.32,3.31,3.32,3.33,3.33,3.32,3.33,3.29,45.0,1.0,0.0,1.0,1.0,5557928,0.0,79.42999999999998,704.4671127022002
1765224062971,0.0,0.0,2.0,25.0,0.0,0.0,0.0,0.0,0.0,0.0,0.0,0.0,0.0,0.0,0.0,0.0,-0.014152,0.00549,0.9940559999999999,-0.77,0.42000000000000004,-0.07,25.0,3.32,3.32,3.32,3.3,3.29,3.29,3.29,3.29,3.32,3.32,3.32,3.32,3.29,3.29,3.29,3.29,3.32,3.32,3.32,3.31,3.32,3.33,3.33,3.32,3.33,3.29,45.0,1.0,0.0,1.0,1.0,5557945,0.0,79.42999999999998,704.4671127022002
1765224062987,0.0,0.0,2.0,25.0,0.0,0.0,0.0,0.0,0.0,0.0,0.0,0.0,0.0,0.0,0.0,0.0,-0.014152,0.00549,0.9940559999999999,-0.77,0.42000000000000004,-0.07,25.0,3.32,3.32,3.32,3.3,3.29,3.29,3.29,3.29,3.32,3.32,3.32,3.32,3.29,3.29,3.29,3.29,3.32,3.32,3.32,3.31,3.32,3.33,3.33,3.32,3.33,3.29,45.0,1.0,0.0,1.0,1.0,5557961,0.0,79.42999999999998,704.4671127022002
1765224063036,0.0,0.0,2.0,25.0,0.0,0.0,0.0,0.0,0.0,0.0,0.0,0.0,0.0,0.0,0.0,0.0,-0.014152,0.00549,0.9940559999999999,-0.77,0.42000000000000004,-0.07,25.0,3.32,3.32,3.32,3.3,3.29,3.29,3.29,3.29,3.32,3.32,3.32,3.32,3.29,3.29,3.29,3.29,3.32,3.32,3.32,3.31,3.32,3.33,3.33,3.32,3.33,3.29,45.0,1.0,0.0,1.0,1.0,5558010,0.0,79.42999999999998,704.4671127022002
1765224063053,0.0,0.0,2.0,25.0,0.0,0.0,0.0,0.0,0.0,0.0,0.0,0.0,0.0,0.0,0.0,0.0,-0.015616,0.0060999999999999995,0.99369,-0.77,0.42000000000000004,-0.07,25.0,3.32,3.32,3.32,3.3,3.29,3.29,3.29,3.29,3.32,3.32,3.32,3.32,3.29,3.29,3.29,3.29,3.32,3.32,3.32,3.31,3.32,3.33,3.33,3.32,3.33,3.29,45.0,1.0,0.0,1.0,1.0,5558027,0.0,79.42999999999998,704.4671127022002
1765224063120,0.0,0.0,2.0,25.0,0.0,0.0,0.0,0.0,0.0,0.0,0.0,0.0,0.0,0.0,0.0,0.0,-0.015616,0.0060999999999999995,0.99369,-0.77,0.56,-0.07,25.0,3.32,3.32,3.32,3.3,3.29,3.29,3.29,3.29,3.32,3.32,3.32,3.32,3.29,3.29,3.29,3.29,3.32,3.32,3.32,3.31,3.32,3.33,3.33,3.32,3.33,3.29,45.0,1.0,0.0,1.0,1.0,5558094,0.0,79.42999999999998,704.4671127022002
1765224063137,0.0,0.0,2.0,25.0,0.0,0.0,0.0,0.0,0.0,0.0,0.0,0.0,0.0,0.0,0.0,0.0,-0.015616,0.0060999999999999995,0.99369,-0.77,0.56,-0.07,25.0,3.32,3.32,3.32,3.3,3.29,3.29,3.29,3.29,3.32,3.32,3.32,3.32,3.29,3.29,3.29,3.29,3.32,3.32,3.32,3.31,3.32,3.33,3.33,3.32,3.33,3.29,45.0,1.0,0.0,1.0,1.0,5558111,0.0,79.42999999999998,704.4671127022002
1765224063170,0.0,0.0,2.0,25.0,0.0,0.0,0.0,0.0,0.0,0.0,0.0,0.0,0.0,0.0,0.0,0.0,-0.01525,0.005124,0.9943,-0.77,0.56,-0.07,25.0,3.32,3.32,3.32,3.3,3.29,3.29,3.29,3.29,3.32,3.32,3.32,3.32,3.29,3.29,3.29,3.29,3.32,3.32,3.32,3.31,3.32,3.33,3.33,3.32,3.33,3.29,45.0,1.0,0.0,1.0,1.0,5558144,0.0,79.42999999999998,704.4671127022002
1765224063188,0.0,0.0,2.0,25.0,0.0,0.0,0.0,0.0,0.0,0.0,0.0,0.0,0.0,0.0,0.0,0.0,-0.01525,0.005124,0.9943,-0.77,0.56,-0.07,25.0,3.32,3.32,3.32,3.3,3.29,3.29,3.29,3.29,3.32,3.32,3.32,3.32,3.29,3.29,3.29,3.29,3.32,3.32,3.32,3.31,3.32,3.33,3.33,3.32,3.33,3.29,45.0,1.0,0.0,1.0,1.0,5558162,0.0,79.42999999999998,704.4671127022002
1765224063203,0.0,0.0,2.0,25.0,0.0,0.0,0.0,0.0,0.0,0.0,0.0,0.0,0.0,0.0,0.0,0.0,-0.01525,0.005124,0.9943,-0.77,0.56,-0.07,25.0,3.32,3.32,3.32,3.3,3.29,3.29,3.29,3.29,3.32,3.32,3.32,3.32,3.29,3.29,3.29,3.29,3.32,3.32,3.32,3.31,3.32,3.33,3.33,3.32,3.33,3.29,45.0,1.0,0.0,1.0,1.0,5558177,0.0,79.42999999999998,704.4671127022002
1765224063255,0.0,0.0,2.0,25.0,0.0,0.0,0.0,0.0,0.0,0.0,0.0,0.0,0.0,0.0,0.0,0.0,-0.017324,0.0068319999999999995,0.992104,-0.77,0.56,-0.07,25.0,3.32,3.32,3.32,3.3,3.29,3.29,3.29,3.29,3.32,3.32,3.32,3.32,3.29,3.29,3.29,3.29,3.32,3.32,3.32,3.31,3.32,3.33,3.33,3.32,3.33,3.29,45.0,1.0,0.0,1.0,1.0,5558229,0.0,79.42999999999998,704.4671127022002
1765224063271,0.0,0.0,2.0,25.0,0.0,0.0,0.0,0.0,0.0,0.0,0.0,0.0,0.0,0.0,0.0,0.0,-0.017324,0.0068319999999999995,0.992104,-0.77,0.56,-0.07,25.0,3.32,3.32,3.32,3.3,3.29,3.29,3.29,3.29,3.32,3.32,3.32,3.32,3.29,3.29,3.29,3.29,3.32,3.32,3.32,3.31,3.32,3.33,3.33,3.32,3.33,3.29,45.0,1.0,0.0,1.0,1.0,5558245,0.0,79.42999999999998,704.4671127022002
1765224063288,0.0,0.0,2.0,25.0,0.0,0.0,0.0,0.0,0.0,0.0,0.0,0.0,0.0,0.0,0.0,0.0,-0.017324,0.0068319999999999995,0.992104,-0.77,0.56,-0.07,25.0,3.32,3.32,3.32,3.3,3.29,3.29,3.29,3.29,3.32,3.32,3.32,3.32,3.29,3.29,3.29,3.29,3.32,3.32,3.32,3.31,3.32,3.33,3.33,3.32,3.33,3.29,45.0,1.0,0.0,1.0,1.0,5558262,0.0,79.42999999999998,704.4671127022002
1765224063321,0.0,0.0,2.0,25.0,0.0,0.0,0.0,0.0,0.0,0.0,0.0,0.0,0.0,0.0,0.0,0.0,-0.017324,0.0068319999999999995,0.992104,-0.77,0.56,-0.07,25.0,3.32,3.32,3.32,3.3,3.29,3.29,3.29,3.29,3.32,3.32,3.32,3.32,3.29,3.29,3.29,3.29,3.32,3.32,3.32,3.31,3.32,3.33,3.33,3.32,3.33,3.29,45.0,1.0,0.0,1.0,1.0,5558295,0.0,79.42999999999998,704.4671127022002
1765224063338,0.0,0.0,2.0,25.0,0.0,0.0,0.0,0.0,0.0,0.0,0.0,0.0,0.0,0.0,0.0,0.0,-0.017324,0.0068319999999999995,0.992104,-0.77,0.56,-0.07,25.0,3.32,3.32,3.32,3.3,3.29,3.29,3.29,3.29,3.32,3.32,3.32,3.32,3.29,3.29,3.29,3.29,3.32,3.32,3.32,3.31,3.32,3.33,3.33,3.32,3.33,3.29,45.0,1.0,0.0,1.0,1.0,5558312,0.0,79.42999999999998,704.4671127022002
1765224063352,0.0,0.0,2.0,25.0,0.0,0.0,0.0,0.0,0.0,0.0,0.0,0.0,0.0,0.0,0.0,0.0,-0.017324,0.0068319999999999995,0.992104,-0.77,0.56,-0.07,25.0,3.32,3.32,3.32,3.3,3.29,3.29,3.29,3.29,3.32,3.32,3.32,3.32,3.29,3.29,3.29,3.29,3.32,3.32,3.32,3.31,3.32,3.33,3.33,3.32,3.33,3.29,45.0,1.0,0.0,1.0,1.0,5558326,0.0,79.42999999999998,704.4671127022002
1765224063370,0.0,0.0,2.0,25.0,0.0,0.0,0.0,0.0,0.0,0.0,0.0,0.0,0.0,0.0,0.0,0.0,-0.017324,0.0068319999999999995,0.992104,-0.77,0.56,-0.07,25.0,3.32,3.32,3.32,3.3,3.29,3.29,3.29,3.29,3.32,3.32,3.32,3.32,3.29,3.29,3.29,3.29,3.32,3.32,3.32,3.31,3.32,3.33,3.33,3.32,3.33,3.29,45.0,1.0,0.0,1.0,1.0,5558344,0.0,79.42999999999998,704.4671127022002
1765224063387,0.0,0.0,2.0,25.0,0.0,0.0,0.0,0.0,0.0,0.0,0.0,0.0,0.0,0.0,0.0,0.0,-0.017324,0.0068319999999999995,0.992104,-0.77,0.56,-0.07,25.0,3.32,3.32,3.32,3.3,3.29,3.29,3.29,3.29,3.32,3.32,3.32,3.32,3.29,3.29,3.29,3.29,3.32,3.32,3.32,3.31,3.32,3.33,3.33,3.32,3.33,3.29,45.0,1.0,0.0,1.0,1.0,5558361,0.0,79.42999999999998,704.4671127022002
1765224063405,0.0,0.0,2.0,25.0,0.0,0.0,0.0,0.0,0.0,0.0,0.0,0.0,0.0,0.0,0.0,0.0,-0.017324,0.0068319999999999995,0.992104,-0.77,0.56,-0.07,25.0,3.32,3.32,3.32,3.3,3.29,3.29,3.29,3.29,3.32,3.32,3.32,3.32,3.29,3.29,3.29,3.29,3.32,3.32,3.32,3.31,3.32,3.33,3.33,3.32,3.33,3.29,45.0,1.0,0.0,1.0,1.0,5558379,0.0,79.42999999999998,704.4671127022002
1765224063420,0.0,0.0,2.0,25.0,0.0,0.0,0.0,0.0,0.0,0.0,0.0,0.0,0.0,0.0,0.0,0.0,-0.017324,0.0068319999999999995,0.992104,-0.77,0.56,-0.07,25.0,3.32,3.32,3.32,3.3,3.29,3.29,3.29,3.29,3.32,3.32,3.32,3.32,3.29,3.29,3.29,3.29,3.32,3.32,3.32,3.31,3.32,3.33,3.33,3.32,3.33,3.29,45.0,1.0,0.0,1.0,1.0,5558394,0.0,79.42999999999998,704.4671127022002
1765224063438,0.0,0.0,2.0,25.0,0.0,0.0,0.0,0.0,0.0,0.0,0.0,0.0,0.0,0.0,0.0,0.0,-0.014395999999999999,0.00671,0.993934,-0.77,0.56,-0.07,25.0,3.32,3.32,3.32,3.3,3.29,3.29,3.29,3.29,3.32,3.32,3.32,3.32,3.29,3.29,3.29,3.29,3.32,3.32,3.32,3.31,3.32,3.33,3.33,3.32,3.33,3.29,45.0,1.0,0.0,1.0,1.0,5558412,0.0,79.42999999999998,704.4671127022002
1765224063452,0.0,0.0,2.0,25.0,0.0,0.0,0.0,0.0,0.0,0.0,0.0,0.0,0.0,0.0,0.0,0.0,-0.014395999999999999,0.00671,0.993934,-0.77,0.56,-0.07,25.0,3.32,3.32,3.32,3.3,3.29,3.29,3.29,3.29,3.32,3.32,3.32,3.32,3.29,3.29,3.29,3.29,3.32,3.32,3.32,3.31,3.32,3.33,3.33,3.32,3.33,3.29,45.0,1.0,0.0,1.0,1.0,5558426,0.0,79.42999999999998,704.4671127022002
1765224063470,0.0,0.0,2.0,25.0,0.0,0.0,0.0,0.0,0.0,0.0,0.0,0.0,0.0,0.0,0.0,0.0,-0.014395999999999999,0.00671,0.993934,-0.77,0.56,-0.07,25.0,3.32,3.32,3.32,3.3,3.29,3.29,3.29,3.29,3.32,3.32,3.32,3.32,3.29,3.29,3.29,3.29,3.32,3.32,3.32,3.31,3.32,3.33,3.33,3.32,3.33,3.29,45.0,1.0,0.0,1.0,1.0,5558444,0.0,79.42999999999998,704.4671127022002
1765224063519,0.0,0.0,2.0,25.0,0.0,0.0,0.0,0.0,0.0,0.0,0.0,0.0,0.0,0.0,0.0,0.0,-0.014395999999999999,0.00671,0.993934,-0.77,0.49000000000000005,0.0,25.0,3.32,3.32,3.32,3.3,3.29,3.29,3.29,3.29,3.32,3.32,3.32,3.32,3.29,3.29,3.29,3.29,3.32,3.32,3.32,3.31,3.32,3.33,3.33,3.32,3.33,3.29,45.0,1.0,0.0,1.0,1.0,5558493,0.0,79.42999999999998,704.4671127022002
1765224063586,0.0,0.0,2.0,25.0,0.0,0.0,0.0,0.0,0.0,0.0,0.0,0.0,0.0,0.0,0.0,0.0,-0.014395999999999999,0.00671,0.993934,-0.77,0.49000000000000005,0.0,25.0,3.32,3.32,3.32,3.3,3.29,3.29,3.29,3.29,3.32,3.32,3.32,3.32,3.29,3.29,3.29,3.29,3.32,3.32,3.32,3.31,3.32,3.33,3.33,3.32,3.33,3.29,45.0,1.0,0.0,1.0,1.0,5558560,0.0,79.42999999999998,704.4671127022002
1765224063619,0.0,0.0,2.0,25.0,0.0,0.0,0.0,0.0,0.0,0.0,0.0,0.0,0.0,0.0,0.0,0.0,-0.01525,0.0053679999999999995,0.995398,-0.77,0.49000000000000005,0.0,25.0,3.32,3.32,3.32,3.3,3.29,3.29,3.29,3.29,3.32,3.32,3.32,3.32,3.29,3.29,3.29,3.29,3.32,3.32,3.32,3.31,3.32,3.33,3.33,3.32,3.33,3.29,45.0,1.0,0.0,1.0,1.0,5558593,0.0,79.42999999999998,704.4671127022002
1765224063637,0.0,0.0,2.0,25.0,0.0,0.0,0.0,0.0,0.0,0.0,0.0,0.0,0.0,0.0,0.0,0.0,-0.01525,0.0053679999999999995,0.995398,-0.77,0.49000000000000005,-0.14,25.0,3.32,3.32,3.32,3.3,3.29,3.29,3.29,3.29,3.32,3.32,3.32,3.32,3.29,3.29,3.29,3.29,3.32,3.32,3.32,3.31,3.32,3.33,3.33,3.32,3.33,3.29,45.0,1.0,0.0,1.0,1.0,5558611,0.0,79.42999999999998,704.4671127022002
1765224063670,0.0,0.0,2.0,25.0,0.0,0.0,0.0,0.0,0.0,0.0,0.0,0.0,0.0,0.0,0.0,0.0,-0.01525,0.0053679999999999995,0.995398,-0.77,0.49000000000000005,-0.14,25.0,3.32,3.32,3.32,3.3,3.29,3.29,3.29,3.29,3.32,3.32,3.32,3.32,3.29,3.29,3.29,3.29,3.32,3.32,3.32,3.31,3.32,3.33,3.33,3.32,3.33,3.29,45.0,1.0,0.0,1.0,1.0,5558644,0.0,79.42999999999998,704.4671127022002
1765224063687,0.0,0.0,2.0,25.0,0.0,0.0,0.0,0.0,0.0,0.0,0.0,0.0,0.0,0.0,0.0,0.0,-0.01525,0.0053679999999999995,0.995398,-0.77,0.49000000000000005,-0.14,25.0,3.32,3.32,3.32,3.3,3.29,3.29,3.29,3.29,3.32,3.32,3.32,3.32,3.29,3.29,3.29,3.29,3.32,3.32,3.32,3.31,3.32,3.33,3.33,3.32,3.33,3.29,45.0,1.0,0.0,1.0,1.0,5558661,0.0,79.42999999999998,704.4671127022002
1765224063704,0.0,0.0,2.0,25.0,0.0,0.0,0.0,0.0,0.0,0.0,0.0,0.0,0.0,0.0,0.0,0.0,-0.01525,0.0053679999999999995,0.995398,-0.77,0.49000000000000005,-0.14,25.0,3.32,3.32,3.32,3.3,3.29,3.29,3.29,3.29,3.32,3.32,3.32,3.32,3.29,3.29,3.29,3.29,3.32,3.32,3.32,3.31,3.32,3.33,3.33,3.32,3.33,3.29,45.0,1.0,0.0,1.0,1.0,5558678,0.0,79.42999999999998,704.4671127022002
1765224063720,0.0,0.0,2.0,25.0,0.0,0.0,0.0,0.0,0.0,0.0,0.0,0.0,0.0,0.0,0.0,0.0,-0.01525,0.0053679999999999995,0.995398,-0.77,0.49000000000000005,-0.14,25.0,3.32,3.32,3.32,3.3,3.29,3.29,3.29,3.29,3.32,3.32,3.32,3.32,3.29,3.29,3.29,3.29,3.32,3.32,3.32,3.31,3.32,3.33,3.33,3.32,3.33,3.29,45.0,1.0,0.0,1.0,1.0,5558694,0.0,79.42999999999998,704.4671127022002
1765224063737,0.0,0.0,2.0,25.0,0.0,0.0,0.0,0.0,0.0,0.0,0.0,0.0,0.0,0.0,0.0,0.0,-0.01525,0.0053679999999999995,0.995398,-0.77,0.49000000000000005,-0.14,25.0,3.32,3.32,3.32,3.3,3.29,3.29,3.29,3.29,3.32,3.32,3.32,3.32,3.29,3.29,3.29,3.29,3.32,3.32,3.32,3.31,3.32,3.33,3.33,3.32,3.33,3.29,45.0,1.0,0.0,1.0,1.0,5558711,0.0,79.42999999999998,704.4671127022002
1765224063804,0.0,0.0,2.0,25.0,0.0,0.0,0.0,0.0,0.0,0.0,0.0,0.0,0.0,0.0,0.0,0.0,-0.01159,0.0060999999999999995,0.993324,-0.77,0.49000000000000005,-0.14,25.0,3.32,3.32,3.32,3.3,3.29,3.29,3.29,3.29,3.32,3.32,3.32,3.32,3.29,3.29,3.29,3.29,3.32,3.32,3.32,3.31,3.32,3.33,3.33,3.32,3.33,3.29,45.0,1.0,0.0,1.0,1.0,5558778,0.0,79.42999999999998,704.4671127022002
1765224063821,0.0,0.0,2.0,25.0,0.0,0.0,0.0,0.0,0.0,0.0,0.0,0.0,0.0,0.0,0.0,0.0,-0.01159,0.0060999999999999995,0.993324,-0.77,0.49000000000000005,-0.14,25.0,3.32,3.32,3.32,3.3,3.29,3.29,3.29,3.29,3.32,3.32,3.32,3.32,3.29,3.29,3.29,3.29,3.32,3.32,3.32,3.31,3.32,3.33,3.33,3.32,3.33,3.29,45.0,1.0,0.0,1.0,1.0,5558795,0.0,79.42999999999998,704.4671127022002
1765224063837,0.0,0.0,2.0,25.0,0.0,0.0,0.0,0.0,0.0,0.0,0.0,0.0,0.0,0.0,0.0,0.0,-0.01159,0.0060999999999999995,0.993324,-0.77,0.49000000000000005,-0.14,25.0,3.32,3.32,3.32,3.3,3.29,3.29,3.29,3.29,3.32,3.32,3.32,3.32,3.29,3.29,3.29,3.29,3.32,3.32,3.32,3.31,3.32,3.33,3.33,3.32,3.33,3.29,45.0,1.0,0.0,1.0,1.0,5558811,0.0,79.42999999999998,704.4671127022002
1765224063854,0.0,0.0,2.0,25.0,0.0,0.0,0.0,0.0,0.0,0.0,0.0,0.0,0.0,0.0,0.0,0.0,-0.01159,0.0060999999999999995,0.993324,-0.77,0.49000000000000005,-0.14,25.0,3.32,3.32,3.32,3.3,3.29,3.29,3.29,3.29,3.32,3.32,3.32,3.32,3.29,3.29,3.29,3.29,3.32,3.32,3.32,3.31,3.32,3.33,3.33,3.32,3.33,3.29,45.0,1.0,0.0,1.0,1.0,5558828,0.0,79.42999999999998,704.4671127022002
1765224063887,0.0,0.0,2.0,25.0,0.0,0.0,0.0,0.0,0.0,0.0,0.0,0.0,0.0,0.0,0.0,0.0,-0.01159,0.0060999999999999995,0.993324,-0.77,0.49000000000000005,-0.14,25.0,3.32,3.32,3.32,3.3,3.29,3.29,3.29,3.29,3.32,3.32,3.32,3.32,3.29,3.29,3.29,3.29,3.32,3.32,3.32,3.31,3.32,3.33,3.33,3.32,3.33,3.29,45.0,1.0,0.0,1.0,1.0,5558861,0.0,79.42999999999998,704.4671127022002
1765224063938,0.0,0.0,2.0,25.0,0.0,0.0,0.0,0.0,0.0,0.0,0.0,0.0,0.0,0.0,0.0,0.0,-0.01159,0.0060999999999999995,0.993324,-0.77,0.49000000000000005,-0.14,25.0,3.32,3.32,3.32,3.3,3.29,3.29,3.29,3.29,3.32,3.32,3.32,3.32,3.29,3.29,3.29,3.29,3.32,3.32,3.32,3.31,3.32,3.33,3.33,3.32,3.33,3.29,45.0,1.0,0.0,1.0,1.0,5558912,0.0,79.42999999999998,704.4671127022002
1765224063987,0.0,0.0,2.0,25.0,0.0,0.0,0.0,0.0,0.0,0.0,0.0,0.0,0.0,0.0,0.0,0.0,-0.011956,0.013542,0.994788,-0.77,0.49000000000000005,-0.14,25.0,3.32,3.32,3.32,3.3,3.29,3.29,3.29,3.29,3.32,3.32,3.32,3.32,3.29,3.29,3.29,3.29,3.32,3.32,3.32,3.31,3.32,3.33,3.33,3.32,3.33,3.29,45.0,1.0,0.0,1.0,1.0,5558961,0.0,79.42999999999998,704.4671127022002
1765224064019,0.0,0.0,2.0,25.0,0.0,0.0,0.0,0.0,0.0,0.0,0.0,0.0,0.0,0.0,0.0,0.0,-0.011956,0.013542,0.994788,-0.8400000000000001,0.49000000000000005,0.0,25.0,3.32,3.32,3.32,3.3,3.29,3.29,3.29,3.29,3.32,3.32,3.32,3.32,3.29,3.29,3.29,3.29,3.32,3.32,3.32,3.31,3.32,3.33,3.33,3.32,3.33,3.29,45.0,1.0,0.0,1.0,1.0,5558993,0.0,79.42999999999998,704.4671127022002
1765224064053,0.0,0.0,2.0,25.0,0.0,0.0,0.0,0.0,0.0,0.0,0.0,0.0,0.0,0.0,0.0,0.0,-0.014152,0.004392,0.99247,-0.8400000000000001,0.49000000000000005,0.0,25.0,3.32,3.32,3.32,3.3,3.29,3.29,3.29,3.29,3.32,3.32,3.32,3.32,3.29,3.29,3.29,3.29,3.32,3.32,3.32,3.31,3.32,3.33,3.33,3.32,3.33,3.29,45.0,1.0,0.0,1.0,1.0,5559027,0.0,79.42999999999998,704.4671127022002
1765224064087,0.0,0.0,2.0,25.0,0.0,0.0,0.0,0.0,0.0,0.0,0.0,0.0,0.0,0.0,0.0,0.0,-0.014152,0.004392,0.99247,-0.7000000000000001,0.35000000000000003,-0.14,25.0,3.32,3.32,3.32,3.3,3.29,3.29,3.29,3.29,3.32,3.32,3.32,3.32,3.29,3.29,3.29,3.29,3.32,3.32,3.32,3.31,3.32,3.33,3.33,3.32,3.33,3.29,45.0,1.0,0.0,1.0,1.0,5559061,0.0,79.42999999999998,704.4671127022002
1765224064104,0.0,0.0,2.0,25.0,0.0,0.0,0.0,0.0,0.0,0.0,0.0,0.0,0.0,0.0,0.0,0.0,-0.014152,0.004392,0.99247,-0.7000000000000001,0.35000000000000003,-0.14,25.0,3.32,3.32,3.32,3.3,3.29,3.29,3.29,3.29,3.32,3.32,3.32,3.32,3.29,3.29,3.29,3.29,3.32,3.32,3.32,3.31,3.32,3.33,3.33,3.32,3.33,3.29,45.0,1.0,0.0,1.0,1.0,5559078,0.0,79.42999999999998,704.4671127022002
1765224064120,0.0,0.0,2.0,25.0,0.0,0.0,0.0,0.0,0.0,0.0,0.0,0.0,0.0,0.0,0.0,0.0,-0.014152,0.004392,0.99247,-0.7000000000000001,0.35000000000000003,-0.14,25.0,3.32,3.32,3.32,3.3,3.29,3.29,3.29,3.29,3.32,3.32,3.32,3.32,3.29,3.29,3.29,3.29,3.32,3.32,3.32,3.31,3.32,3.33,3.33,3.32,3.33,3.29,45.0,1.0,0.0,1.0,1.0,5559094,0.0,79.42999999999998,704.4671127022002
1765224064137,0.0,0.0,2.0,25.0,0.0,0.0,0.0,0.0,0.0,0.0,0.0,0.0,0.0,0.0,0.0,0.0,-0.014152,0.004392,0.99247,-0.7000000000000001,0.35000000000000003,-0.14,25.0,3.32,3.32,3.32,3.3,3.29,3.29,3.29,3.29,3.32,3.32,3.32,3.32,3.29,3.29,3.29,3.29,3.32,3.32,3.32,3.31,3.32,3.33,3.33,3.32,3.33,3.29,45.0,1.0,0.0,1.0,1.0,5559111,0.0,79.42999999999998,704.4671127022002
1765224064153,0.0,0.0,2.0,25.0,0.0,0.0,0.0,0.0,0.0,0.0,0.0,0.0,0.0,0.0,0.0,0.0,-0.014152,0.004392,0.99247,-0.7000000000000001,0.35000000000000003,-0.14,25.0,3.32,3.32,3.32,3.3,3.29,3.29,3.29,3.29,3.32,3.32,3.32,3.32,3.29,3.29,3.29,3.29,3.32,3.32,3.32,3.31,3.32,3.33,3.33,3.32,3.33,3.29,45.0,1.0,0.0,1.0,1.0,5559127,0.0,79.42999999999998,704.4671127022002
1765224064171,0.0,0.0,2.0,25.0,0.0,0.0,0.0,0.0,0.0,0.0,0.0,0.0,0.0,0.0,0.0,0.0,-0.014152,0.004392,0.99247,-0.7000000000000001,0.35000000000000003,-0.14,25.0,3.32,3.32,3.32,3.3,3.29,3.29,3.29,3.29,3.32,3.32,3.32,3.32,3.29,3.29,3.29,3.29,3.32,3.32,3.32,3.31,3.32,3.33,3.33,3.32,3.33,3.29,45.0,1.0,0.0,1.0,1.0,5559145,0.0,79.42999999999998,704.4671127022002
1765224064220,0.0,0.0,2.0,25.0,0.0,0.0,0.0,0.0,0.0,0.0,0.0,0.0,0.0,0.0,0.0,0.0,-0.014152,0.004392,0.99247,-0.7000000000000001,0.35000000000000003,-0.14,25.0,3.32,3.32,3.32,3.3,3.29,3.29,3.29,3.29,3.32,3.32,3.32,3.32,3.29,3.29,3.29,3.29,3.32,3.32,3.32,3.31,3.32,3.33,3.33,3.32,3.33,3.29,45.0,1.0,0.0,1.0,1.0,5559194,0.0,79.42999999999998,704.4671127022002
1765224064238,0.0,0.0,2.0,25.0,0.0,0.0,0.0,0.0,0.0,0.0,0.0,0.0,0.0,0.0,0.0,0.0,-0.014152,0.004392,0.99247,-0.7000000000000001,0.35000000000000003,-0.14,25.0,3.32,3.32,3.32,3.3,3.29,3.29,3.29,3.29,3.32,3.32,3.32,3.32,3.29,3.29,3.29,3.29,3.32,3.32,3.32,3.31,3.32,3.33,3.33,3.32,3.33,3.29,45.0,1.0,0.0,1.0,1.0,5559212,0.0,79.42999999999998,704.4671127022002
1765224064304,0.0,0.0,2.0,25.0,0.0,0.0,0.0,0.0,0.0,0.0,0.0,0.0,0.0,0.0,0.0,0.0,-0.014152,0.004392,0.99247,-0.7000000000000001,0.35000000000000003,-0.14,25.0,3.32,3.32,3.32,3.3,3.29,3.29,3.29,3.29,3.32,3.32,3.32,3.32,3.29,3.29,3.29,3.29,3.32,3.32,3.32,3.31,3.32,3.33,3.33,3.32,3.33,3.29,45.0,1.0,0.0,1.0,1.0,5559278,0.0,79.42999999999998,704.4671127022002
1765224064338,0.0,0.0,2.0,25.0,0.0,0.0,0.0,0.0,0.0,0.0,0.0,0.0,0.0,0.0,0.0,0.0,-0.014029999999999999,0.0017079999999999999,0.988932,-0.7000000000000001,0.35000000000000003,-0.14,25.0,3.32,3.32,3.32,3.3,3.29,3.29,3.29,3.29,3.32,3.32,3.32,3.32,3.29,3.29,3.29,3.29,3.32,3.32,3.32,3.31,3.32,3.33,3.33,3.32,3.33,3.29,45.0,1.0,0.0,1.0,1.0,5559312,0.0,79.42999999999998,704.4671127022002
1765224064355,0.0,0.0,2.0,25.0,0.0,0.0,0.0,0.0,0.0,0.0,0.0,0.0,0.0,0.0,0.0,0.0,-0.014029999999999999,0.0017079999999999999,0.988932,-0.77,0.56,0.0,25.0,3.32,3.32,3.32,3.3,3.29,3.29,3.29,3.29,3.32,3.32,3.32,3.32,3.29,3.29,3.29,3.29,3.32,3.32,3.32,3.31,3.32,3.33,3.33,3.32,3.33,3.29,45.0,1.0,0.0,1.0,1.0,5559329,0.0,79.42999999999998,704.4671127022002
1765224064370,0.0,0.0,2.0,25.0,0.0,0.0,0.0,0.0,0.0,0.0,0.0,0.0,0.0,0.0,0.0,0.0,-0.014029999999999999,0.0017079999999999999,0.988932,-0.77,0.56,0.0,25.0,3.32,3.32,3.32,3.3,3.29,3.29,3.29,3.29,3.32,3.32,3.32,3.32,3.29,3.29,3.29,3.29,3.32,3.32,3.32,3.31,3.32,3.33,3.33,3.32,3.33,3.29,45.0,1.0,0.0,1.0,1.0,5559344,0.0,79.42999999999998,704.4671127022002
1765224064403,0.0,0.0,2.0,25.0,0.0,0.0,0.0,0.0,0.0,0.0,0.0,0.0,0.0,0.0,0.0,0.0,-0.014029999999999999,0.0017079999999999999,0.988932,-0.77,0.56,0.0,25.0,3.32,3.32,3.32,3.3,3.29,3.29,3.29,3.29,3.32,3.32,3.32,3.32,3.29,3.29,3.29,3.29,3.32,3.32,3.32,3.31,3.32,3.33,3.33,3.32,3.33,3.29,45.0,1.0,0.0,1.0,1.0,5559377,0.0,79.42999999999998,704.4671127022002
1765224064420,0.0,0.0,2.0,25.0,0.0,0.0,0.0,0.0,0.0,0.0,0.0,0.0,0.0,0.0,0.0,0.0,-0.014029999999999999,0.0017079999999999999,0.988932,-0.77,0.56,0.0,25.0,3.32,3.32,3.32,3.3,3.29,3.29,3.29,3.29,3.32,3.32,3.32,3.32,3.29,3.29,3.29,3.29,3.32,3.32,3.32,3.31,3.32,3.33,3.33,3.32,3.33,3.29,45.0,1.0,0.0,1.0,1.0,5559394,0.0,79.42999999999998,704.4671127022002
1765224064437,0.0,0.0,2.0,25.0,0.0,0.0,0.0,0.0,0.0,0.0,0.0,0.0,0.0,0.0,0.0,0.0,-0.014029999999999999,0.0017079999999999999,0.988932,-0.77,0.56,0.0,25.0,3.32,3.32,3.32,3.3,3.29,3.29,3.29,3.29,3.32,3.32,3.32,3.32,3.29,3.29,3.29,3.29,3.32,3.32,3.32,3.31,3.32,3.33,3.33,3.32,3.33,3.29,46.0,1.0,0.0,1.0,1.0,5559411,0.0,79.42999999999998,704.4671127022002
1765224064454,0.0,0.0,2.0,25.0,0.0,0.0,0.0,0.0,0.0,0.0,0.0,0.0,0.0,0.0,0.0,0.0,-0.014029999999999999,0.0017079999999999999,0.988932,-0.77,0.56,0.0,25.0,3.32,3.32,3.32,3.3,3.29,3.29,3.29,3.29,3.32,3.32,3.32,3.32,3.29,3.29,3.29,3.29,3.32,3.32,3.32,3.31,3.32,3.33,3.33,3.32,3.33,3.29,46.0,1.0,0.0,1.0,1.0,5559428,0.0,79.42999999999998,704.4671127022002
1765224064487,0.0,0.0,2.0,25.0,0.0,0.0,0.0,0.0,0.0,0.0,0.0,0.0,0.0,0.0,0.0,0.0,-0.01586,0.007808,0.995764,-0.77,0.56,0.0,25.0,3.32,3.32,3.32,3.3,3.29,3.29,3.29,3.29,3.32,3.32,3.32,3.32,3.29,3.29,3.29,3.29,3.32,3.32,3.32,3.31,3.32,3.33,3.33,3.32,3.33,3.29,46.0,1.0,0.0,1.0,1.0,5559461,0.0,79.42999999999998,704.4671127022002
1765224064504,0.0,0.0,2.0,25.0,0.0,0.0,0.0,0.0,0.0,0.0,0.0,0.0,0.0,0.0,0.0,0.0,-0.01586,0.007808,0.995764,-0.8400000000000001,0.49000000000000005,-0.07,25.0,3.32,3.32,3.32,3.3,3.29,3.29,3.29,3.29,3.32,3.32,3.32,3.32,3.29,3.29,3.29,3.29,3.32,3.32,3.32,3.31,3.32,3.33,3.33,3.32,3.33,3.29,46.0,1.0,0.0,1.0,1.0,5559478,0.0,79.42999999999998,704.4671127022002
1765224064520,0.0,0.0,2.0,25.0,0.0,0.0,0.0,0.0,0.0,0.0,0.0,0.0,0.0,0.0,0.0,0.0,-0.01586,0.007808,0.995764,-0.8400000000000001,0.49000000000000005,-0.07,25.0,3.32,3.32,3.32,3.3,3.29,3.29,3.29,3.29,3.32,3.32,3.32,3.32,3.29,3.29,3.29,3.29,3.32,3.32,3.32,3.31,3.32,3.33,3.33,3.32,3.33,3.29,46.0,1.0,0.0,1.0,1.0,5559494,0.0,79.42999999999998,704.4671127022002
1765224064554,0.0,0.0,2.0,25.0,0.0,0.0,0.0,0.0,0.0,0.0,0.0,0.0,0.0,0.0,0.0,0.0,-0.01586,0.007808,0.995764,-0.8400000000000001,0.49000000000000005,-0.07,25.0,3.32,3.32,3.32,3.3,3.29,3.29,3.29,3.29,3.32,3.32,3.32,3.32,3.29,3.29,3.29,3.29,3.32,3.32,3.32,3.31,3.32,3.33,3.33,3.32,3.33,3.29,46.0,1.0,0.0,1.0,1.0,5559528,0.0,79.42999999999998,704.4671127022002
