timestamp,THROTTLE,BRAKE,ECU_MODE_ID,TORQUE_GAIN,TORQUE_REF_LEFT_MOTOR,TORQUE_REF_RIGHT_MOTOR,LEFT_MOTOR_RPM,LEFT_MOTOR_TORQUE,LEFT_MOTOR_CURRENT,RIGHT_MOTOR_RPM,RIGHT_MOTOR_TORQUE,RIGHT_MOTOR_CURRENT,REAR_LEFT_WHEEL_SPEED,REAR_RIGHT_WHEEL_SPEED,FRONT_LEFT_WHEEL_SPEED,FRONT_RIGHT_WHEEL_SPEED,ACCEL_LONGITUDINAL,ACCEL_LATERAL,ACCEL_NORMAL,VEL_ANGULAR_YAW,VEL_ANGULAR_PITCH,VEL_ANGULAR_ROLL,ELETROBUILD_TEMPERATURE,STACK_1_CELL_1,STACK_1_CELL_2,STACK_1_CELL_3,STACK_1_CELL_4,STACK_2_CELL_1,STACK_2_CELL_2,STACK_2_CELL_3,STACK_2_CELL_4,STACK_3_CELL_1,STACK_3_CELL_2,STACK_3_CELL_3,STACK_3_CELL_4,STACK_4_CELL_1,STACK_4_CELL_2,STACK_4_CELL_3,STACK_4_CELL_4,STACK_5_CELL_1,STACK_5_CELL_2,STACK_5_CELL_3,STACK_5_CELL_4,STACK_6_CELL_1,STACK_6_CELL_2,STACK_6_CELL_3,STACK_6_CELL_4,MAX_VOLTAGE,MIN_VOLTAGE,SHUNT_CURRENT,BMS_MODE_ID,BMS_ERROR_ID,AIR_P,AIR_N,t,VEHICLE_SPEED,TOTAL_VOLTAGE,HODOMETRO
1765225695001,0.0,0.0,0.0,0.0,0.0,0.0,2031.0,24.596,181.10000000000002,2102.0,22.685,190.9,2031.0,2102.0,0.0,0.0,-0.084668,-0.010003999999999999,0.956602,8.89,-1.4700000000000002,0.21000000000000002,30.9453125,3.28,3.32,3.29,3.28,3.27,3.28,3.28,3.28,3.31,3.31,3.31,3.3,3.28,3.29,3.28,3.29,3.28,3.29,3.28,3.28,3.31,3.31,3.31,3.3,3.32,3.27,0.0,1.0,2.0,0.0,0.0,7189975,22.814425692857146,79.01,1405.0526584170061
1765225695018,0.0,0.0,0.0,0.0,0.0,0.0,2031.0,24.596,181.10000000000002,2102.0,22.685,190.9,2031.0,2102.0,0.0,0.0,-0.084668,-0.010003999999999999,0.956602,8.89,-1.4700000000000002,0.21000000000000002,30.9453125,3.28,3.32,3.29,3.28,3.27,3.28,3.28,3.28,3.31,3.31,3.31,3.3,3.28,3.29,3.28,3.29,3.29,3.29,3.29,3.29,3.31,3.31,3.31,3.3,3.32,3.27,0.0,1.0,2.0,0.0,0.0,7189992,22.814425692857146,79.04,1405.0526584170061
1765225695036,0.0,0.0,0.0,0.0,0.0,0.0,2031.0,24.596,181.10000000000002,2102.0,22.685,190.9,2031.0,2102.0,0.0,0.0,-0.084668,-0.010003999999999999,0.956602,8.89,-1.4700000000000002,0.21000000000000002,30.9453125,3.28,3.32,3.29,3.28,3.27,3.28,3.28,3.28,3.31,3.31,3.31,3.3,3.28,3.29,3.28,3.29,3.29,3.29,3.29,3.29,3.31,3.31,3.31,3.3,3.32,3.27,0.0,1.0,2.0,0.0,0.0,7190010,22.814425692857146,79.04,1405.0526584170061
1765225695050,0.0,0.0,1.0,10.0,0.0,0.0,2031.0,24.596,181.10000000000002,2102.0,22.685,190.9,2031.0,2102.0,0.0,0.0,-0.084668,-0.010003999999999999,0.956602,8.89,-1.4700000000000002,0.21000000000000002,30.9453125,3.28,3.32,3.29,3.28,3.27,3.28,3.28,3.28,3.31,3.31,3.31,3.3,3.28,3.29,3.28,3.29,3.29,3.29,3.29,3.29,3.32,3.32,3.32,3.31,3.32,3.27,0.0,1.0,2.0,0.0,0.0,7190024,22.814425692857146,79.07999999999998,1405.0526584170061
1765225695069,0.0,0.0,1.0,10.0,0.0,0.0,2031.0,24.596,181.10000000000002,2102.0,22.685,190.9,2031.0,2102.0,0.0,0.0,-0.084668,-0.010003999999999999,0.956602,8.89,-1.4700000000000002,0.21000000000000002,30.9453125,3.28,3.32,3.29,3.28,3.27,3.28,3.28,3.28,3.31,3.31,3.31,3.3,3.28,3.29,3.28,3.29,3.29,3.29,3.29,3.29,3.32,3.32,3.32,3.31,3.32,3.27,0.0,1.0,2.0,0.0,0.0,7190043,22.814425692857146,79.07999999999998,1405.0526584170061
1765225695084,0.0,0.0,1.0,10.0,0.0,0.0,2031.0,24.596,181.10000000000002,2102.0,22.685,190.9,0.0,0.0,0.0,0.0,-0.084668,-0.010003999999999999,0.956602,8.89,-1.4700000000000002,0.21000000000000002,30.9453125,3.28,3.32,3.29,3.28,3.27,3.28,3.28,3.28,3.31,3.31,3.31,3.3,3.28,3.29,3.28,3.29,3.29,3.29,3.29,3.29,3.32,3.32,3.32,3.31,3.32,3.27,0.0,1.0,2.0,0.0,0.0,7190058,22.814425692857146,79.07999999999998,1405.0526584170061
1765225695117,0.0,0.0,1.0,10.0,0.0,0.0,0.0,0.0,0.0,2102.0,22.685,190.9,0.0,0.0,0.0,0.0,-0.084668,-0.010003999999999999,0.956602,-0.56,0.28,0.0,30.9453125,3.28,3.32,3.29,3.28,3.27,3.28,3.28,3.28,3.31,3.31,3.31,3.3,3.28,3.29,3.28,3.29,3.29,3.29,3.29,3.29,3.32,3.32,3.32,3.31,3.32,3.27,0.0,1.0,2.0,0.0,0.0,7190091,11.60317512857143,79.07999999999998,1405.0526584170061
1765225695151,0.0,0.0,1.0,10.0,0.0,0.0,0.0,0.0,0.0,2102.0,22.685,190.9,0.0,0.0,0.0,0.0,-0.084668,-0.010003999999999999,0.956602,-0.56,0.28,0.0,31.078125,3.28,3.32,3.29,3.28,3.27,3.28,3.28,3.28,3.31,3.31,3.31,3.3,3.28,3.29,3.28,3.29,3.29,3.29,3.29,3.29,3.32,3.32,3.32,3.31,3.32,3.27,0.0,1.0,2.0,0.0,0.0,7190125,11.60317512857143,79.07999999999998,1405.0526584170061
1765225695182,0.0,0.0,1.0,10.0,0.0,0.0,0.0,0.0,0.0,0.0,0.0,0.0,0.0,0.0,0.0,0.0,-0.084668,-0.010003999999999999,0.956602,-0.56,0.28,0.0,31.078125,3.28,3.32,3.29,3.28,3.27,3.28,3.28,3.28,3.31,3.31,3.31,3.3,3.28,3.29,3.28,3.29,3.29,3.29,3.29,3.29,3.32,3.32,3.32,3.31,3.32,3.27,0.0,1.0,2.0,0.0,0.0,7190156,0.0,79.07999999999998,1405.0526584170061
1765225695250,0.0,0.0,1.0,10.0,0.0,0.0,0.0,0.0,0.0,0.0,0.0,0.0,0.0,0.0,0.0,0.0,-0.022448,-0.076006,0.989664,-0.56,0.28,0.0,31.078125,3.28,3.32,3.29,3.28,3.27,3.28,3.28,3.28,3.31,3.31,3.31,3.3,3.28,3.29,3.28,3.29,3.29,3.29,3.29,3.29,3.32,3.32,3.32,3.31,3.32,3.27,0.0,1.0,2.0,0.0,0.0,7190224,0.0,79.07999999999998,1405.0526584170061
1765225695266,0.0,0.0,1.0,10.0,0.0,0.0,0.0,0.0,0.0,0.0,0.0,0.0,0.0,0.0,0.0,0.0,-0.023424,-0.078324,0.990274,-0.56,0.28,0.0,31.078125,3.28,3.32,3.29,3.28,3.27,3.28,3.28,3.28,3.31,3.31,3.31,3.3,3.28,3.29,3.28,3.29,3.29,3.29,3.29,3.29,3.32,3.32,3.32,3.31,3.32,3.27,0.0,1.0,2.0,0.0,0.0,7190240,0.0,79.07999999999998,1405.0526584170061
1765225695283,0.0,0.0,1.0,10.0,0.0,0.0,0.0,0.0,0.0,0.0,0.0,0.0,0.0,0.0,0.0,0.0,-0.023424,-0.078324,0.990274,-0.56,0.28,0.0,31.078125,3.28,3.32,3.29,3.28,3.27,3.28,3.28,3.28,3.31,3.31,3.31,3.3,3.28,3.29,3.28,3.29,3.29,3.29,3.29,3.29,3.32,3.32,3.32,3.31,3.32,3.27,0.0,1.0,2.0,0.0,0.0,7190257,0.0,79.07999999999998,1405.0526584170061
1765225695334,0.0,0.0,1.0,10.0,0.0,0.0,0.0,0.0,0.0,0.0,0.0,0.0,0.0,0.0,0.0,0.0,-0.023424,-0.078324,0.990274,-0.56,0.42000000000000004,0.0,31.078125,3.28,3.32,3.29,3.28,3.27,3.28,3.28,3.28,3.31,3.31,3.31,3.3,3.28,3.29,3.28,3.29,3.29,3.29,3.29,3.29,3.32,3.32,3.32,3.31,3.32,3.27,0.0,1.0,2.0,0.0,0.0,7190308,0.0,79.07999999999998,1405.0526584170061
1765225695366,0.0,0.0,1.0,10.0,0.0,0.0,0.0,0.0,0.0,0.0,0.0,0.0,0.0,0.0,0.0,0.0,-0.023424,-0.078324,0.990274,-0.56,0.42000000000000004,0.0,31.1015625,3.28,3.32,3.29,3.28,3.27,3.28,3.28,3.28,3.31,3.31,3.31,3.3,3.28,3.29,3.28,3.29,3.29,3.29,3.29,3.29,3.32,3.32,3.32,3.31,3.32,3.27,0.0,1.0,2.0,0.0,0.0,7190340,0.0,79.07999999999998,1405.0526584170061
1765225695399,0.0,0.0,1.0,10.0,0.0,0.0,0.0,0.0,0.0,0.0,0.0,0.0,0.0,0.0,0.0,0.0,-0.024278,-0.07808,0.988322,-0.56,0.42000000000000004,0.0,31.1015625,3.28,3.32,3.29,3.28,3.27,3.28,3.28,3.28,3.31,3.31,3.31,3.3,3.28,3.29,3.28,3.29,3.29,3.29,3.29,3.29,3.32,3.32,3.32,3.31,3.32,3.27,0.0,1.0,2.0,0.0,0.0,7190373,0.0,79.07999999999998,1405.0526584170061
1765225695417,0.0,0.0,1.0,10.0,0.0,0.0,0.0,0.0,0.0,0.0,0.0,0.0,0.0,0.0,0.0,0.0,-0.024278,-0.07808,0.988322,-0.6300000000000001,0.42000000000000004,0.0,31.1015625,3.28,3.32,3.29,3.28,3.27,3.28,3.28,3.28,3.31,3.31,3.31,3.3,3.28,3.29,3.28,3.29,3.29,3.29,3.29,3.29,3.32,3.32,3.32,3.31,3.32,3.27,0.0,1.0,2.0,0.0,0.0,7190391,0.0,79.07999999999998,1405.0526584170061
1765225695449,0.0,0.0,1.0,10.0,0.0,0.0,0.0,0.0,0.0,0.0,0.0,0.0,0.0,0.0,0.0,0.0,-0.024278,-0.07808,0.988322,-0.6300000000000001,0.42000000000000004,0.0,31.08984375,3.28,3.32,3.29,3.28,3.27,3.28,3.28,3.28,3.31,3.31,3.31,3.3,3.28,3.29,3.28,3.29,3.29,3.29,3.29,3.29,3.32,3.32,3.32,3.31,3.32,3.27,0.0,1.0,2.0,0.0,0.0,7190423,0.0,79.07999999999998,1405.0526584170061
1765225695465,0.0,0.0,1.0,10.0,0.0,0.0,0.0,0.0,0.0,0.0,0.0,0.0,0.0,0.0,0.0,0.0,-0.024278,-0.07808,0.988322,-0.6300000000000001,0.42000000000000004,0.0,31.08984375,3.28,3.32,3.29,3.28,3.27,3.28,3.28,3.28,3.31,3.31,3.31,3.3,3.28,3.29,3.28,3.29,3.29,3.29,3.29,3.29,3.32,3.32,3.32,3.31,3.32,3.27,0.0,1.0,2.0,0.0,0.0,7190439,0.0,79.07999999999998,1405.0526584170061
1765225695483,0.0,0.0,1.0,10.0,0.0,0.0,0.0,0.0,0.0,0.0,0.0,0.0,0.0,0.0,0.0,0.0,-0.024278,-0.07808,0.988322,-0.6300000000000001,0.42000000000000004,0.0,31.08984375,3.28,3.32,3.29,3.28,3.27,3.28,3.28,3.28,3.31,3.31,3.31,3.3,3.28,3.29,3.28,3.29,3.29,3.29,3.29,3.29,3.32,3.32,3.32,3.31,3.32,3.27,0.0,1.0,2.0,0.0,0.0,7190457,0.0,79.07999999999998,1405.0526584170061
1765225695500,0.0,0.0,1.0,10.0,0.0,0.0,0.0,0.0,0.0,0.0,0.0,0.0,0.0,0.0,0.0,0.0,-0.024278,-0.07808,0.988322,-0.6300000000000001,0.42000000000000004,0.0,31.08984375,3.28,3.32,3.29,3.28,3.27,3.28,3.28,3.28,3.31,3.31,3.31,3.3,3.28,3.29,3.28,3.29,3.29,3.29,3.29,3.29,3.32,3.32,3.32,3.31,3.32,3.27,0.0,1.0,2.0,0.0,0.0,7190474,0.0,79.07999999999998,1405.0526584170061
1765225695517,0.0,0.0,1.0,10.0,0.0,0.0,0.0,0.0,0.0,0.0,0.0,0.0,0.0,0.0,0.0,0.0,-0.024278,-0.07808,0.988322,-0.6300000000000001,0.42000000000000004,0.0,31.08984375,3.28,3.32,3.29,3.28,3.27,3.28,3.28,3.28,3.31,3.31,3.31,3.3,3.28,3.29,3.28,3.29,3.29,3.29,3.29,3.29,3.32,3.32,3.32,3.31,3.32,3.27,0.0,1.0,2.0,0.0,0.0,7190491,0.0,79.07999999999998,1405.0526584170061
1765225695567,0.0,0.0,1.0,10.0,0.0,0.0,0.0,0.0,0.0,0.0,0.0,0.0,0.0,0.0,0.0,0.0,-0.024278,-0.07808,0.988322,-0.6300000000000001,0.42000000000000004,0.0,31.08984375,3.28,3.32,3.29,3.28,3.27,3.28,3.28,3.28,3.31,3.31,3.31,3.3,3.28,3.29,3.28,3.29,3.29,3.29,3.29,3.29,3.32,3.32,3.32,3.31,3.32,3.27,0.0,1.0,2.0,0.0,0.0,7190541,0.0,79.07999999999998,1405.0526584170061
1765225695602,0.0,0.0,1.0,10.0,0.0,0.0,0.0,0.0,0.0,0.0,0.0,0.0,0.0,0.0,0.0,0.0,-0.024522,-0.079178,0.990762,-0.6300000000000001,0.42000000000000004,0.0,31.08984375,3.28,3.32,3.29,3.28,3.27,3.28,3.28,3.28,3.31,3.31,3.31,3.3,3.28,3.29,3.28,3.29,3.29,3.29,3.29,3.29,3.32,3.32,3.32,3.31,3.32,3.27,0.0,1.0,2.0,0.0,0.0,7190576,0.0,79.07999999999998,1405.0526584170061
1765225695651,0.0,0.0,1.0,10.0,0.0,0.0,0.0,0.0,0.0,0.0,0.0,0.0,0.0,0.0,0.0,0.0,-0.024522,-0.079178,0.990762,-0.6300000000000001,0.28,0.0,31.08984375,3.28,3.32,3.29,3.28,3.27,3.28,3.28,3.28,3.31,3.31,3.31,3.3,3.28,3.29,3.28,3.29,3.29,3.29,3.29,3.29,3.32,3.32,3.32,3.31,3.32,3.27,0.0,1.0,2.0,0.0,0.0,7190625,0.0,79.07999999999998,1405.0526584170061
1765225695666,0.0,0.0,1.0,10.0,0.0,0.0,0.0,0.0,0.0,0.0,0.0,0.0,0.0,0.0,0.0,0.0,-0.024522,-0.079178,0.990762,-0.6300000000000001,0.28,0.0,31.11328125,3.28,3.32,3.29,3.28,3.27,3.28,3.28,3.28,3.31,3.31,3.31,3.3,3.28,3.29,3.28,3.29,3.29,3.29,3.29,3.29,3.32,3.32,3.32,3.31,3.32,3.27,0.0,1.0,2.0,0.0,0.0,7190640,0.0,79.07999999999998,1405.0526584170061
1765225695686,0.0,0.0,1.0,10.0,0.0,0.0,0.0,0.0,0.0,0.0,0.0,0.0,0.0,0.0,0.0,0.0,-0.024644,-0.076982,0.988688,-0.6300000000000001,0.28,0.0,31.11328125,3.28,3.32,3.29,3.28,3.27,3.28,3.28,3.28,3.31,3.31,3.31,3.3,3.28,3.29,3.28,3.29,3.29,3.29,3.29,3.29,3.32,3.32,3.32,3.31,3.32,3.27,0.0,1.0,2.0,0.0,0.0,7190660,0.0,79.07999999999998,1405.0526584170061
1765225695734,0.0,0.0,1.0,10.0,0.0,0.0,0.0,0.0,0.0,0.0,0.0,0.0,0.0,0.0,0.0,0.0,-0.024644,-0.076982,0.988688,-0.6300000000000001,0.28,0.0,31.11328125,3.28,3.32,3.29,3.28,3.27,3.28,3.28,3.28,3.31,3.31,3.31,3.3,3.28,3.29,3.28,3.29,3.29,3.29,3.29,3.29,3.32,3.32,3.32,3.31,3.32,3.27,0.0,1.0,2.0,0.0,0.0,7190708,0.0,79.07999999999998,1405.0526584170061
1765225695750,0.0,0.0,1.0,10.0,0.0,0.0,0.0,0.0,0.0,0.0,0.0,0.0,0.0,0.0,0.0,0.0,-0.024644,-0.076982,0.988688,-0.6300000000000001,0.42000000000000004,0.0,31.11328125,3.28,3.32,3.29,3.28,3.27,3.28,3.28,3.28,3.31,3.31,3.31,3.3,3.28,3.29,3.28,3.29,3.29,3.29,3.29,3.29,3.32,3.32,3.32,3.31,3.32,3.27,0.0,1.0,2.0,0.0,0.0,7190724,0.0,79.07999999999998,1405.0526584170061
1765225695767,0.0,0.0,1.0,10.0,0.0,0.0,0.0,0.0,0.0,0.0,0.0,0.0,0.0,0.0,0.0,0.0,-0.024644,-0.076982,0.988688,-0.6300000000000001,0.42000000000000004,0.0,31.11328125,3.28,3.32,3.29,3.28,3.27,3.28,3.28,3.28,3.31,3.31,3.31,3.3,3.28,3.29,3.28,3.29,3.29,3.29,3.29,3.29,3.32,3.32,3.32,3.31,3.32,3.27,0.0,1.0,2.0,0.0,0.0,7190741,0.0,79.07999999999998,1405.0526584170061
1765225695800,0.0,0.0,1.0,10.0,0.0,0.0,0.0,0.0,0.0,0.0,0.0,0.0,0.0,0.0,0.0,0.0,-0.024644,-0.076982,0.988688,-0.6300000000000001,0.42000000000000004,0.0,31.11328125,3.28,3.32,3.29,3.28,3.27,3.28,3.28,3.28,3.31,3.31,3.31,3.3,3.28,3.29,3.28,3.29,3.29,3.29,3.29,3.29,3.32,3.32,3.32,3.31,3.32,3.27,0.0,1.0,2.0,0.0,0.0,7190774,0.0,79.07999999999998,1405.0526584170061
1765225695817,0.0,0.0,1.0,10.0,0.0,0.0,0.0,0.0,0.0,0.0,0.0,0.0,0.0,0.0,0.0,0.0,-0.024644,-0.076982,0.988688,-0.6300000000000001,0.42000000000000004,0.0,31.11328125,3.28,3.32,3.29,3.28,3.27,3.28,3.28,3.28,3.31,3.31,3.31,3.3,3.28,3.29,3.28,3.29,3.29,3.29,3.29,3.29,3.32,3.32,3.32,3.31,3.32,3.28,44.0,1.0,2.0,0.0,0.0,7190791,0.0,79.07999999999998,1405.0526584170061
1765225695833,0.0,0.0,1.0,10.0,0.0,0.0,0.0,0.0,0.0,0.0,0.0,0.0,0.0,0.0,0.0,0.0,-0.024644,-0.076982,0.988688,-0.6300000000000001,0.42000000000000004,0.0,31.11328125,3.28,3.32,3.29,3.28,3.27,3.28,3.28,3.28,3.31,3.31,3.31,3.3,3.28,3.29,3.28,3.29,3.29,3.29,3.29,3.29,3.32,3.32,3.32,3.31,3.32,3.28,44.0,1.0,0.0,1.0,1.0,7190807,0.0,79.07999999999998,1405.0526584170061
1765225695867,0.0,0.0,1.0,10.0,0.0,0.0,0.0,0.0,0.0,0.0,0.0,0.0,0.0,0.0,0.0,0.0,-0.024644,-0.076982,0.988688,-0.6300000000000001,0.42000000000000004,0.0,31.05859375,3.28,3.32,3.29,3.28,3.27,3.28,3.28,3.28,3.31,3.31,3.31,3.3,3.28,3.29,3.28,3.29,3.29,3.29,3.29,3.29,3.32,3.32,3.32,3.31,3.32,3.28,44.0,1.0,0.0,1.0,1.0,7190841,0.0,79.07999999999998,1405.0526584170061
1765225695884,0.0,0.0,1.0,10.0,0.0,0.0,0.0,0.0,0.0,0.0,0.0,0.0,0.0,0.0,0.0,0.0,-0.024644,-0.076982,0.988688,-0.6300000000000001,0.42000000000000004,0.0,31.05859375,3.28,3.32,3.29,3.28,3.27,3.28,3.28,3.28,3.31,3.31,3.31,3.3,3.28,3.29,3.28,3.29,3.29,3.29,3.29,3.29,3.32,3.32,3.32,3.31,3.32,3.28,44.0,1.0,0.0,1.0,1.0,7190858,0.0,79.07999999999998,1405.0526584170061
1765225695952,0.0,0.0,1.0,10.0,0.0,0.0,0.0,0.0,0.0,0.0,0.0,0.0,0.0,0.0,0.0,0.0,-0.024644,-0.076982,0.988688,-0.6300000000000001,0.28,-0.07,31.05859375,3.28,3.32,3.29,3.28,3.27,3.28,3.28,3.28,3.31,3.31,3.31,3.3,3.28,3.29,3.28,3.29,3.29,3.29,3.29,3.29,3.32,3.32,3.32,3.31,3.32,3.28,44.0,1.0,0.0,1.0,1.0,7190926,0.0,79.07999999999998,1405.0526584170061
1765225695969,0.0,0.0,1.0,10.0,0.0,0.0,0.0,0.0,0.0,0.0,0.0,0.0,0.0,0.0,0.0,0.0,-0.024644,-0.076982,0.988688,-0.6300000000000001,0.28,-0.07,31.05859375,3.28,3.32,3.29,3.28,3.27,3.28,3.28,3.28,3.31,3.31,3.31,3.3,3.28,3.29,3.28,3.29,3.29,3.29,3.29,3.29,3.32,3.32,3.32,3.31,3.32,3.28,44.0,1.0,0.0,1.0,1.0,7190943,0.0,79.07999999999998,1405.0526584170061
1765225695984,0.0,0.0,1.0,10.0,0.0,0.0,0.0,0.0,0.0,0.0,0.0,0.0,0.0,0.0,0.0,0.0,-0.024644,-0.076982,0.988688,-0.6300000000000001,0.28,-0.07,31.05859375,3.28,3.32,3.29,3.28,3.27,3.28,3.28,3.28,3.31,3.31,3.31,3.3,3.28,3.29,3.28,3.29,3.29,3.29,3.29,3.29,3.32,3.32,3.32,3.31,3.32,3.28,45.0,1.0,0.0,1.0,1.0,7190958,0.0,79.07999999999998,1405.0526584170061
1765225696036,0.0,0.0,1.0,10.0,0.0,0.0,0.0,0.0,0.0,0.0,0.0,0.0,0.0,0.0,0.0,0.0,-0.024644,-0.076982,0.988688,-0.6300000000000001,0.28,-0.07,31.05859375,3.28,3.32,3.29,3.28,3.27,3.28,3.28,3.28,3.31,3.31,3.31,3.3,3.28,3.29,3.28,3.29,3.29,3.29,3.29,3.29,3.32,3.32,3.32,3.31,3.32,3.28,45.0,1.0,0.0,1.0,1.0,7191010,0.0,79.07999999999998,1405.0526584170061
1765225696068,0.0,0.0,1.0,10.0,0.0,0.0,0.0,0.0,0.0,0.0,0.0,0.0,0.0,0.0,0.0,0.0,-0.024644,-0.076982,0.988688,-0.6300000000000001,0.28,-0.07,31.08984375,3.28,3.32,3.29,3.28,3.27,3.28,3.28,3.28,3.31,3.31,3.31,3.3,3.28,3.29,3.28,3.29,3.29,3.29,3.29,3.29,3.32,3.32,3.32,3.31,3.32,3.28,45.0,1.0,0.0,1.0,1.0,7191042,0.0,79.07999999999998,1405.0526584170061
1765225696118,0.0,0.0,1.0,10.0,0.0,0.0,0.0,0.0,0.0,0.0,0.0,0.0,0.0,0.0,0.0,0.0,-0.028182,-0.078446,0.990274,-0.6300000000000001,0.28,-0.07,31.08984375,3.28,3.32,3.29,3.28,3.27,3.28,3.28,3.28,3.31,3.31,3.31,3.3,3.28,3.29,3.28,3.29,3.29,3.29,3.29,3.29,3.32,3.32,3.32,3.31,3.32,3.28,45.0,1.0,0.0,1.0,1.0,7191092,0.0,79.07999999999998,1405.0526584170061
1765225696132,0.0,0.0,1.0,10.0,0.0,0.0,0.0,0.0,0.0,0.0,0.0,0.0,0.0,0.0,0.0,0.0,-0.028182,-0.078446,0.990274,-0.6300000000000001,0.28,0.07,31.08984375,3.28,3.32,3.29,3.28,3.27,3.28,3.28,3.28,3.31,3.31,3.31,3.3,3.28,3.29,3.28,3.29,3.29,3.29,3.29,3.29,3.32,3.32,3.32,3.31,3.32,3.28,45.0,1.0,0.0,1.0,1.0,7191106,0.0,79.07999999999998,1405.0526584170061
1765225696150,0.0,0.0,1.0,10.0,0.0,0.0,0.0,0.0,0.0,0.0,0.0,0.0,0.0,0.0,0.0,0.0,-0.028182,-0.078446,0.990274,-0.6300000000000001,0.28,0.07,31.09375,3.28,3.32,3.29,3.28,3.27,3.28,3.28,3.28,3.31,3.31,3.31,3.3,3.28,3.29,3.28,3.29,3.29,3.29,3.29,3.29,3.32,3.32,3.32,3.31,3.32,3.28,45.0,1.0,0.0,1.0,1.0,7191124,0.0,79.07999999999998,1405.0526584170061
1765225696167,0.0,0.0,1.0,10.0,0.0,0.0,0.0,0.0,0.0,0.0,0.0,0.0,0.0,0.0,0.0,0.0,-0.028182,-0.078446,0.990274,-0.6300000000000001,0.28,0.07,31.09375,3.28,3.32,3.29,3.28,3.27,3.28,3.28,3.28,3.31,3.31,3.31,3.3,3.28,3.29,3.28,3.29,3.29,3.29,3.29,3.29,3.32,3.32,3.32,3.31,3.32,3.28,45.0,1.0,0.0,1.0,1.0,7191141,0.0,79.07999999999998,1405.0526584170061
1765225696182,0.0,0.0,1.0,10.0,0.0,0.0,0.0,0.0,0.0,0.0,0.0,0.0,0.0,0.0,0.0,0.0,-0.028182,-0.078446,0.990274,-0.6300000000000001,0.28,0.07,31.09375,3.28,3.32,3.29,3.28,3.27,3.28,3.28,3.28,3.31,3.31,3.31,3.3,3.28,3.29,3.28,3.29,3.29,3.29,3.29,3.29,3.32,3.32,3.32,3.31,3.32,3.28,45.0,1.0,0.0,1.0,1.0,7191156,0.0,79.07999999999998,1405.0526584170061
1765225696200,0.0,0.0,1.0,10.0,0.0,0.0,0.0,0.0,0.0,0.0,0.0,0.0,0.0,0.0,0.0,0.0,-0.028182,-0.078446,0.990274,-0.6300000000000001,0.28,0.07,31.09375,3.28,3.32,3.29,3.28,3.27,3.28,3.28,3.28,3.31,3.31,3.31,3.3,3.28,3.29,3.28,3.29,3.29,3.29,3.29,3.29,3.32,3.32,3.32,3.31,3.32,3.28,45.0,1.0,0.0,1.0,1.0,7191174,0.0,79.07999999999998,1405.0526584170061
1765225696233,0.0,0.0,1.0,10.0,0.0,0.0,0.0,0.0,0.0,0.0,0.0,0.0,0.0,0.0,0.0,0.0,-0.028182,-0.078446,0.990274,-0.6300000000000001,0.28,0.07,31.09375,3.28,3.32,3.29,3.28,3.27,3.28,3.28,3.28,3.31,3.31,3.31,3.3,3.28,3.29,3.28,3.29,3.29,3.29,3.29,3.29,3.32,3.32,3.32,3.31,3.32,3.28,45.0,1.0,0.0,1.0,1.0,7191207,0.0,79.07999999999998,1405.0526584170061
1765225696299,0.0,0.0,1.0,10.0,0.0,0.0,0.0,0.0,0.0,0.0,0.0,0.0,0.0,0.0,0.0,0.0,-0.028182,-0.078446,0.990274,-0.6300000000000001,0.28,0.07,31.09375,3.28,3.32,3.29,3.28,3.27,3.28,3.28,3.28,3.31,3.31,3.31,3.3,3.28,3.29,3.28,3.29,3.29,3.29,3.29,3.29,3.32,3.32,3.32,3.31,3.32,3.28,45.0,1.0,0.0,1.0,1.0,7191273,0.0,79.07999999999998,1405.0526584170061
1765225696300,0.0,0.0,1.0,10.0,0.0,0.0,0.0,0.0,0.0,0.0,0.0,0.0,0.0,0.0,0.0,0.0,-0.024278,-0.076372,0.988688,-0.6300000000000001,0.28,0.07,31.09375,3.28,3.32,3.29,3.28,3.27,3.28,3.28,3.28,3.31,3.31,3.31,3.3,3.28,3.29,3.28,3.29,3.29,3.29,3.29,3.29,3.32,3.32,3.32,3.31,3.32,3.28,45.0,1.0,0.0,1.0,1.0,7191274,0.0,79.07999999999998,1405.0526584170061
1765225696349,0.0,0.0,1.0,10.0,0.0,0.0,0.0,0.0,0.0,0.0,0.0,0.0,0.0,0.0,0.0,0.0,-0.024278,-0.076372,0.988688,-0.56,0.42000000000000004,0.0,31.09375,3.28,3.32,3.29,3.28,3.27,3.28,3.28,3.28,3.31,3.31,3.31,3.3,3.28,3.29,3.28,3.29,3.29,3.29,3.29,3.29,3.32,3.32,3.32,3.31,3.32,3.28,45.0,1.0,0.0,1.0,1.0,7191323,0.0,79.07999999999998,1405.0526584170061
1765225696383,0.0,0.0,1.0,10.0,0.0,0.0,0.0,0.0,0.0,0.0,0.0,0.0,0.0,0.0,0.0,0.0,-0.024278,-0.076372,0.988688,-0.56,0.42000000000000004,0.0,31.10546875,3.28,3.32,3.29,3.28,3.27,3.28,3.28,3.28,3.31,3.31,3.31,3.3,3.28,3.29,3.28,3.29,3.29,3.29,3.29,3.29,3.32,3.32,3.32,3.31,3.32,3.28,45.0,1.0,0.0,1.0,1.0,7191357,0.0,79.07999999999998,1405.0526584170061
1765225696418,0.0,0.0,1.0,10.0,0.0,0.0,0.0,0.0,0.0,0.0,0.0,0.0,0.0,0.0,0.0,0.0,-0.026352,-0.07649399999999999,0.990152,-0.6300000000000001,0.42000000000000004,0.0,31.10546875,3.28,3.32,3.29,3.28,3.27,3.28,3.28,3.28,3.31,3.31,3.31,3.3,3.28,3.29,3.28,3.29,3.29,3.29,3.29,3.29,3.32,3.32,3.32,3.31,3.32,3.28,45.0,1.0,0.0,1.0,1.0,7191392,0.0,79.07999999999998,1405.0526584170061
1765225696452,0.0,0.0,1.0,10.0,0.0,0.0,0.0,0.0,0.0,0.0,0.0,0.0,0.0,0.0,0.0,0.0,-0.026352,-0.07649399999999999,0.990152,-0.6300000000000001,0.42000000000000004,0.0,31.10546875,3.28,3.32,3.29,3.28,3.27,3.28,3.28,3.28,3.31,3.31,3.31,3.3,3.28,3.29,3.28,3.29,3.29,3.29,3.29,3.29,3.32,3.32,3.32,3.31,3.32,3.28,45.0,1.0,0.0,1.0,1.0,7191426,0.0,79.07999999999998,1405.0526584170061
1765225696469,0.0,0.0,1.0,10.0,0.0,0.0,0.0,0.0,0.0,0.0,0.0,0.0,0.0,0.0,0.0,0.0,-0.026352,-0.07649399999999999,0.990152,-0.6300000000000001,0.42000000000000004,0.0,31.10546875,3.28,3.32,3.29,3.28,3.27,3.28,3.28,3.28,3.31,3.31,3.31,3.3,3.28,3.29,3.28,3.29,3.29,3.29,3.29,3.29,3.32,3.32,3.32,3.31,3.32,3.28,45.0,1.0,0.0,1.0,1.0,7191443,0.0,79.07999999999998,1405.0526584170061
1765225696486,0.0,0.0,1.0,10.0,0.0,0.0,0.0,0.0,0.0,0.0,0.0,0.0,0.0,0.0,0.0,0.0,-0.026352,-0.07649399999999999,0.990152,-0.6300000000000001,0.42000000000000004,0.0,31.109375,3.28,3.32,3.29,3.28,3.27,3.28,3.28,3.28,3.31,3.31,3.31,3.3,3.28,3.29,3.28,3.29,3.29,3.29,3.29,3.29,3.32,3.32,3.32,3.31,3.32,3.28,45.0,1.0,0.0,1.0,1.0,7191460,0.0,79.07999999999998,1405.0526584170061
1765225696502,0.0,0.0,1.0,10.0,0.0,0.0,0.0,0.0,0.0,0.0,0.0,0.0,0.0,0.0,0.0,0.0,-0.026352,-0.07649399999999999,0.990152,-0.6300000000000001,0.42000000000000004,0.0,31.109375,3.28,3.32,3.29,3.28,3.27,3.28,3.28,3.28,3.31,3.31,3.31,3.3,3.28,3.29,3.28,3.29,3.29,3.29,3.29,3.29,3.32,3.32,3.32,3.31,3.32,3.28,45.0,1.0,0.0,1.0,1.0,7191476,0.0,79.07999999999998,1405.0526584170061
1765225696517,0.0,0.0,1.0,10.0,0.0,0.0,0.0,0.0,0.0,0.0,0.0,0.0,0.0,0.0,0.0,0.0,-0.026352,-0.07649399999999999,0.990152,-0.6300000000000001,0.28,-0.07,31.109375,3.28,3.32,3.29,3.28,3.27,3.28,3.28,3.28,3.31,3.31,3.31,3.3,3.28,3.29,3.28,3.29,3.29,3.29,3.29,3.29,3.32,3.32,3.32,3.31,3.32,3.28,45.0,1.0,0.0,1.0,1.0,7191491,0.0,79.07999999999998,1405.0526584170061
1765225696534,0.0,0.0,1.0,10.0,0.0,0.0,0.0,0.0,0.0,0.0,0.0,0.0,0.0,0.0,0.0,0.0,-0.026352,-0.07649399999999999,0.990152,-0.6300000000000001,0.28,-0.07,31.08984375,3.28,3.32,3.29,3.28,3.27,3.28,3.28,3.28,3.31,3.31,3.31,3.3,3.28,3.29,3.28,3.29,3.29,3.29,3.29,3.29,3.32,3.32,3.32,3.31,3.32,3.28,45.0,1.0,0.0,1.0,1.0,7191508,0.0,79.07999999999998,1405.0526584170061
1765225696567,0.0,0.0,1.0,10.0,0.0,0.0,0.0,0.0,0.0,0.0,0.0,0.0,0.0,0.0,0.0,0.0,-0.026352,-0.07649399999999999,0.990152,-0.6300000000000001,0.28,-0.07,31.08984375,3.28,3.32,3.29,3.28,3.27,3.28,3.28,3.28,3.31,3.31,3.31,3.3,3.28,3.29,3.28,3.29,3.29,3.29,3.29,3.29,3.32,3.32,3.32,3.31,3.32,3.28,45.0,1.0,0.0,1.0,1.0,7191541,0.0,79.07999999999998,1405.0526584170061
1765225696585,0.0,0.0,1.0,10.0,0.0,0.0,0.0,0.0,0.0,0.0,0.0,0.0,0.0,0.0,0.0,0.0,-0.024034,-0.078202,0.98881,-0.6300000000000001,0.28,-0.07,31.08984375,3.28,3.32,3.29,3.28,3.27,3.28,3.28,3.28,3.31,3.31,3.31,3.3,3.28,3.29,3.28,3.29,3.29,3.29,3.29,3.29,3.32,3.32,3.32,3.31,3.32,3.28,45.0,1.0,0.0,1.0,1.0,7191559,0.0,79.07999999999998,1405.0526584170061
1765225696617,0.0,0.0,1.0,10.0,0.0,0.0,0.0,0.0,0.0,0.0,0.0,0.0,0.0,0.0,0.0,0.0,-0.024034,-0.078202,0.98881,-0.6300000000000001,0.28,-0.07,31.08984375,3.28,3.32,3.29,3.28,3.27,3.28,3.28,3.28,3.31,3.31,3.31,3.3,3.28,3.29,3.28,3.29,3.29,3.29,3.29,3.29,3.32,3.32,3.32,3.31,3.32,3.28,45.0,1.0,0.0,1.0,1.0,7191591,0.0,79.07999999999998,1405.0526584170061
1765225696650,0.0,0.0,1.0,10.0,0.0,0.0,0.0,0.0,0.0,0.0,0.0,0.0,0.0,0.0,0.0,0.0,-0.024034,-0.078202,0.98881,-0.56,0.35000000000000003,0.0,31.08984375,3.28,3.32,3.29,3.28,3.27,3.28,3.28,3.28,3.31,3.31,3.31,3.3,3.28,3.29,3.28,3.29,3.29,3.29,3.29,3.29,3.32,3.32,3.32,3.31,3.32,3.28,45.0,1.0,0.0,1.0,1.0,7191624,0.0,79.07999999999998,1405.0526584170061
1765225696701,0.0,0.0,1.0,10.0,0.0,0.0,0.0,0.0,0.0,0.0,0.0,0.0,0.0,0.0,0.0,0.0,-0.024034,-0.078202,0.98881,-0.56,0.35000000000000003,0.0,31.10546875,3.28,3.32,3.29,3.28,3.27,3.28,3.28,3.28,3.31,3.31,3.31,3.3,3.28,3.29,3.28,3.29,3.29,3.29,3.29,3.29,3.32,3.32,3.32,3.31,3.32,3.28,45.0,1.0,0.0,1.0,1.0,7191675,0.0,79.07999999999998,1405.0526584170061
1765225696717,0.0,0.0,1.0,10.0,0.0,0.0,0.0,0.0,0.0,0.0,0.0,0.0,0.0,0.0,0.0,0.0,-0.024034,-0.078202,0.98881,-0.56,0.35000000000000003,0.0,31.10546875,3.28,3.32,3.29,3.28,3.27,3.28,3.28,3.28,3.31,3.31,3.31,3.3,3.28,3.29,3.28,3.29,3.29,3.29,3.29,3.29,3.32,3.32,3.32,3.31,3.32,3.28,45.0,1.0,0.0,1.0,1.0,7191691,0.0,79.07999999999998,1405.0526584170061
1765225696751,0.0,0.0,1.0,10.0,0.0,0.0,0.0,0.0,0.0,0.0,0.0,0.0,0.0,0.0,0.0,0.0,-0.024034,-0.078202,0.98881,-0.56,0.35000000000000003,0.0,31.10546875,3.29,3.32,3.31,3.3,3.27,3.28,3.28,3.28,3.31,3.31,3.31,3.3,3.28,3.29,3.28,3.29,3.29,3.29,3.29,3.29,3.32,3.32,3.32,3.31,3.32,3.28,45.0,1.0,0.0,1.0,1.0,7191725,0.0,79.12999999999998,1405.0526584170061
1765225696783,0.0,0.0,1.0,10.0,0.0,0.0,0.0,0.0,0.0,0.0,0.0,0.0,0.0,0.0,0.0,0.0,-0.024034,-0.078202,0.98881,-0.56,0.35000000000000003,0.0,31.10546875,3.29,3.32,3.31,3.3,3.28,3.29,3.28,3.28,3.31,3.31,3.31,3.3,3.28,3.29,3.28,3.29,3.29,3.29,3.29,3.29,3.32,3.32,3.32,3.31,3.32,3.28,45.0,1.0,0.0,1.0,1.0,7191757,0.0,79.14999999999998,1405.0526584170061
1765225696800,0.0,0.0,1.0,10.0,0.0,0.0,0.0,0.0,0.0,0.0,0.0,0.0,0.0,0.0,0.0,0.0,-0.024034,-0.078202,0.98881,-0.56,0.35000000000000003,0.0,31.10546875,3.29,3.32,3.31,3.3,3.28,3.29,3.28,3.28,3.32,3.32,3.32,3.31,3.28,3.29,3.28,3.29,3.29,3.29,3.29,3.29,3.32,3.32,3.32,3.31,3.32,3.28,45.0,1.0,0.0,1.0,1.0,7191774,0.0,79.18999999999998,1405.0526584170061
1765225696816,0.0,0.0,1.0,10.0,0.0,0.0,0.0,0.0,0.0,0.0,0.0,0.0,0.0,0.0,0.0,0.0,-0.024034,-0.078202,0.98881,-0.56,0.35000000000000003,0.0,31.10546875,3.29,3.32,3.31,3.3,3.28,3.29,3.28,3.28,3.32,3.32,3.32,3.31,3.28,3.29,3.28,3.29,3.29,3.29,3.29,3.29,3.32,3.32,3.32,3.31,3.32,3.28,45.0,1.0,0.0,1.0,1.0,7191790,0.0,79.18999999999998,1405.0526584170061
1765225696834,0.0,0.0,1.0,10.0,0.0,0.0,0.0,0.0,0.0,0.0,0.0,0.0,0.0,0.0,0.0,0.0,-0.024034,-0.078202,0.98881,-0.56,0.35000000000000003,0.0,31.10546875,3.29,3.32,3.31,3.3,3.28,3.29,3.28,3.28,3.32,3.32,3.32,3.31,3.28,3.29,3.28,3.29,3.29,3.29,3.29,3.29,3.32,3.32,3.32,3.31,3.32,3.28,45.0,1.0,0.0,1.0,1.0,7191808,0.0,79.18999999999998,1405.0526584170061
1765225696867,0.0,0.0,1.0,10.0,0.0,0.0,0.0,0.0,0.0,0.0,0.0,0.0,0.0,0.0,0.0,0.0,-0.025131999999999998,-0.07686,0.989664,-0.56,0.35000000000000003,0.0,31.10546875,3.29,3.32,3.31,3.3,3.28,3.29,3.28,3.28,3.32,3.32,3.32,3.31,3.28,3.29,3.28,3.29,3.29,3.29,3.29,3.29,3.32,3.32,3.32,3.31,3.32,3.28,45.0,1.0,0.0,1.0,1.0,7191841,0.0,79.18999999999998,1405.0526584170061
1765225696885,0.0,0.0,1.0,10.0,0.0,0.0,0.0,0.0,0.0,0.0,0.0,0.0,0.0,0.0,0.0,0.0,-0.025131999999999998,-0.07686,0.989664,-0.6300000000000001,0.35000000000000003,0.0,31.125,3.29,3.32,3.31,3.3,3.28,3.29,3.28,3.28,3.32,3.32,3.32,3.31,3.28,3.29,3.28,3.29,3.29,3.29,3.29,3.29,3.32,3.32,3.32,3.31,3.32,3.28,45.0,1.0,0.0,1.0,1.0,7191859,0.0,79.18999999999998,1405.0526584170061
1765225696933,0.0,0.0,1.0,10.0,0.0,0.0,0.0,0.0,0.0,0.0,0.0,0.0,0.0,0.0,0.0,0.0,-0.025131999999999998,-0.07686,0.989664,-0.6300000000000001,0.35000000000000003,0.0,31.125,3.29,3.32,3.31,3.3,3.28,3.29,3.28,3.28,3.32,3.32,3.32,3.31,3.28,3.29,3.28,3.29,3.29,3.29,3.29,3.29,3.32,3.32,3.32,3.31,3.32,3.28,45.0,1.0,0.0,1.0,1.0,7191907,0.0,79.18999999999998,1405.0526584170061
1765225696950,0.0,0.0,1.0,10.0,0.0,0.0,0.0,0.0,0.0,0.0,0.0,0.0,0.0,0.0,0.0,0.0,-0.025131999999999998,-0.07686,0.989664,-0.6300000000000001,0.35000000000000003,0.0,31.125,3.29,3.32,3.31,3.3,3.28,3.29,3.28,3.28,3.32,3.32,3.32,3.31,3.28,3.29,3.28,3.29,3.29,3.29,3.29,3.29,3.32,3.32,3.32,3.31,3.32,3.28,45.0,1.0,0.0,1.0,1.0,7191924,0.0,79.18999999999998,1405.0526584170061
1765225696969,0.0,0.0,1.0,10.0,0.0,0.0,0.0,0.0,0.0,0.0,0.0,0.0,0.0,0.0,0.0,0.0,-0.025131999999999998,-0.07686,0.989664,-0.6300000000000001,0.35000000000000003,0.0,31.125,3.29,3.32,3.31,3.3,3.28,3.29,3.28,3.28,3.32,3.32,3.32,3.31,3.28,3.29,3.28,3.29,3.29,3.29,3.29,3.29,3.32,3.32,3.32,3.31,3.32,3.28,45.0,1.0,0.0,1.0,1.0,7191943,0.0,79.18999999999998,1405.0526584170061
1765225696985,0.0,0.0,1.0,10.0,0.0,0.0,0.0,0.0,0.0,0.0,0.0,0.0,0.0,0.0,0.0,0.0,-0.025131999999999998,-0.07686,0.989664,-0.6300000000000001,0.35000000000000003,0.0,31.125,3.29,3.32,3.31,3.3,3.28,3.29,3.28,3.28,3.32,3.32,3.32,3.31,3.28,3.29,3.28,3.29,3.29,3.29,3.29,3.29,3.32,3.32,3.32,3.31,3.32,3.28,45.0,1.0,0.0,1.0,1.0,7191959,0.0,79.18999999999998,1405.0526584170061
1765225697036,0.0,0.0,1.0,10.0,0.0,0.0,0.0,0.0,0.0,0.0,0.0,0.0,0.0,0.0,0.0,0.0,-0.025131999999999998,-0.07686,0.989664,-0.6300000000000001,0.35000000000000003,0.0,31.125,3.29,3.32,3.31,3.3,3.28,3.29,3.28,3.28,3.32,3.32,3.32,3.31,3.28,3.29,3.28,3.29,3.29,3.29,3.29,3.29,3.32,3.32,3.32,3.31,3.32,3.28,45.0,1.0,0.0,1.0,1.0,7192010,0.0,79.18999999999998,1405.0526584170061
1765225697083,0.0,0.0,1.0,10.0,0.0,0.0,0.0,0.0,0.0,0.0,0.0,0.0,0.0,0.0,0.0,0.0,-0.024644,-0.077592,0.99003,-0.6300000000000001,0.35000000000000003,0.0,31.125,3.29,3.32,3.31,3.3,3.28,3.29,3.28,3.28,3.32,3.32,3.32,3.31,3.28,3.29,3.28,3.29,3.29,3.29,3.29,3.29,3.32,3.32,3.32,3.31,3.32,3.28,45.0,1.0,0.0,1.0,1.0,7192057,0.0,79.18999999999998,1405.0526584170061
1765225697133,0.0,0.0,1.0,10.0,0.0,0.0,0.0,0.0,0.0,0.0,0.0,0.0,0.0,0.0,0.0,0.0,-0.024644,-0.077592,0.99003,-0.6300000000000001,0.28,0.0,31.125,3.29,3.32,3.31,3.3,3.28,3.29,3.28,3.28,3.32,3.32,3.32,3.31,3.28,3.29,3.28,3.29,3.29,3.29,3.29,3.29,3.32,3.32,3.32,3.31,3.32,3.28,45.0,1.0,0.0,1.0,1.0,7192107,0.0,79.18999999999998,1405.0526584170061
1765225697150,0.0,0.0,1.0,10.0,0.0,0.0,0.0,0.0,0.0,0.0,0.0,0.0,0.0,0.0,0.0,0.0,-0.024644,-0.077592,0.99003,-0.6300000000000001,0.28,0.0,31.125,3.29,3.32,3.31,3.3,3.28,3.29,3.28,3.28,3.32,3.32,3.32,3.31,3.28,3.29,3.28,3.29,3.29,3.29,3.29,3.29,3.32,3.32,3.32,3.31,3.32,3.28,45.0,1.0,0.0,1.0,1.0,7192124,0.0,79.18999999999998,1405.0526584170061
1765225697237,0.0,0.0,1.0,10.0,0.0,0.0,0.0,0.0,0.0,0.0,0.0,0.0,0.0,0.0,0.0,0.0,-0.025742,-0.076616,0.988444,-0.56,0.21000000000000002,-0.07,31.125,3.29,3.32,3.31,3.3,3.28,3.29,3.28,3.28,3.32,3.32,3.32,3.31,3.28,3.29,3.28,3.29,3.29,3.29,3.29,3.29,3.32,3.32,3.32,3.31,3.32,3.28,45.0,1.0,0.0,1.0,1.0,7192211,0.0,79.18999999999998,1405.0526584170061
1765225697268,0.0,0.0,1.0,10.0,0.0,0.0,0.0,0.0,0.0,0.0,0.0,0.0,0.0,0.0,0.0,0.0,-0.025742,-0.076616,0.988444,-0.56,0.21000000000000002,-0.07,31.07421875,3.29,3.32,3.31,3.3,3.28,3.29,3.28,3.28,3.32,3.32,3.32,3.31,3.28,3.29,3.28,3.29,3.29,3.29,3.29,3.29,3.32,3.32,3.32,3.31,3.32,3.28,45.0,1.0,0.0,1.0,1.0,7192242,0.0,79.18999999999998,1405.0526584170061
1765225697301,0.0,0.0,1.0,10.0,0.0,0.0,0.0,0.0,0.0,0.0,0.0,0.0,0.0,0.0,0.0,0.0,-0.025742,-0.076616,0.988444,-0.56,0.21000000000000002,-0.07,31.07421875,3.29,3.32,3.31,3.3,3.28,3.29,3.28,3.28,3.32,3.32,3.32,3.31,3.28,3.29,3.28,3.29,3.29,3.29,3.29,3.29,3.32,3.32,3.32,3.31,3.32,3.28,45.0,1.0,0.0,1.0,1.0,7192275,0.0,79.18999999999998,1405.0526584170061
1765225697317,0.0,0.0,1.0,10.0,0.0,0.0,0.0,0.0,0.0,0.0,0.0,0.0,0.0,0.0,0.0,0.0,-0.025742,-0.076616,0.988444,-0.56,0.21000000000000002,-0.07,31.07421875,3.29,3.32,3.31,3.3,3.28,3.29,3.28,3.28,3.32,3.32,3.32,3.31,3.28,3.29,3.28,3.29,3.29,3.29,3.29,3.29,3.32,3.32,3.32,3.31,3.32,3.28,45.0,1.0,0.0,1.0,1.0,7192291,0.0,79.18999999999998,1405.0526584170061
1765225697337,0.0,0.0,1.0,10.0,0.0,0.0,0.0,0.0,0.0,0.0,0.0,0.0,0.0,0.0,0.0,0.0,-0.025742,-0.076616,0.988444,-0.56,0.21000000000000002,-0.07,31.07421875,3.29,3.32,3.31,3.3,3.28,3.29,3.28,3.28,3.32,3.32,3.32,3.31,3.28,3.29,3.28,3.29,3.29,3.29,3.29,3.29,3.32,3.32,3.32,3.31,3.32,3.28,45.0,1.0,0.0,1.0,1.0,7192311,0.0,79.18999999999998,1405.0526584170061
1765225697350,0.0,0.0,1.0,10.0,0.0,0.0,0.0,0.0,0.0,0.0,0.0,0.0,0.0,0.0,0.0,0.0,-0.026108,-0.07649399999999999,0.9903959999999999,-0.56,0.21000000000000002,-0.07,31.07421875,3.29,3.32,3.31,3.3,3.28,3.29,3.28,3.28,3.32,3.32,3.32,3.31,3.28,3.29,3.28,3.29,3.29,3.29,3.29,3.29,3.32,3.32,3.32,3.31,3.32,3.28,45.0,1.0,0.0,1.0,1.0,7192324,0.0,79.18999999999998,1405.0526584170061
1765225697383,0.0,0.0,1.0,10.0,0.0,0.0,0.0,0.0,0.0,0.0,0.0,0.0,0.0,0.0,0.0,0.0,-0.026108,-0.07649399999999999,0.9903959999999999,-0.56,0.21000000000000002,-0.07,31.07421875,3.29,3.32,3.31,3.3,3.28,3.29,3.28,3.28,3.32,3.32,3.32,3.31,3.28,3.29,3.28,3.29,3.29,3.29,3.29,3.29,3.32,3.32,3.32,3.31,3.32,3.28,45.0,1.0,0.0,1.0,1.0,7192357,0.0,79.18999999999998,1405.0526584170061
1765225697416,0.0,0.0,1.0,10.0,0.0,0.0,0.0,0.0,0.0,0.0,0.0,0.0,0.0,0.0,0.0,0.0,-0.026108,-0.07649399999999999,0.9903959999999999,-0.56,0.28,0.0,31.07421875,3.29,3.32,3.31,3.3,3.28,3.29,3.28,3.28,3.32,3.32,3.32,3.31,3.28,3.29,3.28,3.29,3.29,3.29,3.29,3.29,3.32,3.32,3.32,3.31,3.32,3.28,45.0,1.0,0.0,1.0,1.0,7192390,0.0,79.18999999999998,1405.0526584170061
1765225697433,0.0,0.0,1.0,10.0,0.0,0.0,0.0,0.0,0.0,0.0,0.0,0.0,0.0,0.0,0.0,0.0,-0.026108,-0.07649399999999999,0.9903959999999999,-0.56,0.28,0.0,31.07421875,3.29,3.32,3.31,3.3,3.28,3.29,3.28,3.28,3.32,3.32,3.32,3.31,3.28,3.29,3.28,3.29,3.29,3.29,3.29,3.29,3.32,3.32,3.32,3.31,3.32,3.28,45.0,1.0,0.0,1.0,1.0,7192407,0.0,79.18999999999998,1405.0526584170061
1765225697466,0.0,0.0,1.0,10.0,0.0,0.0,0.0,0.0,0.0,0.0,0.0,0.0,0.0,0.0,0.0,0.0,-0.026108,-0.07649399999999999,0.9903959999999999,-0.56,0.28,0.0,31.13671875,3.29,3.32,3.31,3.3,3.28,3.29,3.28,3.28,3.32,3.32,3.32,3.31,3.28,3.29,3.28,3.29,3.29,3.29,3.29,3.29,3.32,3.32,3.32,3.31,3.32,3.28,45.0,1.0,0.0,1.0,1.0,7192440,0.0,79.18999999999998,1405.0526584170061
1765225697533,0.0,0.0,1.0,10.0,0.0,0.0,0.0,0.0,0.0,0.0,0.0,0.0,0.0,0.0,0.0,0.0,-0.025498,-0.078202,0.988932,-0.56,0.28,0.0,31.13671875,3.29,3.32,3.31,3.3,3.28,3.29,3.28,3.28,3.32,3.32,3.32,3.31,3.28,3.29,3.28,3.29,3.29,3.29,3.29,3.29,3.32,3.32,3.32,3.31,3.32,3.28,45.0,1.0,0.0,1.0,1.0,7192507,0.0,79.18999999999998,1405.0526584170061
1765225697548,0.0,0.0,1.0,10.0,0.0,0.0,0.0,0.0,0.0,0.0,0.0,0.0,0.0,0.0,0.0,0.0,-0.025498,-0.078202,0.988932,-0.56,0.28,0.0,31.13671875,3.29,3.32,3.31,3.3,3.28,3.29,3.28,3.28,3.32,3.32,3.32,3.31,3.28,3.29,3.28,3.29,3.29,3.29,3.29,3.29,3.32,3.32,3.32,3.31,3.32,3.28,45.0,1.0,0.0,1.0,1.0,7192522,0.0,79.18999999999998,1405.0526584170061
1765225697599,0.0,0.0,1.0,10.0,0.0,0.0,0.0,0.0,0.0,0.0,0.0,0.0,0.0,0.0,0.0,0.0,-0.025498,-0.078202,0.988932,-0.49000000000000005,0.35000000000000003,0.0,31.08984375,3.29,3.32,3.31,3.3,3.28,3.29,3.28,3.28,3.32,3.32,3.32,3.31,3.28,3.29,3.28,3.29,3.29,3.29,3.29,3.29,3.32,3.32,3.32,3.31,3.32,3.28,45.0,1.0,0.0,1.0,1.0,7192573,0.0,79.18999999999998,1405.0526584170061
1765225697633,0.0,0.0,1.0,10.0,0.0,0.0,0.0,0.0,0.0,0.0,0.0,0.0,0.0,0.0,0.0,0.0,-0.025498,-0.078202,0.988932,-0.49000000000000005,0.35000000000000003,0.0,31.08984375,3.29,3.32,3.31,3.3,3.28,3.29,3.28,3.28,3.32,3.32,3.32,3.31,3.28,3.29,3.28,3.29,3.29,3.29,3.29,3.29,3.32,3.32,3.32,3.31,3.32,3.28,45.0,1.0,0.0,1.0,1.0,7192607,0.0,79.18999999999998,1405.0526584170061
1765225697649,0.0,0.0,1.0,10.0,0.0,0.0,0.0,0.0,0.0,0.0,0.0,0.0,0.0,0.0,0.0,0.0,-0.025498,-0.078202,0.988932,-0.49000000000000005,0.35000000000000003,0.0,31.08984375,3.29,3.32,3.31,3.3,3.28,3.29,3.28,3.28,3.32,3.32,3.32,3.31,3.28,3.29,3.28,3.29,3.29,3.29,3.29,3.29,3.32,3.32,3.32,3.31,3.32,3.28,45.0,1.0,0.0,1.0,1.0,7192623,0.0,79.18999999999998,1405.0526584170061
1765225697667,0.0,0.0,1.0,10.0,0.0,0.0,0.0,0.0,0.0,0.0,0.0,0.0,0.0,0.0,0.0,0.0,-0.025498,-0.078202,0.988932,-0.49000000000000005,0.35000000000000003,0.0,31.08984375,3.29,3.32,3.31,3.3,3.28,3.29,3.28,3.28,3.32,3.32,3.32,3.31,3.28,3.29,3.28,3.29,3.29,3.29,3.29,3.29,3.32,3.32,3.32,3.31,3.32,3.28,45.0,1.0,0.0,1.0,1.0,7192641,0.0,79.18999999999998,1405.0526584170061
1765225697700,0.0,0.0,1.0,10.0,0.0,0.0,0.0,0.0,0.0,0.0,0.0,0.0,0.0,0.0,0.0,0.0,-0.025498,-0.078202,0.988932,-0.49000000000000005,0.35000000000000003,0.0,31.08984375,3.29,3.32,3.31,3.3,3.28,3.29,3.28,3.28,3.32,3.32,3.32,3.31,3.28,3.29,3.28,3.29,3.29,3.29,3.29,3.29,3.32,3.32,3.32,3.31,3.32,3.28,45.0,1.0,0.0,1.0,1.0,7192674,0.0,79.18999999999998,1405.0526584170061
1765225697749,0.0,0.0,1.0,10.0,0.0,0.0,0.0,0.0,0.0,0.0,0.0,0.0,0.0,0.0,0.0,0.0,-0.025498,-0.078202,0.988932,-0.49000000000000005,0.35000000000000003,0.0,31.08984375,3.29,3.32,3.31,3.3,3.28,3.29,3.28,3.28,3.32,3.32,3.32,3.31,3.28,3.29,3.28,3.29,3.29,3.29,3.29,3.29,3.32,3.32,3.32,3.31,3.32,3.28,45.0,1.0,0.0,1.0,1.0,7192723,0.0,79.18999999999998,1405.0526584170061
1765225697766,0.0,0.0,1.0,10.0,0.0,0.0,0.0,0.0,0.0,0.0,0.0,0.0,0.0,0.0,0.0,0.0,-0.024156,-0.077836,0.990762,-0.49000000000000005,0.35000000000000003,0.0,31.08984375,3.29,3.32,3.31,3.3,3.28,3.29,3.28,3.28,3.32,3.32,3.32,3.31,3.28,3.29,3.28,3.29,3.29,3.29,3.29,3.29,3.32,3.32,3.32,3.31,3.32,3.28,45.0,1.0,0.0,1.0,1.0,7192740,0.0,79.18999999999998,1405.0526584170061
1765225697782,0.0,0.0,1.0,10.0,0.0,0.0,0.0,0.0,0.0,0.0,0.0,0.0,0.0,0.0,0.0,0.0,-0.024156,-0.077836,0.990762,-0.49000000000000005,0.35000000000000003,0.0,31.08984375,3.29,3.32,3.31,3.3,3.28,3.29,3.28,3.28,3.32,3.32,3.32,3.31,3.28,3.29,3.28,3.29,3.29,3.29,3.29,3.29,3.32,3.32,3.32,3.31,3.32,3.28,45.0,1.0,0.0,1.0,1.0,7192756,0.0,79.18999999999998,1405.0526584170061
1765225697799,0.0,0.0,1.0,10.0,0.0,0.0,0.0,0.0,0.0,0.0,0.0,0.0,0.0,0.0,0.0,0.0,-0.024156,-0.077836,0.990762,-0.49000000000000005,0.35000000000000003,0.0,31.08984375,3.29,3.32,3.31,3.3,3.28,3.29,3.28,3.28,3.32,3.32,3.32,3.31,3.28,3.29,3.28,3.29,3.29,3.29,3.29,3.29,3.32,3.32,3.32,3.31,3.32,3.28,45.0,1.0,0.0,1.0,1.0,7192773,0.0,79.18999999999998,1405.0526584170061
1765225697816,0.0,0.0,1.0,10.0,0.0,0.0,0.0,0.0,0.0,0.0,0.0,0.0,0.0,0.0,0.0,0.0,-0.024156,-0.077836,0.990762,-0.49000000000000005,0.35000000000000003,0.0,31.0859375,3.29,3.32,3.31,3.3,3.28,3.29,3.28,3.28,3.32,3.32,3.32,3.31,3.28,3.29,3.28,3.29,3.29,3.29,3.29,3.29,3.32,3.32,3.32,3.31,3.32,3.28,45.0,1.0,0.0,1.0,1.0,7192790,0.0,79.18999999999998,1405.0526584170061
1765225697832,0.0,0.0,1.0,10.0,0.0,0.0,0.0,0.0,0.0,0.0,0.0,0.0,0.0,0.0,0.0,0.0,-0.024156,-0.077836,0.990762,-0.49000000000000005,0.35000000000000003,0.0,31.0859375,3.29,3.32,3.31,3.3,3.28,3.29,3.28,3.28,3.32,3.32,3.32,3.31,3.28,3.29,3.28,3.29,3.29,3.29,3.29,3.29,3.32,3.32,3.32,3.31,3.32,3.28,45.0,1.0,0.0,1.0,1.0,7192806,0.0,79.18999999999998,1405.0526584170061
1765225697883,0.0,0.0,1.0,10.0,0.0,0.0,0.0,0.0,0.0,0.0,0.0,0.0,0.0,0.0,0.0,0.0,-0.024156,-0.077836,0.990762,-0.49000000000000005,0.35000000000000003,0.0,31.0859375,3.29,3.32,3.31,3.3,3.28,3.29,3.28,3.28,3.32,3.32,3.32,3.31,3.28,3.29,3.28,3.29,3.29,3.29,3.29,3.29,3.32,3.32,3.32,3.31,3.32,3.28,45.0,1.0,0.0,1.0,1.0,7192857,0.0,79.18999999999998,1405.0526584170061
1765225697950,0.0,0.0,1.0,10.0,0.0,0.0,0.0,0.0,0.0,0.0,0.0,0.0,0.0,0.0,0.0,0.0,-0.02318,-0.07442,0.989542,-0.49000000000000005,0.35000000000000003,0.0,31.0859375,3.29,3.32,3.31,3.3,3.28,3.29,3.28,3.28,3.32,3.32,3.32,3.31,3.28,3.29,3.28,3.29,3.29,3.29,3.29,3.29,3.32,3.32,3.32,3.31,3.32,3.28,45.0,1.0,0.0,1.0,1.0,7192924,0.0,79.18999999999998,1405.0526584170061
1765225697966,0.0,0.0,1.0,10.0,0.0,0.0,0.0,0.0,0.0,0.0,0.0,0.0,0.0,0.0,0.0,0.0,-0.02318,-0.07442,0.989542,-0.6300000000000001,0.35000000000000003,0.0,31.0859375,3.29,3.32,3.31,3.3,3.28,3.29,3.28,3.28,3.32,3.32,3.32,3.31,3.28,3.29,3.28,3.29,3.29,3.29,3.29,3.29,3.32,3.32,3.32,3.31,3.32,3.28,45.0,1.0,0.0,1.0,1.0,7192940,0.0,79.18999999999998,1405.0526584170061
1765225697983,0.0,0.0,1.0,10.0,0.0,0.0,0.0,0.0,0.0,0.0,0.0,0.0,0.0,0.0,0.0,0.0,-0.02318,-0.07442,0.989542,-0.6300000000000001,0.35000000000000003,0.0,31.078125,3.29,3.32,3.31,3.3,3.28,3.29,3.28,3.28,3.32,3.32,3.32,3.31,3.28,3.29,3.28,3.29,3.29,3.29,3.29,3.29,3.32,3.32,3.32,3.31,3.32,3.28,45.0,1.0,0.0,1.0,1.0,7192957,0.0,79.18999999999998,1405.0526584170061
1765225698016,0.0,0.0,1.0,10.0,0.0,0.0,0.0,0.0,0.0,0.0,0.0,0.0,0.0,0.0,0.0,0.0,-0.02318,-0.07442,0.989542,-0.6300000000000001,0.35000000000000003,0.0,31.078125,3.29,3.32,3.31,3.3,3.28,3.29,3.28,3.28,3.32,3.32,3.32,3.31,3.28,3.29,3.28,3.29,3.29,3.29,3.29,3.29,3.32,3.32,3.32,3.31,3.32,3.28,45.0,1.0,0.0,1.0,1.0,7192990,0.0,79.18999999999998,1405.0526584170061
1765225698036,0.0,0.0,1.0,10.0,0.0,0.0,0.0,0.0,0.0,0.0,0.0,0.0,0.0,0.0,0.0,0.0,-0.023058,-0.077836,0.990884,-0.6300000000000001,0.35000000000000003,0.0,31.078125,3.29,3.32,3.31,3.3,3.28,3.29,3.28,3.28,3.32,3.32,3.32,3.31,3.28,3.29,3.28,3.29,3.29,3.29,3.29,3.29,3.32,3.32,3.32,3.31,3.32,3.28,45.0,1.0,0.0,1.0,1.0,7193010,0.0,79.18999999999998,1405.0526584170061
1765225698052,0.0,0.0,1.0,10.0,0.0,0.0,0.0,0.0,0.0,0.0,0.0,0.0,0.0,0.0,0.0,0.0,-0.023058,-0.077836,0.990884,-0.6300000000000001,0.35000000000000003,0.0,31.078125,3.29,3.32,3.31,3.3,3.28,3.29,3.28,3.28,3.32,3.32,3.32,3.31,3.28,3.29,3.28,3.29,3.29,3.29,3.29,3.29,3.32,3.32,3.32,3.31,3.32,3.28,45.0,1.0,0.0,1.0,1.0,7193026,0.0,79.18999999999998,1405.0526584170061
1765225698069,0.0,0.0,1.0,10.0,0.0,0.0,0.0,0.0,0.0,0.0,0.0,0.0,0.0,0.0,0.0,0.0,-0.023058,-0.077836,0.990884,-0.6300000000000001,0.35000000000000003,0.0,31.078125,3.29,3.32,3.31,3.3,3.28,3.29,3.28,3.28,3.32,3.32,3.32,3.31,3.28,3.29,3.28,3.29,3.29,3.29,3.29,3.29,3.32,3.32,3.32,3.31,3.32,3.28,45.0,1.0,0.0,1.0,1.0,7193043,0.0,79.18999999999998,1405.0526584170061
1765225698100,0.0,0.0,1.0,10.0,0.0,0.0,0.0,0.0,0.0,0.0,0.0,0.0,0.0,0.0,0.0,0.0,-0.023058,-0.077836,0.990884,-0.6300000000000001,0.35000000000000003,0.0,31.078125,3.29,3.32,3.31,3.3,3.28,3.29,3.28,3.28,3.32,3.32,3.32,3.31,3.28,3.29,3.28,3.29,3.29,3.29,3.29,3.29,3.32,3.32,3.32,3.31,3.32,3.28,45.0,1.0,0.0,1.0,1.0,7193074,0.0,79.18999999999998,1405.0526584170061
1765225698115,0.0,0.0,1.0,10.0,0.0,0.0,0.0,0.0,0.0,0.0,0.0,0.0,0.0,0.0,0.0,0.0,-0.023058,-0.077836,0.990884,-0.7000000000000001,0.28,-0.07,31.078125,3.29,3.32,3.31,3.3,3.28,3.29,3.28,3.28,3.32,3.32,3.32,3.31,3.28,3.29,3.28,3.29,3.29,3.29,3.29,3.29,3.32,3.32,3.32,3.31,3.32,3.28,45.0,1.0,0.0,1.0,1.0,7193089,0.0,79.18999999999998,1405.0526584170061
1765225698150,0.0,0.0,1.0,10.0,0.0,0.0,0.0,0.0,0.0,0.0,0.0,0.0,0.0,0.0,0.0,0.0,-0.023058,-0.077836,0.990884,-0.7000000000000001,0.28,-0.07,31.08984375,3.29,3.32,3.31,3.3,3.28,3.29,3.28,3.28,3.32,3.32,3.32,3.31,3.28,3.29,3.28,3.29,3.29,3.29,3.29,3.29,3.32,3.32,3.32,3.31,3.32,3.28,45.0,1.0,0.0,1.0,1.0,7193124,0.0,79.18999999999998,1405.0526584170061
1765225698166,0.0,0.0,1.0,10.0,0.0,0.0,0.0,0.0,0.0,0.0,0.0,0.0,0.0,0.0,0.0,0.0,-0.023058,-0.077836,0.990884,-0.7000000000000001,0.28,-0.07,31.08984375,3.29,3.32,3.31,3.3,3.28,3.29,3.28,3.28,3.32,3.32,3.32,3.31,3.28,3.29,3.28,3.29,3.29,3.29,3.29,3.29,3.32,3.32,3.32,3.31,3.32,3.28,45.0,1.0,0.0,1.0,1.0,7193140,0.0,79.18999999999998,1405.0526584170061
1765225698233,0.0,0.0,1.0,10.0,0.0,0.0,0.0,0.0,0.0,0.0,0.0,0.0,0.0,0.0,0.0,0.0,-0.024888,-0.080764,0.988444,-0.7000000000000001,0.28,-0.07,31.08984375,3.29,3.32,3.31,3.3,3.28,3.29,3.28,3.28,3.32,3.32,3.32,3.31,3.28,3.29,3.28,3.29,3.29,3.29,3.29,3.29,3.32,3.32,3.32,3.31,3.32,3.28,45.0,1.0,0.0,1.0,1.0,7193207,0.0,79.18999999999998,1405.0526584170061
1765225698269,0.0,0.0,1.0,10.0,0.0,0.0,0.0,0.0,0.0,0.0,0.0,0.0,0.0,0.0,0.0,0.0,-0.024888,-0.080764,0.988444,-0.56,0.28,-0.14,31.10546875,3.29,3.32,3.31,3.3,3.28,3.29,3.28,3.28,3.32,3.32,3.32,3.31,3.28,3.29,3.28,3.29,3.29,3.29,3.29,3.29,3.32,3.32,3.32,3.31,3.32,3.28,45.0,1.0,0.0,1.0,1.0,7193243,0.0,79.18999999999998,1405.0526584170061
1765225698283,0.0,0.0,1.0,10.0,0.0,0.0,0.0,0.0,0.0,0.0,0.0,0.0,0.0,0.0,0.0,0.0,-0.024888,-0.080764,0.988444,-0.56,0.28,-0.14,31.10546875,3.29,3.32,3.31,3.29,3.28,3.29,3.28,3.28,3.32,3.32,3.32,3.31,3.28,3.29,3.28,3.29,3.29,3.29,3.29,3.29,3.32,3.32,3.32,3.31,3.32,3.28,45.0,1.0,0.0,1.0,1.0,7193257,0.0,79.17999999999999,1405.0526584170061
1765225698300,0.0,0.0,1.0,10.0,0.0,0.0,0.0,0.0,0.0,0.0,0.0,0.0,0.0,0.0,0.0,0.0,-0.024888,-0.080764,0.988444,-0.56,0.28,-0.14,31.10546875,3.29,3.32,3.31,3.29,3.28,3.29,3.28,3.28,3.32,3.32,3.32,3.31,3.28,3.29,3.28,3.29,3.29,3.29,3.29,3.29,3.32,3.32,3.32,3.31,3.32,3.28,45.0,1.0,0.0,1.0,1.0,7193274,0.0,79.17999999999999,1405.0526584170061
1765225698316,0.0,0.0,1.0,10.0,0.0,0.0,0.0,0.0,0.0,0.0,0.0,0.0,0.0,0.0,0.0,0.0,-0.024888,-0.080764,0.988444,-0.56,0.28,-0.14,31.10546875,3.29,3.32,3.31,3.29,3.28,3.29,3.28,3.28,3.32,3.32,3.32,3.31,3.28,3.29,3.28,3.29,3.29,3.29,3.29,3.29,3.32,3.32,3.32,3.31,3.32,3.28,45.0,1.0,0.0,1.0,1.0,7193290,0.0,79.17999999999999,1405.0526584170061
1765225698332,0.0,0.0,1.0,10.0,0.0,0.0,0.0,0.0,0.0,0.0,0.0,0.0,0.0,0.0,0.0,0.0,-0.024888,-0.080764,0.988444,-0.56,0.28,-0.14,31.10546875,3.29,3.32,3.31,3.29,3.28,3.29,3.28,3.28,3.32,3.32,3.32,3.31,3.28,3.29,3.28,3.29,3.29,3.29,3.29,3.29,3.32,3.32,3.32,3.31,3.32,3.28,45.0,1.0,0.0,1.0,1.0,7193306,0.0,79.17999999999999,1405.0526584170061
1765225698350,0.0,0.0,1.0,10.0,0.0,0.0,0.0,0.0,0.0,0.0,0.0,0.0,0.0,0.0,0.0,0.0,-0.024888,-0.080764,0.988444,-0.56,0.28,-0.14,31.10546875,3.29,3.32,3.31,3.29,3.28,3.29,3.28,3.28,3.32,3.32,3.32,3.31,3.28,3.29,3.28,3.29,3.29,3.29,3.29,3.29,3.32,3.32,3.32,3.31,3.32,3.28,45.0,1.0,0.0,1.0,1.0,7193324,0.0,79.17999999999999,1405.0526584170061
1765225698367,0.0,0.0,1.0,10.0,0.0,0.0,0.0,0.0,0.0,0.0,0.0,0.0,0.0,0.0,0.0,0.0,-0.024888,-0.080764,0.988444,-0.56,0.28,-0.14,31.10546875,3.29,3.32,3.31,3.29,3.28,3.29,3.28,3.28,3.32,3.32,3.32,3.31,3.28,3.29,3.28,3.29,3.29,3.29,3.29,3.29,3.32,3.32,3.32,3.31,3.32,3.28,45.0,1.0,0.0,1.0,1.0,7193341,0.0,79.17999999999999,1405.0526584170061
1765225698383,0.0,0.0,1.0,10.0,0.0,0.0,0.0,0.0,0.0,0.0,0.0,0.0,0.0,0.0,0.0,0.0,-0.024888,-0.080764,0.988444,-0.56,0.28,-0.14,31.10546875,3.29,3.32,3.31,3.29,3.28,3.29,3.28,3.28,3.32,3.32,3.32,3.31,3.28,3.29,3.28,3.29,3.29,3.29,3.29,3.29,3.32,3.32,3.32,3.31,3.32,3.28,45.0,1.0,0.0,1.0,1.0,7193357,0.0,79.17999999999999,1405.0526584170061
1765225698401,0.0,0.0,1.0,10.0,0.0,0.0,0.0,0.0,0.0,0.0,0.0,0.0,0.0,0.0,0.0,0.0,-0.024888,-0.080764,0.988444,-0.56,0.28,-0.14,31.10546875,3.29,3.32,3.31,3.29,3.28,3.29,3.28,3.28,3.32,3.32,3.32,3.31,3.28,3.29,3.28,3.29,3.29,3.29,3.29,3.29,3.32,3.32,3.32,3.31,3.32,3.28,45.0,1.0,0.0,1.0,1.0,7193375,0.0,79.17999999999999,1405.0526584170061
1765225698417,0.0,0.0,1.0,10.0,0.0,0.0,0.0,0.0,0.0,0.0,0.0,0.0,0.0,0.0,0.0,0.0,-0.024888,-0.080764,0.988444,-0.56,0.28,-0.14,31.10546875,3.29,3.32,3.31,3.29,3.28,3.29,3.28,3.28,3.32,3.32,3.32,3.31,3.28,3.29,3.28,3.29,3.29,3.29,3.29,3.29,3.32,3.32,3.32,3.31,3.32,3.28,45.0,1.0,0.0,1.0,1.0,7193391,0.0,79.17999999999999,1405.0526584170061
1765225698433,0.0,0.0,1.0,10.0,0.0,0.0,0.0,0.0,0.0,0.0,0.0,0.0,0.0,0.0,0.0,0.0,-0.024888,-0.080764,0.988444,-0.56,0.28,-0.14,31.10546875,3.29,3.32,3.31,3.29,3.28,3.29,3.28,3.28,3.32,3.32,3.32,3.31,3.28,3.29,3.28,3.29,3.29,3.29,3.29,3.29,3.32,3.32,3.32,3.31,3.32,3.28,45.0,1.0,0.0,1.0,1.0,7193407,0.0,79.17999999999999,1405.0526584170061
1765225698450,0.0,0.0,1.0,10.0,0.0,0.0,0.0,0.0,0.0,0.0,0.0,0.0,0.0,0.0,0.0,0.0,-0.024888,-0.080764,0.988444,-0.56,0.28,-0.14,31.10546875,3.29,3.32,3.31,3.29,3.28,3.29,3.28,3.28,3.32,3.32,3.32,3.31,3.28,3.29,3.28,3.29,3.29,3.29,3.29,3.29,3.32,3.32,3.32,3.31,3.32,3.28,45.0,1.0,0.0,1.0,1.0,7193424,0.0,79.17999999999999,1405.0526584170061
1765225698466,0.0,0.0,1.0,10.0,0.0,0.0,0.0,0.0,0.0,0.0,0.0,0.0,0.0,0.0,0.0,0.0,-0.024888,-0.080764,0.988444,-0.56,0.28,-0.14,31.10546875,3.29,3.32,3.31,3.29,3.28,3.29,3.28,3.28,3.32,3.32,3.32,3.31,3.28,3.29,3.28,3.29,3.29,3.29,3.29,3.29,3.32,3.32,3.32,3.31,3.32,3.28,45.0,1.0,0.0,1.0,1.0,7193440,0.0,79.17999999999999,1405.0526584170061
1765225698483,0.0,0.0,1.0,10.0,0.0,0.0,0.0,0.0,0.0,0.0,0.0,0.0,0.0,0.0,0.0,0.0,-0.024888,-0.080764,0.988444,-0.56,0.28,-0.14,31.10546875,3.29,3.32,3.31,3.29,3.28,3.29,3.28,3.28,3.32,3.32,3.32,3.31,3.28,3.29,3.28,3.29,3.29,3.29,3.29,3.29,3.32,3.32,3.32,3.31,3.32,3.28,45.0,1.0,0.0,1.0,1.0,7193457,0.0,79.17999999999999,1405.0526584170061
1765225698516,0.0,0.0,1.0,10.0,0.0,0.0,0.0,0.0,0.0,0.0,0.0,0.0,0.0,0.0,0.0,0.0,-0.024888,-0.080764,0.988444,-0.56,0.28,-0.14,31.10546875,3.29,3.32,3.31,3.29,3.28,3.29,3.28,3.28,3.32,3.32,3.32,3.31,3.28,3.29,3.28,3.29,3.29,3.29,3.29,3.29,3.32,3.32,3.32,3.31,3.32,3.28,45.0,1.0,0.0,1.0,1.0,7193490,0.0,79.17999999999999,1405.0526584170061
1765225698550,0.0,0.0,1.0,10.0,0.0,0.0,0.0,0.0,0.0,0.0,0.0,0.0,0.0,0.0,0.0,0.0,-0.024888,-0.080764,0.988444,-0.56,0.28,-0.14,31.10546875,3.29,3.32,3.31,3.29,3.28,3.29,3.28,3.28,3.32,3.32,3.32,3.31,3.28,3.29,3.28,3.29,3.29,3.29,3.29,3.29,3.32,3.32,3.32,3.31,3.32,3.28,45.0,1.0,0.0,1.0,1.0,7193524,0.0,79.17999999999999,1405.0526584170061
1765225698566,0.0,0.0,1.0,10.0,0.0,0.0,0.0,0.0,0.0,0.0,0.0,0.0,0.0,0.0,0.0,0.0,-0.024888,-0.080764,0.988444,-0.56,0.28,-0.14,31.10546875,3.29,3.32,3.31,3.29,3.28,3.29,3.28,3.28,3.32,3.32,3.32,3.31,3.28,3.29,3.28,3.29,3.29,3.29,3.29,3.29,3.32,3.32,3.32,3.31,3.32,3.28,45.0,1.0,0.0,1.0,1.0,7193540,0.0,79.17999999999999,1405.0526584170061
1765225698619,0.0,0.0,1.0,10.0,0.0,0.0,0.0,0.0,0.0,0.0,0.0,0.0,0.0,0.0,0.0,0.0,-0.024888,-0.080764,0.988444,-0.56,0.28,-0.14,31.10546875,3.29,3.32,3.31,3.29,3.28,3.29,3.28,3.28,3.32,3.32,3.32,3.31,3.28,3.29,3.28,3.29,3.29,3.29,3.29,3.29,3.32,3.32,3.32,3.31,3.32,3.28,45.0,1.0,0.0,1.0,1.0,7193593,0.0,79.17999999999999,1405.0526584170061
1765225698683,0.0,0.0,1.0,10.0,0.0,0.0,0.0,0.0,0.0,0.0,0.0,0.0,0.0,0.0,0.0,0.0,-0.025863999999999998,-0.078446,0.986126,-0.56,0.28,-0.14,31.10546875,3.29,3.32,3.31,3.29,3.28,3.29,3.28,3.28,3.32,3.32,3.32,3.31,3.28,3.29,3.28,3.29,3.29,3.29,3.29,3.29,3.32,3.32,3.32,3.31,3.32,3.28,45.0,1.0,0.0,1.0,1.0,7193657,0.0,79.17999999999999,1405.0526584170061
1765225698698,0.0,0.0,1.0,10.0,0.0,0.0,0.0,0.0,0.0,0.0,0.0,0.0,0.0,0.0,0.0,0.0,-0.025863999999999998,-0.078446,0.986126,-0.6300000000000001,0.35000000000000003,-0.07,31.10546875,3.29,3.32,3.31,3.29,3.28,3.29,3.28,3.28,3.32,3.32,3.32,3.31,3.28,3.29,3.28,3.29,3.29,3.29,3.29,3.29,3.32,3.32,3.32,3.31,3.32,3.28,45.0,1.0,0.0,1.0,1.0,7193672,0.0,79.17999999999999,1405.0526584170061
1765225698715,0.0,0.0,1.0,10.0,0.0,0.0,0.0,0.0,0.0,0.0,0.0,0.0,0.0,0.0,0.0,0.0,-0.025863999999999998,-0.078446,0.986126,-0.6300000000000001,0.35000000000000003,-0.07,31.09765625,3.29,3.32,3.31,3.29,3.28,3.29,3.28,3.28,3.32,3.32,3.32,3.31,3.28,3.29,3.28,3.29,3.29,3.29,3.29,3.29,3.32,3.32,3.32,3.31,3.32,3.28,45.0,1.0,0.0,1.0,1.0,7193689,0.0,79.17999999999999,1405.0526584170061
1765225698750,0.0,0.0,1.0,10.0,0.0,0.0,0.0,0.0,0.0,0.0,0.0,0.0,0.0,0.0,0.0,0.0,-0.023424,-0.076616,0.991128,-0.6300000000000001,0.35000000000000003,-0.07,31.09765625,3.29,3.32,3.31,3.29,3.28,3.29,3.28,3.28,3.32,3.32,3.32,3.31,3.28,3.29,3.28,3.29,3.29,3.29,3.29,3.29,3.32,3.32,3.32,3.31,3.32,3.28,45.0,1.0,0.0,1.0,1.0,7193724,0.0,79.17999999999999,1405.0526584170061
1765225698766,0.0,0.0,1.0,10.0,0.0,0.0,0.0,0.0,0.0,0.0,0.0,0.0,0.0,0.0,0.0,0.0,-0.023424,-0.076616,0.991128,-0.6300000000000001,0.35000000000000003,-0.07,31.09765625,3.29,3.32,3.31,3.29,3.28,3.29,3.28,3.28,3.32,3.32,3.32,3.31,3.28,3.29,3.28,3.29,3.29,3.29,3.29,3.29,3.32,3.32,3.32,3.31,3.32,3.28,45.0,1.0,0.0,1.0,1.0,7193740,0.0,79.17999999999999,1405.0526584170061
1765225698784,0.0,0.0,1.0,10.0,0.0,0.0,0.0,0.0,0.0,0.0,0.0,0.0,0.0,0.0,0.0,0.0,-0.023424,-0.076616,0.991128,-0.6300000000000001,0.35000000000000003,-0.07,31.09765625,3.29,3.32,3.31,3.29,3.28,3.29,3.28,3.28,3.32,3.32,3.32,3.31,3.28,3.29,3.28,3.29,3.29,3.29,3.29,3.29,3.32,3.32,3.32,3.31,3.32,3.28,45.0,1.0,0.0,1.0,1.0,7193758,0.0,79.17999999999999,1405.0526584170061
1765225698800,0.0,0.0,1.0,10.0,0.0,0.0,0.0,0.0,0.0,0.0,0.0,0.0,0.0,0.0,0.0,0.0,-0.023424,-0.076616,0.991128,-0.6300000000000001,0.35000000000000003,-0.07,31.09765625,3.29,3.32,3.31,3.29,3.28,3.29,3.28,3.28,3.32,3.32,3.32,3.31,3.28,3.29,3.28,3.29,3.29,3.29,3.29,3.29,3.32,3.32,3.32,3.31,3.32,3.28,45.0,1.0,0.0,1.0,1.0,7193774,0.0,79.17999999999999,1405.0526584170061
1765225698818,0.0,0.0,1.0,10.0,0.0,0.0,0.0,0.0,0.0,0.0,0.0,0.0,0.0,0.0,0.0,0.0,-0.023424,-0.076616,0.991128,-0.6300000000000001,0.42000000000000004,-0.07,31.09765625,3.29,3.32,3.31,3.29,3.28,3.29,3.28,3.28,3.32,3.32,3.32,3.31,3.28,3.29,3.28,3.29,3.29,3.29,3.29,3.29,3.32,3.32,3.32,3.31,3.32,3.28,45.0,1.0,0.0,1.0,1.0,7193792,0.0,79.17999999999999,1405.0526584170061
1765225698835,0.0,0.0,1.0,10.0,0.0,0.0,0.0,0.0,0.0,0.0,0.0,0.0,0.0,0.0,0.0,0.0,-0.023424,-0.076616,0.991128,-0.6300000000000001,0.42000000000000004,-0.07,31.09765625,3.29,3.32,3.31,3.29,3.28,3.29,3.28,3.28,3.32,3.32,3.32,3.31,3.28,3.29,3.28,3.29,3.29,3.29,3.29,3.29,3.32,3.32,3.32,3.31,3.32,3.28,45.0,1.0,0.0,1.0,1.0,7193809,0.0,79.17999999999999,1405.0526584170061
1765225698867,0.0,0.0,1.0,10.0,0.0,0.0,0.0,0.0,0.0,0.0,0.0,0.0,0.0,0.0,0.0,0.0,-0.023424,-0.076616,0.991128,-0.6300000000000001,0.42000000000000004,-0.07,31.11328125,3.29,3.32,3.31,3.29,3.28,3.29,3.28,3.28,3.32,3.32,3.32,3.31,3.28,3.29,3.28,3.29,3.29,3.29,3.29,3.29,3.32,3.32,3.32,3.31,3.32,3.28,45.0,1.0,0.0,1.0,1.0,7193841,0.0,79.17999999999999,1405.0526584170061
1765225698901,0.0,0.0,1.0,10.0,0.0,0.0,0.0,0.0,0.0,0.0,0.0,0.0,0.0,0.0,0.0,0.0,-0.023424,-0.076616,0.991128,-0.6300000000000001,0.42000000000000004,-0.07,31.11328125,3.29,3.32,3.31,3.29,3.28,3.29,3.28,3.28,3.32,3.32,3.32,3.31,3.28,3.29,3.28,3.29,3.29,3.29,3.29,3.29,3.32,3.32,3.32,3.31,3.32,3.28,45.0,1.0,0.0,1.0,1.0,7193875,0.0,79.17999999999999,1405.0526584170061
1765225698981,0.0,0.0,1.0,10.0,0.0,0.0,0.0,0.0,0.0,0.0,0.0,0.0,0.0,0.0,0.0,0.0,-0.023546,-0.078446,0.9903959999999999,-0.6300000000000001,0.42000000000000004,-0.07,31.11328125,3.29,3.32,3.31,3.29,3.28,3.29,3.28,3.28,3.32,3.32,3.32,3.31,3.28,3.29,3.28,3.29,3.29,3.29,3.29,3.29,3.32,3.32,3.32,3.31,3.32,3.28,45.0,1.0,0.0,1.0,1.0,7193955,0.0,79.17999999999999,1405.0526584170061
1765225698999,0.0,0.0,1.0,10.0,0.0,0.0,0.0,0.0,0.0,0.0,0.0,0.0,0.0,0.0,0.0,0.0,-0.023546,-0.078446,0.9903959999999999,-0.56,0.35000000000000003,0.0,31.11328125,3.29,3.32,3.31,3.29,3.28,3.29,3.28,3.28,3.32,3.32,3.32,3.31,3.28,3.29,3.28,3.29,3.29,3.29,3.29,3.29,3.32,3.32,3.32,3.31,3.32,3.28,45.0,1.0,0.0,1.0,1.0,7193973,0.0,79.17999999999999,1405.0526584170061
1765225699034,0.0,0.0,1.0,10.0,0.0,0.0,0.0,0.0,0.0,0.0,0.0,0.0,0.0,0.0,0.0,0.0,-0.023546,-0.078446,0.9903959999999999,-0.56,0.35000000000000003,0.0,31.11328125,3.29,3.32,3.31,3.29,3.28,3.29,3.28,3.28,3.32,3.32,3.32,3.31,3.28,3.29,3.28,3.29,3.29,3.29,3.29,3.29,3.32,3.32,3.32,3.31,3.32,3.28,45.0,1.0,0.0,1.0,1.0,7194008,0.0,79.17999999999999,1405.0526584170061
1765225699051,0.0,0.0,1.0,10.0,0.0,0.0,0.0,0.0,0.0,0.0,0.0,0.0,0.0,0.0,0.0,0.0,-0.023546,-0.078446,0.9903959999999999,-0.56,0.35000000000000003,0.0,31.10546875,3.29,3.32,3.31,3.29,3.28,3.29,3.28,3.28,3.32,3.32,3.32,3.31,3.28,3.29,3.28,3.29,3.29,3.29,3.29,3.29,3.32,3.32,3.32,3.31,3.32,3.28,45.0,1.0,0.0,1.0,1.0,7194025,0.0,79.17999999999999,1405.0526584170061
1765225699133,0.0,0.0,1.0,10.0,0.0,0.0,0.0,0.0,0.0,0.0,0.0,0.0,0.0,0.0,0.0,0.0,-0.027816,-0.07564,0.99064,-0.56,0.28,0.07,31.10546875,3.29,3.32,3.31,3.29,3.28,3.29,3.28,3.28,3.32,3.32,3.32,3.31,3.28,3.29,3.28,3.29,3.29,3.29,3.29,3.29,3.32,3.32,3.32,3.31,3.32,3.28,45.0,1.0,0.0,1.0,1.0,7194107,0.0,79.17999999999999,1405.0526584170061
1765225699150,0.0,0.0,1.0,10.0,0.0,0.0,0.0,0.0,0.0,0.0,0.0,0.0,0.0,0.0,0.0,0.0,-0.027816,-0.07564,0.99064,-0.56,0.28,0.07,31.08984375,3.29,3.32,3.31,3.29,3.28,3.29,3.28,3.28,3.32,3.32,3.32,3.31,3.28,3.29,3.28,3.29,3.29,3.29,3.29,3.29,3.32,3.32,3.32,3.31,3.32,3.28,45.0,1.0,0.0,1.0,1.0,7194124,0.0,79.17999999999999,1405.0526584170061
1765225699183,0.0,0.0,1.0,10.0,0.0,0.0,0.0,0.0,0.0,0.0,0.0,0.0,0.0,0.0,0.0,0.0,-0.027816,-0.07564,0.99064,-0.56,0.28,0.07,31.08984375,3.29,3.32,3.31,3.29,3.28,3.29,3.28,3.28,3.32,3.32,3.32,3.31,3.28,3.29,3.28,3.29,3.29,3.29,3.29,3.29,3.32,3.32,3.32,3.31,3.32,3.28,45.0,1.0,0.0,1.0,1.0,7194157,0.0,79.17999999999999,1405.0526584170061
1765225699200,0.0,0.0,1.0,10.0,0.0,0.0,0.0,0.0,0.0,0.0,0.0,0.0,0.0,0.0,0.0,0.0,-0.027816,-0.07564,0.99064,-0.56,0.28,0.07,31.08984375,3.29,3.32,3.31,3.29,3.28,3.29,3.28,3.28,3.32,3.32,3.32,3.31,3.28,3.29,3.28,3.29,3.29,3.29,3.29,3.29,3.32,3.32,3.32,3.31,3.32,3.28,45.0,1.0,0.0,1.0,1.0,7194174,0.0,79.17999999999999,1405.0526584170061
1765225699217,0.0,0.0,1.0,10.0,0.0,0.0,0.0,0.0,0.0,0.0,0.0,0.0,0.0,0.0,0.0,0.0,-0.027816,-0.07564,0.99064,-0.56,0.28,0.07,31.08984375,3.29,3.32,3.31,3.29,3.28,3.29,3.28,3.28,3.32,3.32,3.32,3.31,3.28,3.29,3.28,3.29,3.29,3.29,3.29,3.29,3.32,3.32,3.32,3.31,3.32,3.28,45.0,1.0,0.0,1.0,1.0,7194191,0.0,79.17999999999999,1405.0526584170061
1765225699249,0.0,0.0,1.0,10.0,0.0,0.0,0.0,0.0,0.0,0.0,0.0,0.0,0.0,0.0,0.0,0.0,-0.027816,-0.07564,0.99064,-0.56,0.28,0.07,31.08984375,3.29,3.32,3.31,3.29,3.28,3.29,3.28,3.28,3.32,3.32,3.32,3.31,3.28,3.29,3.28,3.29,3.29,3.29,3.29,3.29,3.32,3.32,3.32,3.31,3.32,3.28,45.0,1.0,0.0,1.0,1.0,7194223,0.0,79.17999999999999,1405.0526584170061
1765225699284,0.0,0.0,1.0,10.0,0.0,0.0,0.0,0.0,0.0,0.0,0.0,0.0,0.0,0.0,0.0,0.0,-0.027572,-0.077836,0.988932,-0.56,0.28,0.07,31.08984375,3.29,3.32,3.31,3.29,3.28,3.29,3.28,3.28,3.32,3.32,3.32,3.31,3.28,3.29,3.28,3.29,3.29,3.29,3.29,3.29,3.32,3.32,3.32,3.31,3.32,3.28,45.0,1.0,0.0,1.0,1.0,7194258,0.0,79.17999999999999,1405.0526584170061
1765225699316,0.0,0.0,1.0,10.0,0.0,0.0,0.0,0.0,0.0,0.0,0.0,0.0,0.0,0.0,0.0,0.0,-0.027572,-0.077836,0.988932,-0.56,0.28,0.07,31.08984375,3.29,3.32,3.31,3.29,3.28,3.29,3.28,3.28,3.32,3.32,3.32,3.31,3.28,3.29,3.28,3.29,3.29,3.29,3.29,3.29,3.32,3.32,3.32,3.31,3.32,3.28,45.0,1.0,0.0,1.0,1.0,7194290,0.0,79.17999999999999,1405.0526584170061
1765225699334,0.0,0.0,1.0,10.0,0.0,0.0,0.0,0.0,0.0,0.0,0.0,0.0,0.0,0.0,0.0,0.0,-0.027572,-0.077836,0.988932,-0.6300000000000001,0.35000000000000003,0.0,31.08984375,3.29,3.32,3.31,3.29,3.28,3.29,3.28,3.28,3.32,3.32,3.32,3.31,3.28,3.29,3.28,3.29,3.29,3.29,3.29,3.29,3.32,3.32,3.32,3.31,3.32,3.28,45.0,1.0,0.0,1.0,1.0,7194308,0.0,79.17999999999999,1405.0526584170061
1765225699350,0.0,0.0,1.0,10.0,0.0,0.0,0.0,0.0,0.0,0.0,0.0,0.0,0.0,0.0,0.0,0.0,-0.027572,-0.077836,0.988932,-0.6300000000000001,0.35000000000000003,0.0,31.08984375,3.29,3.32,3.31,3.29,3.28,3.29,3.28,3.28,3.32,3.32,3.32,3.31,3.28,3.29,3.28,3.29,3.29,3.29,3.29,3.29,3.32,3.32,3.32,3.31,3.32,3.28,46.0,1.0,0.0,1.0,1.0,7194324,0.0,79.17999999999999,1405.0526584170061
1765225699416,0.0,0.0,1.0,10.0,0.0,0.0,0.0,0.0,0.0,0.0,0.0,0.0,0.0,0.0,0.0,0.0,-0.027572,-0.077836,0.988932,-0.6300000000000001,0.35000000000000003,0.0,31.12890625,3.29,3.32,3.31,3.29,3.28,3.29,3.28,3.28,3.32,3.32,3.32,3.31,3.28,3.29,3.28,3.29,3.29,3.29,3.29,3.29,3.32,3.32,3.32,3.31,3.32,3.28,46.0,1.0,0.0,1.0,1.0,7194390,0.0,79.17999999999999,1405.0526584170061
1765225699449,0.0,0.0,1.0,10.0,0.0,0.0,0.0,0.0,0.0,0.0,0.0,0.0,0.0,0.0,0.0,0.0,-0.026718,-0.077592,0.990152,-0.6300000000000001,0.35000000000000003,0.0,31.12890625,3.29,3.32,3.31,3.29,3.28,3.29,3.28,3.28,3.32,3.32,3.32,3.31,3.28,3.29,3.28,3.29,3.29,3.29,3.29,3.29,3.32,3.32,3.32,3.31,3.32,3.28,46.0,1.0,0.0,1.0,1.0,7194423,0.0,79.17999999999999,1405.0526584170061
1765225699466,0.0,0.0,1.0,10.0,0.0,0.0,0.0,0.0,0.0,0.0,0.0,0.0,0.0,0.0,0.0,0.0,-0.026718,-0.077592,0.990152,-0.6300000000000001,0.21000000000000002,-0.07,31.12890625,3.29,3.32,3.31,3.29,3.28,3.29,3.28,3.28,3.32,3.32,3.32,3.31,3.28,3.29,3.28,3.29,3.29,3.29,3.29,3.29,3.32,3.32,3.32,3.31,3.32,3.28,46.0,1.0,0.0,1.0,1.0,7194440,0.0,79.17999999999999,1405.0526584170061
1765225699500,0.0,0.0,1.0,10.0,0.0,0.0,0.0,0.0,0.0,0.0,0.0,0.0,0.0,0.0,0.0,0.0,-0.026718,-0.077592,0.990152,-0.6300000000000001,0.21000000000000002,-0.07,31.08984375,3.29,3.32,3.31,3.29,3.28,3.29,3.28,3.28,3.32,3.32,3.32,3.31,3.28,3.29,3.28,3.29,3.29,3.29,3.29,3.29,3.32,3.32,3.32,3.31,3.32,3.28,46.0,1.0,0.0,1.0,1.0,7194474,0.0,79.17999999999999,1405.0526584170061
1765225699516,0.0,0.0,1.0,10.0,0.0,0.0,0.0,0.0,0.0,0.0,0.0,0.0,0.0,0.0,0.0,0.0,-0.026718,-0.077592,0.990152,-0.6300000000000001,0.21000000000000002,-0.07,31.08984375,3.29,3.32,3.31,3.29,3.28,3.29,3.28,3.28,3.32,3.32,3.32,3.31,3.28,3.29,3.28,3.29,3.29,3.29,3.29,3.29,3.32,3.32,3.32,3.31,3.32,3.28,46.0,1.0,0.0,1.0,1.0,7194490,0.0,79.17999999999999,1405.0526584170061
1765225699532,0.0,0.0,1.0,10.0,0.0,0.0,0.0,0.0,0.0,0.0,0.0,0.0,0.0,0.0,0.0,0.0,-0.026718,-0.077592,0.990152,-0.6300000000000001,0.21000000000000002,-0.07,31.08984375,3.29,3.32,3.31,3.29,3.28,3.29,3.28,3.28,3.32,3.32,3.32,3.31,3.28,3.29,3.28,3.29,3.29,3.29,3.29,3.29,3.32,3.32,3.32,3.31,3.32,3.28,46.0,1.0,0.0,1.0,1.0,7194506,0.0,79.17999999999999,1405.0526584170061
1765225699550,0.0,0.0,1.0,10.0,0.0,0.0,0.0,0.0,0.0,0.0,0.0,0.0,0.0,0.0,0.0,0.0,-0.026718,-0.077592,0.990152,-0.6300000000000001,0.21000000000000002,-0.07,31.08984375,3.29,3.32,3.31,3.29,3.28,3.29,3.28,3.28,3.32,3.32,3.32,3.31,3.28,3.29,3.28,3.29,3.29,3.29,3.29,3.29,3.32,3.32,3.32,3.31,3.32,3.28,46.0,1.0,0.0,1.0,1.0,7194524,0.0,79.17999999999999,1405.0526584170061
1765225699567,0.0,0.0,1.0,10.0,0.0,0.0,0.0,0.0,0.0,0.0,0.0,0.0,0.0,0.0,0.0,0.0,-0.026718,-0.077592,0.990152,-0.6300000000000001,0.21000000000000002,-0.07,31.08984375,3.29,3.32,3.31,3.29,3.28,3.29,3.28,3.28,3.32,3.32,3.32,3.31,3.28,3.29,3.28,3.29,3.29,3.29,3.29,3.29,3.32,3.32,3.32,3.31,3.32,3.28,46.0,1.0,0.0,1.0,1.0,7194541,0.0,79.17999999999999,1405.0526584170061
