timestamp,LATITUDE,LONGITUDE,ACCEL_LONGITUDINAL,ACCEL_LATERAL,ACCEL_NORMAL,VEL_ANGULAR_YAW,VEL_ANGULAR_PITCH,VEL_ANGULAR_ROLL,STACK_1_CELL_1_VOLTAGE,STACK_1_CELL_2_VOLTAGE,STACK_1_CELL_3_VOLTAGE,STACK_1_CELL_4_VOLTAGE,STACK_2_CELL_1_VOLTAGE,STACK_2_CELL_2_VOLTAGE,STACK_2_CELL_3_VOLTAGE,STACK_2_CELL_4_VOLTAGE,STACK_3_CELL_1_VOLTAGE,STACK_3_CELL_2_VOLTAGE,STACK_3_CELL_3_VOLTAGE,STACK_3_CELL_4_VOLTAGE,STACK_4_CELL_1_VOLTAGE,STACK_4_CELL_2_VOLTAGE,STACK_4_CELL_3_VOLTAGE,STACK_4_CELL_4_VOLTAGE,STACK_5_CELL_1_VOLTAGE,STACK_5_CELL_2_VOLTAGE,STACK_5_CELL_3_VOLTAGE,STACK_5_CELL_4_VOLTAGE,STACK_6_CELL_1_VOLTAGE,STACK_6_CELL_2_VOLTAGE,STACK_6_CELL_3_VOLTAGE,STACK_6_CELL_4_VOLTAGE,STACK_1_CELL_1_TEMPERATURE,STACK_1_CELL_2_TEMPERATURE,STACK_1_CELL_3_TEMPERATURE,STACK_1_CELL_4_TEMPERATURE,STACK_2_CELL_1_TEMPERATURE,STACK_2_CELL_2_TEMPERATURE,STACK_2_CELL_3_TEMPERATURE,STACK_2_CELL_4_TEMPERATURE,STACK_3_CELL_1_TEMPERATURE,STACK_3_CELL_2_TEMPERATURE,STACK_3_CELL_3_TEMPERATURE,STACK_3_CELL_4_TEMPERATURE,STACK_4_CELL_1_TEMPERATURE,STACK_4_CELL_2_TEMPERATURE,STACK_4_CELL_3_TEMPERATURE,STACK_4_CELL_4_TEMPERATURE,STACK_5_CELL_1_TEMPERATURE,STACK_5_CELL_2_TEMPERATURE,STACK_5_CELL_3_TEMPERATURE,STACK_5_CELL_4_TEMPERATURE,STACK_6_CELL_1_TEMPERATURE,STACK_6_CELL_2_TEMPERATURE,STACK_6_CELL_3_TEMPERATURE,STACK_6_CELL_4_TEMPERATURE,MAX_VOLTAGE,MIN_VOLTAGE,MAX_TEMPERATURE,ACUMULATOR_VOLTAGE,t
1780259510892,0,0,0.002196,-0.001586,-0.00366,-352.38000000000005,-30.520000000000003,503.2300000000001,0,0,0,0,0,0,0,0,0,0,0,0,0,0,0,0,0,0,0,0,0,0,0,0,0,0,0,0,0,0,0,0,0,0,0,0,0,0,0,0,0,0,0,0,0,0,0,0,0,0,0,0,0
1780259511048,-19.8728,0,0.002196,-0.001586,-0.00366,-352.38000000000005,-30.520000000000003,503.2300000000001,0,0,0,0,0,0,0,0,0,0,0,0,0,0,0,0,0,0,0,0,0,0,0,0,0,0,0,0,0,0,0,0,0,0,0,0,0,0,0,0,0,0,0,0,0,0,0,0,0,0,0,0,156
1780259511379,-19.8728,0,0.002196,-0.001586,-0.00366,-352.38000000000005,-30.520000000000003,503.2300000000001,0,0,0,0,0,0,0,0,0,0,0,0,0,0,0,0,0,0,0,0,0,0,0,0,0,0,0,0,0,0,0,0,0,0,0,0,0,0,0,0,0,0,0,0,0,0,0,0,0.0,6.55,0.0,0,487
1780259511612,-19.8728,0,-0.004392,-0.0075639999999999995,0.0,-352.38000000000005,-30.520000000000003,503.2300000000001,0,0,0,0,0,0,0,0,0,0,0,0,0,0,0,0,0,0,0,0,0,0,0,0,0,0,0,0,0,0,0,0,0,0,0,0,0,0,0,0,0,0,0,0,0,0,0,0,0.0,6.55,0.0,0,720
1780259511862,-19.8728,0,-0.004392,-0.0075639999999999995,0.0,-352.38000000000005,-30.520000000000003,503.2300000000001,0,0,0,0,0,0,0,0,0,0,0,0,0,0,0,0,0,0,0,0,0,0,0,0,0,0,0,0,0,0,0,0,0,0,0,0,0,0,0,0,0,0,0,0,0,0,0,0,0.0,6.55,0.0,0,970
1780259511996,-19.8728,0,0.878888,-0.0013419999999999999,0.0,-352.38000000000005,-30.520000000000003,503.2300000000001,0,0,0,0,0,0,0,0,0,0,0,0,0,0,0,0,0,0,0,0,0,0,0,0,0,0,0,0,0,0,0,0,0,0,0,0,0,0,0,0,0,0,0,0,0,0,0,0,0.0,6.55,0.0,0,1104
1780259512195,-19.8728,0,0.878888,-0.0013419999999999999,0.0,0.0,371.77000000000004,0.0,0,0,0,0,0,0,0,0,0,0,0,0,0,0,0,0,0,0,0,0,0,0,0,0,0,0,0,0,0,0,0,0,0,0,0,0,0,0,0,0,0,0,0,0,0,0,0,0,0.0,6.55,0.0,0,1303
1780259512329,-19.8728,0,0.878888,-0.0013419999999999999,0.0,-379.61,346.92,314.72,0,0,0,0,0,0,0,0,0,0,0,0,0,0,0,0,0,0,0,0,0,0,0,0,0,0,0,0,0,0,0,0,0,0,0,0,0,0,0,0,0,0,0,0,0,0,0,0,0.0,6.55,0.0,0,1437
1780259512396,-19.8728,0,0.878888,-0.0013419999999999999,0.0,-480.20000000000005,353.36,397.25000000000006,0,0,0,0,0,0,0,0,0,0,0,0,0,0,0,0,0,0,0,0,0,0,0,0,0,0,0,0,0,0,0,0,0,0,0,0,0,0,0,0,0,0,0,0,0,0,0,0,0.0,6.55,0.0,0,1504
1780259512613,-19.8728,0,0.001098,0.000488,0.002074,-480.20000000000005,353.36,397.25000000000006,0,0,0,0,0,0,0,0,0,0,0,0,0,0,0,0,0,0,0,0,0,0,0,0,0,0,0,0,0,0,0,0,0,0,0,0,0,0,0,0,0,0,0,0,0,0,0,0,0.0,6.55,0.0,0,1721
1780259512779,-19.8728,0,-0.000366,0.003538,-0.002562,-480.20000000000005,353.36,397.25000000000006,0,0,0,0,0,0,0,0,0,0,0,0,0,0,0,0,0,0,0,0,0,0,0,0,0,0,0,0,0,0,0,0,0,0,0,0,0,0,0,0,0,0,0,0,0,0,0,0,0.0,6.55,0.0,0,1887
1780259512979,-19.8728,-43.9747,-0.000366,0.003538,-0.002562,-480.20000000000005,353.36,397.25000000000006,0,0,0,0,0,0,0,0,0,0,0,0,0,0,0,0,0,0,0,0,0,0,0,0,0,0,0,0,0,0,0,0,0,0,0,0,0,0,0,0,0,0,0,0,0,0,0,0,0.0,6.55,0.0,0,2087
1780259513396,-19.8728,-43.9747,-0.00183,-0.00061,-0.001586,-480.20000000000005,353.36,397.25000000000006,0,0,0,0,0,0,0,0,0,0,0,0,0,0,0,0,0,0,0,0,0,0,0,0,0,0,0,0,0,0,0,0,0,0,0,0,0,0,0,0,0,0,0,0,0,0,0,0,0.0,6.55,0.0,0,2504
1780259513431,-19.8728,-43.9747,-0.00183,-0.00061,-0.001586,-480.20000000000005,353.36,397.25000000000006,0,0,0,0,0,0,0,0,0,0,0,0,0,0,0,0,0,0,0,0,0,0,0,0,0,0,0,0,0,0,0,0,0,0,0,0,0,0,0,0,0,0,0,0,0,0,0,0,0.0,6.55,0.0,0,2539
1780259513480,-19.8728,-43.9747,-0.00183,-0.00061,-0.001586,-480.20000000000005,353.36,397.25000000000006,0,0,0,0,0,0,0,0,0,0,0,0,0,0,0,0,0,0,0,0,0,0,0,0,0,0,0,0,0,0,0,0,0,0,0,0,0,0,0,0,0,0,0,0,0,0,0,0,0.0,6.55,0.0,0,2588
1780259513762,-19.8728,-43.9747,-0.00183,-0.00061,-0.001586,-347.76000000000005,-0.21000000000000002,464.80000000000007,0,0,0,0,0,0,0,0,0,0,0,0,0,0,0,0,0,0,0,0,0,0,0,0,0,0,0,0,0,0,0,0,0,0,0,0,0,0,0,0,0,0,0,0,0,0,0,0,0.0,6.55,0.0,0,2870
1780259513963,-19.8728,-43.9747,-0.00183,-0.00061,-0.001586,0.0,461.58000000000004,28.980000000000004,0,0,0,0,0,0,0,0,0,0,0,0,0,0,0,0,0,0,0,0,0,0,0,0,0,0,0,0,0,0,0,0,0,0,0,0,0,0,0,0,0,0,0,0,0,0,0,0,0.0,6.55,0.0,0,3071
1780259514013,-19.8728,-43.9747,-0.00183,-0.00061,-0.001586,-360.78000000000003,-10.780000000000001,461.02000000000004,0,0,0,0,0,0,0,0,0,0,0,0,0,0,0,0,0,0,0,0,0,0,0,0,0,0,0,0,0,0,0,0,0,0,0,0,0,0,0,0,0,0,0,0,0,0,0,0,0.0,6.55,0.0,0,3121
1780259514045,-19.8728,-43.9747,-0.000244,0.000488,-0.001098,-360.78000000000003,-10.780000000000001,461.02000000000004,0,0,0,0,0,0,0,0,0,0,0,0,0,0,0,0,0,0,0,0,0,0,0,0,0,0,0,0,0,0,0,0,0,0,0,0,0,0,0,0,0,0,0,0,0,0,0,0,0.0,6.55,0.0,0,3153
1780259514179,-19.8728,-43.9747,-0.000244,0.000488,-0.001098,0.0,462.14000000000004,0.0,0,0,0,0,0,0,0,0,0,0,0,0,0,0,0,0,0,0,0,0,0,0,0,0,0,0,0,0,0,0,0,0,0,0,0,0,0,0,0,0,0,0,0,0,0,0,0,0,0.0,6.55,0.0,0,3287
1780259514379,-19.8728,-43.9747,0.000122,0.00061,-0.000976,0.0,462.14000000000004,0.0,0,0,0,0,0,0,0,0,0,0,0,0,0,0,0,0,0,0,0,0,0,0,0,0,0,0,0,0,0,0,0,0,0,0,0,0,0,0,0,0,0,0,0,0,0,0,0,0,0.0,6.55,0.0,0,3487
1780259514429,-19.8728,-43.9747,0.000122,0.00061,-0.000976,-359.38000000000005,-7.5600000000000005,460.04,0,0,0,0,0,0,0,0,0,0,0,0,0,0,0,0,0,0,0,0,0,0,0,0,0,0,0,0,0,0,0,0,0,0,0,0,0,0,0,0,0,0,0,0,0,0,0,0,0.0,6.55,0.0,0,3537
1780259514680,-19.8728,-43.9747,0.0,0.00061,-0.001098,-359.38000000000005,-7.5600000000000005,460.04,0,0,0,0,0,0,0,0,0,0,0,0,0,0,0,0,0,0,0,0,0,0,0,0,0,0,0,0,0,0,0,0,0,0,0,0,0,0,0,0,0,0,0,0,0,0,0,0,0.0,6.55,0.0,0,3788
1780259514713,-19.8728,-43.9747,0.000122,0.000366,-0.0008539999999999999,-359.38000000000005,-7.5600000000000005,460.04,0,0,0,0,0,0,0,0,0,0,0,0,0,0,0,0,0,0,0,0,0,0,0,0,0,0,0,0,0,0,0,0,0,0,0,0,0,0,0,0,0,0,0,0,0,0,0,0,0.0,6.55,0.0,0,3821
1780259515046,-19.8728,-43.9747,0.000122,0.000366,-0.0008539999999999999,-359.38000000000005,-7.5600000000000005,460.04,0,0,0,0,0,0,0,0,0,0,0,0,0,0,0,0,0,0,0,0,0,0,0,0,0,0,0,0,0,0,0,0,0,0,0,0,0,0,0,0,0,0,0,0,0,0,0,0,0.0,6.55,0.0,0,4154
1780259515380,-19.8728,-43.9747,0.000122,0.000366,-0.0008539999999999999,-358.89000000000004,-12.88,462.56000000000006,0,0,0,0,0,0,0,0,0,0,0,0,0,0,0,0,0,0,0,0,0,0,0,0,0,0,0,0,0,0,0,0,0,0,0,0,0,0,0,0,0,0,0,0,0,0,0,0,0.0,6.55,0.0,0,4488
1780259515462,-19.8728,-43.9747,0.000122,0.000366,-0.0008539999999999999,-358.89000000000004,-12.88,462.56000000000006,0,0,0,0,0,0,0,0,0,0,0,0,0,0,0,0,0,0,0,0,0,0,0,0,0,0,0,0,0,0,0,0,0,0,0,0,0,0,0,0,0,0,0,0,0,0,0,0,0.0,6.55,0.0,0,4570
1780259515496,-19.8728,-43.9747,0.000122,0.000366,-0.0008539999999999999,-358.89000000000004,-12.88,462.56000000000006,0,0,0,0,0,0,0,0,0,0,0,0,0,0,0,0,0,0,0,0,0,0,0,0,0,0,0,0,0,0,0,0,0,0,0,0,0,0,0,0,0,0,0,0,0,0,0,0,0.0,6.55,0.0,0,4604
1780259516263,-19.8728,-43.9747,0.000122,0.000366,-0.0008539999999999999,-358.89000000000004,-12.88,462.56000000000006,0,0,0,0,0,0,0,0,0,0,0,0,0,0,0,0,0,0,0,0,0,0,0,0,0,0,0,0,0,0,0,0,0,0,0,0,0,0,0,0,0,0,0,0,0,0,0,0,0.0,6.55,0.0,0,5371
1780259516662,-19.8728,-43.9747,-0.000122,0.00061,-0.001098,-358.89000000000004,-12.88,462.56000000000006,0,0,0,0,0,0,0,0,0,0,0,0,0,0,0,0,0,0,0,0,0,0,0,0,0,0,0,0,0,0,0,0,0,0,0,0,0,0,0,0,0,0,0,0,0,0,0,0,0.0,6.55,0.0,0,5770
1780259516796,-19.8728,-43.9747,-0.000122,0.00061,-0.001098,-358.89000000000004,-12.88,462.56000000000006,0,0,0,0,0,0,0,0,0,0,0,0,0,0,0,0,0,0,0,0,0,0,0,0,0,0,0,0,0,0,0,0,0,0,0,0,0,0,0,0,0,0,0,0,0,0,0,0,0.0,6.55,0.0,0,5904
1780259516949,-19.8728,-43.9747,-0.000122,0.00061,-0.001098,-359.17,-9.520000000000001,459.76000000000005,0,0,0,0,0,0,0,0,0,0,0,0,0,0,0,0,0,0,0,0,0,0,0,0,0,0,0,0,0,0,0,0,0,0,0,0,0,0,0,0,0,0,0,0,0,0,0,0,0.0,6.55,0.0,0,6057
1780259516996,-19.8728,-43.9747,0.0,0.000488,-0.000976,-359.17,-9.520000000000001,459.76000000000005,0,0,0,0,0,0,0,0,0,0,0,0,0,0,0,0,0,0,0,0,0,0,0,0,0,0,0,0,0,0,0,0,0,0,0,0,0,0,0,0,0,0,0,0,0,0,0,0,0.0,6.55,0.0,0,6104
1780259517045,-19.8728,-43.9747,0.0,0.000488,-0.000976,-359.17,-9.520000000000001,459.76000000000005,0,0,0,0,0,0,0,0,0,0,0,0,0,0,0,0,0,0,0,0,0,0,0,0,0,0,0,0,0,0,0,0,0,0,0,0,0,0,0,0,0,0,0,0,0,0,0,0,0.0,6.55,0.0,0,6153
1780259517664,-19.8728,-43.9747,0.000122,0.000366,-0.001098,-359.17,-9.520000000000001,459.76000000000005,0,0,0,0,0,0,0,0,0,0,0,0,0,0,0,0,0,0,0,0,0,0,0,0,0,0,0,0,0,0,0,0,0,0,0,0,0,0,0,0,0,0,0,0,0,0,0,0,0.0,6.55,0.0,0,6772
1780259518029,-19.8728,-43.9747,0.0,0.000488,-0.001098,-359.17,-9.520000000000001,459.76000000000005,0,0,0,0,0,0,0,0,0,0,0,0,0,0,0,0,0,0,0,0,0,0,0,0,0,0,0,0,0,0,0,0,0,0,0,0,0,0,0,0,0,0,0,0,0,0,0,0,0.0,6.55,0.0,0,7137
1780259518279,-19.8728,-43.9747,0.0,0.000488,-0.001098,-356.93,-8.540000000000001,462.49000000000007,0,0,0,0,0,0,0,0,0,0,0,0,0,0,0,0,0,0,0,0,0,0,0,0,0,0,0,0,0,0,0,0,0,0,0,0,0,0,0,0,0,0,0,0,0,0,0,0,0.0,6.55,0.0,0,7387
1780259518646,-19.8728,-43.9747,0.0,0.000488,-0.001098,-356.86,-8.540000000000001,460.67,0,0,0,0,0,0,0,0,0,0,0,0,0,0,0,0,0,0,0,0,0,0,0,0,0,0,0,0,0,0,0,0,0,0,0,0,0,0,0,0,0,0,0,0,0,0,0,0,0.0,6.55,0.0,0,7754
1780259518895,-19.8728,-43.9747,0.0,0.000488,-0.001098,-356.86,-8.540000000000001,460.67,0,0,0,0,0,0,0,0,0,0,0,0,0,0,0,0,0,0,0,0,0,0,0,0,0,0,0,0,0,0,0,0,0,0,0,0,0,0,0,0,0,0,0,0,0,0,0,0,0.0,6.55,0.0,0,8003
1780259519312,-19.8729,-43.9747,0.0,0.000488,-0.001098,-356.86,-8.540000000000001,460.67,0,0,0,0,0,0,0,0,0,0,0,0,0,0,0,0,0,0,0,0,0,0,0,0,0,0,0,0,0,0,0,0,0,0,0,0,0,0,0,0,0,0,0,0,0,0,0,0,0.0,6.55,0.0,0,8420
1780259519346,-19.8729,-43.9747,-0.000244,0.000488,-0.001098,-356.86,-8.540000000000001,460.67,0,0,0,0,0,0,0,0,0,0,0,0,0,0,0,0,0,0,0,0,0,0,0,0,0,0,0,0,0,0,0,0,0,0,0,0,0,0,0,0,0,0,0,0,0,0,0,0,0.0,6.55,0.0,0,8454
1780259519479,-19.8729,-43.9747,-0.000244,0.000488,-0.001098,-356.86,-8.540000000000001,460.67,0,0,0,0,0,0,0,0,0,0,0,0,0,0,0,0,0,0,0,0,0,0,0,0,0,0,0,0,0,0,0,0,0,0,0,0,0,0,0,0,0,0,0,0,0,0,0,0,0.0,6.55,0.0,0,8587
1780259519763,-19.8729,-43.9747,-0.000244,0.000488,-0.001098,-356.86,-8.540000000000001,460.67,0,0,0,0,0,0,0,0,0,0,0,0,0,0,0,0,0,0,0,0,0,0,0,0,0,0,0,0,0,0,0,0,0,0,0,0,0,0,0,0,0,0,0,0,0,0,0,0,0.0,6.55,0.0,0,8871
1780259520246,-19.8729,-43.9747,-0.000244,0.000488,-0.001098,-358.68,-9.100000000000001,459.55000000000007,0,0,0,0,0,0,0,0,0,0,0,0,0,0,0,0,0,0,0,0,0,0,0,0,0,0,0,0,0,0,0,0,0,0,0,0,0,0,0,0,0,0,0,0,0,0,0,0,0.0,6.55,0.0,0,9354
1780259520729,-19.8729,-43.9747,-0.000244,0.000488,-0.001098,-358.68,-9.100000000000001,459.55000000000007,0,0,0,0,0,0,0,0,0,0,0,0,0,0,0,0,0,0,0,0,0,0,0,0,0,0,0,0,0,0,0,0,0,0,0,0,0,0,0,0,0,0,0,0,0,0,0,0,0.0,6.55,0.0,0,9837
1780259520812,-19.8729,-43.9747,-0.000244,0.000488,-0.001098,-358.68,-9.100000000000001,459.55000000000007,0,0,0,0,0,0,0,0,0,0,0,0,0,0,0,0,0,0,0,0,0,0,0,0,0,0,0,0,0,0,0,0,0,0,0,0,0,0,0,0,0,0,0,0,0,0,0,0,0.0,6.55,0.0,0,9920
1780259521214,-19.8729,-43.9747,-0.000244,0.000488,-0.001098,-358.68,-9.100000000000001,459.55000000000007,0,0,0,0,0,0,0,0,0,0,0,0,0,0,0,0,0,0,0,0,0,0,0,0,0,0,0,0,0,0,0,0,0,0,0,0,0,0,0,0,0,0,0,0,0,0,0,0,0.0,6.55,0.0,0,10322
1780259521412,-19.8728,-43.9747,-0.000244,0.000488,-0.001098,-358.68,-9.100000000000001,459.55000000000007,0,0,0,0,0,0,0,0,0,0,0,0,0,0,0,0,0,0,0,0,0,0,0,0,0,0,0,0,0,0,0,0,0,0,0,0,0,0,0,0,0,0,0,0,0,0,0,0,0.0,6.55,0.0,0,10520
1780259521446,-19.8728,-43.9747,-0.000244,0.000488,-0.001098,-358.68,-9.100000000000001,459.55000000000007,0,0,0,0,0,0,0,0,0,0,0,0,0,0,0,0,0,0,0,0,0,0,0,0,0,0,0,0,0,0,0,0,0,0,0,0,0,0,0,0,0,0,0,0,0,0,0,0,0.0,6.55,0.0,0,10554
1780259521813,-19.8728,-43.9747,0.000122,0.000488,-0.0008539999999999999,-358.68,-9.100000000000001,459.55000000000007,0,0,0,0,0,0,0,0,0,0,0,0,0,0,0,0,0,0,0,0,0,0,0,0,0,0,0,0,0,0,0,0,0,0,0,0,0,0,0,0,0,0,0,0,0,0,0,0,0.0,6.55,0.0,0,10921
1780259522197,-19.8728,-43.9747,0.000122,0.00061,-0.0008539999999999999,-358.68,-9.100000000000001,459.55000000000007,0,0,0,0,0,0,0,0,0,0,0,0,0,0,0,0,0,0,0,0,0,0,0,0,0,0,0,0,0,0,0,0,0,0,0,0,0,0,0,0,0,0,0,0,0,0,0,0,0.0,6.55,0.0,0,11305
1780259522896,-19.8728,-43.9747,0.000122,0.00061,-0.0008539999999999999,-358.68,-9.100000000000001,459.55000000000007,0,0,0,0,0,0,0,0,0,0,0,0,0,0,0,0,0,0,0,0,0,0,0,0,0,0,0,0,0,0,0,0,0,0,0,0,0,0,0,0,0,0,0,0,0,0,0,0,0.0,6.55,0.0,0,12004
1780259523096,-19.8728,-43.9747,0.000122,0.00061,-0.0008539999999999999,-357.28000000000003,-9.450000000000001,462.56000000000006,0,0,0,0,0,0,0,0,0,0,0,0,0,0,0,0,0,0,0,0,0,0,0,0,0,0,0,0,0,0,0,0,0,0,0,0,0,0,0,0,0,0,0,0,0,0,0,0,0.0,6.55,0.0,0,12204
1780259523230,-19.8728,-43.9747,0.000122,0.00061,-0.0008539999999999999,-355.88000000000005,-8.82,460.88000000000005,0,0,0,0,0,0,0,0,0,0,0,0,0,0,0,0,0,0,0,0,0,0,0,0,0,0,0,0,0,0,0,0,0,0,0,0,0,0,0,0,0,0,0,0,0,0,0,0,0.0,6.55,0.0,0,12338
1780259523345,-19.8728,-43.9747,0.000122,0.00061,-0.0008539999999999999,-355.88000000000005,-8.82,460.88000000000005,0,0,0,0,0,0,0,0,0,0,0,0,0,0,0,0,0,0,0,0,0,0,0,0,0,0,0,0,0,0,0,0,0,0,0,0,0,0,0,0,0,0,0,0,0,0,0,0,0.0,6.55,0.0,0,12453
1780259523429,-19.8728,-43.9747,0.000122,0.00061,-0.0008539999999999999,-356.93,-8.96,462.70000000000005,0,0,0,0,0,0,0,0,0,0,0,0,0,0,0,0,0,0,0,0,0,0,0,0,0,0,0,0,0,0,0,0,0,0,0,0,0,0,0,0,0,0,0,0,0,0,0,0,0.0,6.55,0.0,0,12537
1780259523729,-19.8728,-43.9747,0.000122,0.00061,-0.0008539999999999999,-356.93,-8.96,462.70000000000005,0,0,0,0,0,0,0,0,0,0,0,0,0,0,0,0,0,0,0,0,0,0,0,0,0,0,0,0,0,0,0,0,0,0,0,0,0,0,0,0,0,0,0,0,0,0,0,0,0.0,6.55,0.0,0,12837
1780259524163,-19.8728,-43.9747,0.000122,0.00061,-0.0008539999999999999,-356.93,-9.24,464.24000000000007,0,0,0,0,0,0,0,0,0,0,0,0,0,0,0,0,0,0,0,0,0,0,0,0,0,0,0,0,0,0,0,0,0,0,0,0,0,0,0,0,0,0,0,0,0,0,0,0,0.0,6.55,0.0,0,13271
1780259524279,-19.8728,-43.9747,-0.000122,0.000366,-0.000976,-356.93,-9.24,464.24000000000007,0,0,0,0,0,0,0,0,0,0,0,0,0,0,0,0,0,0,0,0,0,0,0,0,0,0,0,0,0,0,0,0,0,0,0,0,0,0,0,0,0,0,0,0,0,0,0,0,0.0,6.55,0.0,0,13387
1780259524546,-19.8728,-43.9747,-0.000122,0.000366,-0.000976,-356.93,-9.24,464.24000000000007,0,0,0,0,0,0,0,0,0,0,0,0,0,0,0,0,0,0,0,0,0,0,0,0,0,0,0,0,0,0,0,0,0,0,0,0,0,0,0,0,0,0,0,0,0,0,0,0,0.0,6.55,0.0,0,13654
1780259524616,-19.8728,-43.9747,0.000122,0.000732,-0.001098,-356.93,-9.24,464.24000000000007,0,0,0,0,0,0,0,0,0,0,0,0,0,0,0,0,0,0,0,0,0,0,0,0,0,0,0,0,0,0,0,0,0,0,0,0,0,0,0,0,0,0,0,0,0,0,0,0,0.0,6.55,0.0,0,13724
1780259524879,-19.8728,-43.9747,0.000122,0.000732,-0.001098,-356.93,-9.24,464.24000000000007,0,0,0,0,0,0,0,0,0,0,0,0,0,0,0,0,0,0,0,0,0,0,0,0,0,0,0,0,0,0,0,0,0,0,0,0,0,0,0,0,0,0,0,0,0,0,0,0,0.0,6.55,0.0,0,13987
1780259524995,-19.8728,-43.9747,0.000122,0.000732,-0.001098,-356.93,-9.24,464.24000000000007,0,0,0,0,0,0,0,0,0,0,0,0,0,0,0,0,0,0,0,0,0,0,0,0,0,0,0,0,0,0,0,0,0,0,0,0,0,0,0,0,0,0,0,0,0,0,0,0,0.0,6.55,0.0,0,14103
1780259525412,-19.8728,-43.9747,0.000122,0.000732,-0.001098,-355.81000000000006,-9.940000000000001,458.71000000000004,0,0,0,0,0,0,0,0,0,0,0,0,0,0,0,0,0,0,0,0,0,0,0,0,0,0,0,0,0,0,0,0,0,0,0,0,0,0,0,0,0,0,0,0,0,0,0,0,0.0,6.55,0.0,0,14520
1780259525579,-19.8728,-43.9747,0.000122,0.000732,-0.001098,-356.3,-11.270000000000001,465.01000000000005,0,0,0,0,0,0,0,0,0,0,0,0,0,0,0,0,0,0,0,0,0,0,0,0,0,0,0,0,0,0,0,0,0,0,0,0,0,0,0,0,0,0,0,0,0,0,0,0,0.0,6.55,0.0,0,14687
1780259526028,-19.8728,-43.9747,0.0,0.00061,-0.0008539999999999999,-356.3,-11.270000000000001,465.01000000000005,0,0,0,0,0,0,0,0,0,0,0,0,0,0,0,0,0,0,0,0,0,0,0,0,0,0,0,0,0,0,0,0,0,0,0,0,0,0,0,0,0,0,0,0,0,0,0,0,0.0,6.55,0.0,0,15136
1780259526729,-19.8728,-43.9747,0.000122,0.00061,-0.000976,-356.3,-11.270000000000001,465.01000000000005,0,0,0,0,0,0,0,0,0,0,0,0,0,0,0,0,0,0,0,0,0,0,0,0,0,0,0,0,0,0,0,0,0,0,0,0,0,0,0,0,0,0,0,0,0,0,0,0,0.0,6.55,0.0,0,15837
1780259527179,-19.8728,-43.9747,0.000122,0.00061,-0.000976,-356.3,-11.270000000000001,465.01000000000005,0,0,0,0,0,0,0,0,0,0,0,0,0,0,0,0,0,0,0,0,0,0,0,0,0,0,0,0,0,0,0,0,0,0,0,0,0,0,0,0,0,0,0,0,0,0,0,0,0.0,6.55,0.0,0,16287
1780259527513,-19.8728,-43.9747,0.000244,0.000244,-0.000976,-356.3,-11.270000000000001,465.01000000000005,0,0,0,0,0,0,0,0,0,0,0,0,0,0,0,0,0,0,0,0,0,0,0,0,0,0,0,0,0,0,0,0,0,0,0,0,0,0,0,0,0,0,0,0,0,0,0,0,0.0,6.55,0.0,0,16621
1780259527849,-19.8728,-43.9747,0.000244,0.000244,-0.000976,-359.17,-9.24,462.56000000000006,0,0,0,0,0,0,0,0,0,0,0,0,0,0,0,0,0,0,0,0,0,0,0,0,0,0,0,0,0,0,0,0,0,0,0,0,0,0,0,0,0,0,0,0,0,0,0,0,0.0,6.55,0.0,0,16957
1780259528212,-19.8728,-43.9747,0.000244,0.000244,-0.000976,-357.35,-10.850000000000001,464.94000000000005,0,0,0,0,0,0,0,0,0,0,0,0,0,0,0,0,0,0,0,0,0,0,0,0,0,0,0,0,0,0,0,0,0,0,0,0,0,0,0,0,0,0,0,0,0,0,0,0,0.0,6.55,0.0,0,17320
1780259528295,-19.8728,-43.9747,0.000244,0.000244,-0.000976,-357.35,-10.850000000000001,464.94000000000005,0,0,0,0,0,0,0,0,0,0,0,0,0,0,0,0,0,0,0,0,0,0,0,0,0,0,0,0,0,0,0,0,0,0,0,0,0,0,0,0,0,0,0,0,0,0,0,0,0.0,6.55,0.0,0,17403
1780259528378,-19.8728,-43.9747,0.000244,0.000244,-0.000976,-357.35,-10.850000000000001,464.94000000000005,0,0,0,0,0,0,0,0,0,0,0,0,0,0,0,0,0,0,0,0,0,0,0,0,0,0,0,0,0,0,0,0,0,0,0,0,0,0,0,0,0,0,0,0,0,0,0,0,0.0,6.55,0.0,0,17486
1780259528462,-19.8728,-43.9747,0.000244,0.000244,-0.000976,-357.21000000000004,-6.86,461.93000000000006,0,0,0,0,0,0,0,0,0,0,0,0,0,0,0,0,0,0,0,0,0,0,0,0,0,0,0,0,0,0,0,0,0,0,0,0,0,0,0,0,0,0,0,0,0,0,0,0,0.0,6.55,0.0,0,17570
1780259528796,-19.8728,-43.9747,0.000244,0.000244,-0.000976,-357.21000000000004,-6.86,461.93000000000006,0,0,0,0,0,0,0,0,0,0,0,0,0,0,0,0,0,0,0,0,0,0,0,0,0,0,0,0,0,0,0,0,0,0,0,0,0,0,0,0,0,0,0,0,0,0,0,0,0.0,6.55,0.0,0,17904
1780259529463,-19.8728,-43.9747,0.000244,0.000244,-0.000976,-359.24,-11.200000000000001,465.22,0,0,0,0,0,0,0,0,0,0,0,0,0,0,0,0,0,0,0,0,0,0,0,0,0,0,0,0,0,0,0,0,0,0,0,0,0,0,0,0,0,0,0,0,0,0,0,0,0.0,6.55,0.0,0,18571
1780259529661,-19.8728,-43.9747,0.000244,0.000244,-0.000976,-359.24,-11.200000000000001,465.22,0,0,0,0,0,0,0,0,0,0,0,0,0,0,0,0,0,0,0,0,0,0,0,0,0,0,0,0,0,0,0,0,0,0,0,0,0,0,0,0,0,0,0,0,0,0,0,0,0.0,6.55,0.0,0,18769
1780259529829,-19.8728,-43.9747,0.000244,0.000244,-0.000976,-359.24,-11.200000000000001,465.22,0,0,0,0,0,0,0,0,0,0,0,0,0,0,0,0,0,0,0,0,0,0,0,0,0,0,0,0,0,0,0,0,0,0,0,0,0,0,0,0,0,0,0,0,0,0,0,0,0.0,6.55,0.0,0,18937
1780259529962,-19.8728,-43.9747,0.000244,0.000244,-0.000976,-359.24,-11.200000000000001,465.22,0,0,0,0,0,0,0,0,0,0,0,0,0,0,0,0,0,0,0,0,0,0,0,0,0,0,0,0,0,0,0,0,0,0,0,0,0,0,0,0,0,0,0,0,0,0,0,0,0.0,6.55,0.0,0,19070
1780259530080,-19.8728,-43.9747,0.000244,0.000244,-0.000976,-356.72,-8.190000000000001,463.61000000000007,0,0,0,0,0,0,0,0,0,0,0,0,0,0,0,0,0,0,0,0,0,0,0,0,0,0,0,0,0,0,0,0,0,0,0,0,0,0,0,0,0,0,0,0,0,0,0,0,0.0,6.55,0.0,0,19188
1780259530148,-19.8728,-43.9747,0.000122,0.000366,-0.000976,-356.72,-8.190000000000001,463.61000000000007,0,0,0,0,0,0,0,0,0,0,0,0,0,0,0,0,0,0,0,0,0,0,0,0,0,0,0,0,0,0,0,0,0,0,0,0,0,0,0,0,0,0,0,0,0,0,0,0,0.0,6.55,0.0,0,19256
1780259530662,-19.8729,-43.9747,0.000122,0.000366,-0.000976,-356.72,-8.190000000000001,463.61000000000007,0,0,0,0,0,0,0,0,0,0,0,0,0,0,0,0,0,0,0,0,0,0,0,0,0,0,0,0,0,0,0,0,0,0,0,0,0,0,0,0,0,0,0,0,0,0,0,0,0.0,6.55,0.0,0,19770
1780259530715,-19.8729,-43.9747,0.000122,0.000366,-0.000976,-356.72,-8.190000000000001,463.61000000000007,0,0,0,0,0,0,0,0,0,0,0,0,0,0,0,0,0,0,0,0,0,0,0,0,0,0,0,0,0,0,0,0,0,0,0,0,0,0,0,0,0,0,0,0,0,0,0,0,0.0,6.55,0.0,0,19823
1780259530979,-19.8729,-43.9747,0.000122,0.000366,-0.000976,-356.72,-8.190000000000001,463.61000000000007,0,0,0,0,0,0,0,0,0,0,0,0,0,0,0,0,0,0,0,0,0,0,0,0,0,0,0,0,0,0,0,0,0,0,0,0,0,0,0,0,0,0,0,0,0,0,0,0,0.0,6.55,0.0,0,20087
1780259531096,-19.8729,-43.9747,0.000122,0.000366,-0.000976,-357.49,-7.630000000000001,462.14000000000004,0,0,0,0,0,0,0,0,0,0,0,0,0,0,0,0,0,0,0,0,0,0,0,0,0,0,0,0,0,0,0,0,0,0,0,0,0,0,0,0,0,0,0,0,0,0,0,0,0.0,6.55,0.0,0,20204
1780259531145,-19.8729,-43.9747,-0.000122,0.000366,-0.000976,-357.49,-7.630000000000001,462.14000000000004,0,0,0,0,0,0,0,0,0,0,0,0,0,0,0,0,0,0,0,0,0,0,0,0,0,0,0,0,0,0,0,0,0,0,0,0,0,0,0,0,0,0,0,0,0,0,0,0,0.0,6.55,0.0,0,20253
1780259531445,-19.8729,-43.9747,-0.000122,0.000366,-0.001098,-357.49,-7.630000000000001,462.14000000000004,0,0,0,0,0,0,0,0,0,0,0,0,0,0,0,0,0,0,0,0,0,0,0,0,0,0,0,0,0,0,0,0,0,0,0,0,0,0,0,0,0,0,0,0,0,0,0,0,0.0,6.55,0.0,0,20553
1780259532179,-19.8729,-43.9747,-0.000122,0.000366,-0.001098,-357.49,-7.630000000000001,462.14000000000004,0,0,0,0,0,0,0,0,0,0,0,0,0,0,0,0,0,0,0,0,0,0,0,0,0,0,0,0,0,0,0,0,0,0,0,0,0,0,0,0,0,0,0,0,0,0,0,0,0.0,6.55,0.0,0,21287
1780259532295,-19.8729,-43.9747,-0.000122,0.000366,-0.001098,-358.40000000000003,-0.07,459.97,0,0,0,0,0,0,0,0,0,0,0,0,0,0,0,0,0,0,0,0,0,0,0,0,0,0,0,0,0,0,0,0,0,0,0,0,0,0,0,0,0,0,0,0,0,0,0,0,0.0,6.55,0.0,0,21403
1780259532429,-19.8729,-43.9747,-0.000122,0.000366,-0.001098,-354.90000000000003,-20.44,463.75000000000006,0,0,0,0,0,0,0,0,0,0,0,0,0,0,0,0,0,0,0,0,0,0,0,0,0,0,0,0,0,0,0,0,0,0,0,0,0,0,0,0,0,0,0,0,0,0,0,0,0.0,6.55,0.0,0,21537
1780259532461,-19.8729,-43.9747,-0.000366,0.000122,-0.001098,-354.90000000000003,-20.44,463.75000000000006,0,0,0,0,0,0,0,0,0,0,0,0,0,0,0,0,0,0,0,0,0,0,0,0,0,0,0,0,0,0,0,0,0,0,0,0,0,0,0,0,0,0,0,0,0,0,0,0,0.0,6.55,0.0,0,21569
1780259532512,-19.8729,-43.9747,-0.000366,0.000122,-0.001098,-354.90000000000003,-20.44,463.75000000000006,0,0,0,0,0,0,0,0,0,0,0,0,0,0,0,0,0,0,0,0,0,0,0,0,0,0,0,0,0,0,0,0,0,0,0,0,0,0,0,0,0,0,0,0,0,0,0,0,0.0,6.55,0.0,0,21620
1780259532912,-19.8729,-43.9747,-0.000366,0.000122,-0.001098,-354.83000000000004,-11.340000000000002,459.55000000000007,0,0,0,0,0,0,0,0,0,0,0,0,0,0,0,0,0,0,0,0,0,0,0,0,0,0,0,0,0,0,0,0,0,0,0,0,0,0,0,0,0,0,0,0,0,0,0,0,0.0,6.55,0.0,0,22020
1780259607190,-19.8729,-43.9747,-0.000366,0.000122,-0.001098,-388.85,21.840000000000003,437.43000000000006,0,0,0,0,0,0,0,0,0,0,0,0,0,0,0,0,0,0,0,0,0,0,0,0,0,0,0,0,0,0,0,0,0,0,0,0,0,0,0,0,0,0,0,0,0,0,0,0,0.0,6.55,0.0,0,96298
1780259607474,-19.8729,-43.9747,-0.000122,0.000488,-0.000732,-388.85,21.840000000000003,437.43000000000006,0,0,0,0,0,0,0,0,0,0,0,0,0,0,0,0,0,0,0,0,0,0,0,0,0,0,0,0,0,0,0,0,0,0,0,0,0,0,0,0,0,0,0,0,0,0,0,0,0.0,6.55,0.0,0,96582
1780259607607,-19.8729,-43.9747,0.000122,0.00061,-0.0008539999999999999,-388.85,21.840000000000003,437.43000000000006,0,0,0,0,0,0,0,0,0,0,0,0,0,0,0,0,0,0,0,0,0,0,0,0,0,0,0,0,0,0,0,0,0,0,0,0,0,0,0,0,0,0,0,0,0,0,0,0,0.0,6.55,0.0,0,96715
1780259608224,-19.8729,-43.9747,0.000122,0.00061,-0.0008539999999999999,-388.85,21.840000000000003,437.43000000000006,0,0,0,0,0,0,0,0,0,0,0,0,0,0,0,0,0,0,0,0,0,0,0,0,0,0,0,0,0,0,0,0,0,0,0,0,0,0,0,0,0,0,0,0,0,0,0,0,0.0,6.55,0.0,0,97332
1780259609041,-19.8729,-43.9747,0.000122,0.00061,-0.0008539999999999999,-386.89000000000004,22.610000000000003,429.1,0,0,0,0,0,0,0,0,0,0,0,0,0,0,0,0,0,0,0,0,0,0,0,0,0,0,0,0,0,0,0,0,0,0,0,0,0,0,0,0,0,0,0,0,0,0,0,0,0.0,6.55,0.0,0,98149
1780259609074,-19.8729,-43.9747,-0.000244,0.000366,-0.00122,-386.89000000000004,22.610000000000003,429.1,0,0,0,0,0,0,0,0,0,0,0,0,0,0,0,0,0,0,0,0,0,0,0,0,0,0,0,0,0,0,0,0,0,0,0,0,0,0,0,0,0,0,0,0,0,0,0,0,0.0,6.55,0.0,0,98182
1780259609207,-19.8729,-43.9747,0.0,0.00061,-0.001098,-386.89000000000004,22.610000000000003,429.1,0,0,0,0,0,0,0,0,0,0,0,0,0,0,0,0,0,0,0,0,0,0,0,0,0,0,0,0,0,0,0,0,0,0,0,0,0,0,0,0,0,0,0,0,0,0,0,0,0.0,6.55,0.0,0,98315
1780259609275,-19.8729,-43.9747,-0.000122,0.000488,-0.0008539999999999999,-386.89000000000004,22.610000000000003,429.1,0,0,0,0,0,0,0,0,0,0,0,0,0,0,0,0,0,0,0,0,0,0,0,0,0,0,0,0,0,0,0,0,0,0,0,0,0,0,0,0,0,0,0,0,0,0,0,0,0.0,6.55,0.0,0,98383
1780259609557,-19.8729,-43.9747,0.0,0.00061,-0.001098,-386.89000000000004,22.610000000000003,429.1,0,0,0,0,0,0,0,0,0,0,0,0,0,0,0,0,0,0,0,0,0,0,0,0,0,0,0,0,0,0,0,0,0,0,0,0,0,0,0,0,0,0,0,0,0,0,0,0,0.0,6.55,0.0,0,98665
1780259610091,-19.8729,-43.9747,0.0,0.000366,-0.000976,-386.89000000000004,22.610000000000003,429.1,0,0,0,0,0,0,0,0,0,0,0,0,0,0,0,0,0,0,0,0,0,0,0,0,0,0,0,0,0,0,0,0,0,0,0,0,0,0,0,0,0,0,0,0,0,0,0,0,0.0,6.55,0.0,0,99199
1780259610457,-19.8729,-43.9747,0.0,0.000732,-0.0008539999999999999,-386.89000000000004,22.610000000000003,429.1,0,0,0,0,0,0,0,0,0,0,0,0,0,0,0,0,0,0,0,0,0,0,0,0,0,0,0,0,0,0,0,0,0,0,0,0,0,0,0,0,0,0,0,0,0,0,0,0,0.0,6.55,0.0,0,99565
1780259611091,-19.8729,-43.9747,0.0,0.000732,-0.0008539999999999999,-389.90000000000003,21.560000000000002,436.1,0,0,0,0,0,0,0,0,0,0,0,0,0,0,0,0,0,0,0,0,0,0,0,0,0,0,0,0,0,0,0,0,0,0,0,0,0,0,0,0,0,0,0,0,0,0,0,0,0.0,6.55,0.0,0,100199
1780259611207,-19.8729,-43.9747,0.0,0.000732,-0.0008539999999999999,-389.55,20.580000000000002,436.87000000000006,0,0,0,0,0,0,0,0,0,0,0,0,0,0,0,0,0,0,0,0,0,0,0,0,0,0,0,0,0,0,0,0,0,0,0,0,0,0,0,0,0,0,0,0,0,0,0,0,0.0,6.55,0.0,0,100315
1780259611240,-19.8729,-43.9747,-0.000122,0.000366,-0.001098,-389.55,20.580000000000002,436.87000000000006,0,0,0,0,0,0,0,0,0,0,0,0,0,0,0,0,0,0,0,0,0,0,0,0,0,0,0,0,0,0,0,0,0,0,0,0,0,0,0,0,0,0,0,0,0,0,0,0,0.0,6.55,0.0,0,100348
1780259611707,-19.8729,-43.9747,-0.000122,0.000366,-0.001098,-389.62000000000006,21.000000000000004,435.33000000000004,0,0,0,0,0,0,0,0,0,0,0,0,0,0,0,0,0,0,0,0,0,0,0,0,0,0,0,0,0,0,0,0,0,0,0,0,0,0,0,0,0,0,0,0,0,0,0,0,0.0,6.55,0.0,0,100815
1780259612024,-19.8729,-43.9747,0.0,0.000366,-0.000976,-389.62000000000006,21.000000000000004,435.33000000000004,0,0,0,0,0,0,0,0,0,0,0,0,0,0,0,0,0,0,0,0,0,0,0,0,0,0,0,0,0,0,0,0,0,0,0,0,0,0,0,0,0,0,0,0,0,0,0,0,0.0,6.55,0.0,0,101132
1780259612642,-19.8729,-43.9747,-0.000122,0.00061,-0.0013419999999999999,-389.62000000000006,21.000000000000004,435.33000000000004,0,0,0,0,0,0,0,0,0,0,0,0,0,0,0,0,0,0,0,0,0,0,0,0,0,0,0,0,0,0,0,0,0,0,0,0,0,0,0,0,0,0,0,0,0,0,0,0,0.0,6.55,0.0,0,101750
1780259612690,-19.8729,-43.9747,-0.000122,0.00061,-0.001098,-389.62000000000006,21.000000000000004,435.33000000000004,0,0,0,0,0,0,0,0,0,0,0,0,0,0,0,0,0,0,0,0,0,0,0,0,0,0,0,0,0,0,0,0,0,0,0,0,0,0,0,0,0,0,0,0,0,0,0,0,0.0,6.55,0.0,0,101798
1780259613074,-19.8729,-43.9747,-0.000122,0.00061,-0.001098,-388.15000000000003,20.160000000000004,435.19000000000005,0,0,0,0,0,0,0,0,0,0,0,0,0,0,0,0,0,0,0,0,0,0,0,0,0,0,0,0,0,0,0,0,0,0,0,0,0,0,0,0,0,0,0,0,0,0,0,0,0.0,6.55,0.0,0,102182
1780259613308,-19.8729,-43.9747,-0.000122,0.00061,-0.001098,-389.41,20.090000000000003,435.68000000000006,0,0,0,0,0,0,0,0,0,0,0,0,0,0,0,0,0,0,0,0,0,0,0,0,0,0,0,0,0,0,0,0,0,0,0,0,0,0,0,0,0,0,0,0,0,0,0,0,0.0,6.55,0.0,0,102416
1780259613557,-19.8729,-43.9747,-0.000122,0.00061,-0.001098,-388.71000000000004,24.080000000000002,432.81000000000006,0,0,0,0,0,0,0,0,0,0,0,0,0,0,0,0,0,0,0,0,0,0,0,0,0,0,0,0,0,0,0,0,0,0,0,0,0,0,0,0,0,0,0,0,0,0,0,0,0.0,6.55,0.0,0,102665
1780259613874,-19.8729,-43.9747,0.0,0.00061,-0.000976,-388.71000000000004,24.080000000000002,432.81000000000006,0,0,0,0,0,0,0,0,0,0,0,0,0,0,0,0,0,0,0,0,0,0,0,0,0,0,0,0,0,0,0,0,0,0,0,0,0,0,0,0,0,0,0,0,0,0,0,0,0.0,6.55,0.0,0,102982
1780259614425,-19.8729,-43.9747,0.0,0.00061,-0.000976,-389.06000000000006,22.610000000000003,435.54,0,0,0,0,0,0,0,0,0,0,0,0,0,0,0,0,0,0,0,0,0,0,0,0,0,0,0,0,0,0,0,0,0,0,0,0,0,0,0,0,0,0,0,0,0,0,0,0,0.0,6.55,0.0,0,103533
1780259614540,-19.8729,-43.9747,-0.000122,0.000488,-0.001098,-389.06000000000006,22.610000000000003,435.54,0,0,0,0,0,0,0,0,0,0,0,0,0,0,0,0,0,0,0,0,0,0,0,0,0,0,0,0,0,0,0,0,0,0,0,0,0,0,0,0,0,0,0,0,0,0,0,0,0.0,6.55,0.0,0,103648
1780259614575,-19.8729,-43.9747,-0.000122,0.000488,-0.001098,-390.46000000000004,22.96,435.61,0,0,0,0,0,0,0,0,0,0,0,0,0,0,0,0,0,0,0,0,0,0,0,0,0,0,0,0,0,0,0,0,0,0,0,0,0,0,0,0,0,0,0,0,0,0,0,0,0.0,6.55,0.0,0,103683
1780259614924,-19.8729,-43.9747,0.000122,0.000366,-0.000976,-390.46000000000004,22.96,435.61,0,0,0,0,0,0,0,0,0,0,0,0,0,0,0,0,0,0,0,0,0,0,0,0,0,0,0,0,0,0,0,0,0,0,0,0,0,0,0,0,0,0,0,0,0,0,0,0,0.0,6.55,0.0,0,104032
1780259615007,-19.8729,-43.9747,0.000122,0.000366,-0.000976,-390.46000000000004,22.96,435.61,0,0,0,0,0,0,0,0,0,0,0,0,0,0,0,0,0,0,0,0,0,0,0,0,0,0,0,0,0,0,0,0,0,0,0,0,0,0,0,0,0,0,0,0,0,0,0,0,0.0,6.55,0.0,0,104115
1780259615042,-19.8729,-43.9747,0.000122,0.000366,-0.000976,-390.32000000000005,28.770000000000003,432.11,0,0,0,0,0,0,0,0,0,0,0,0,0,0,0,0,0,0,0,0,0,0,0,0,0,0,0,0,0,0,0,0,0,0,0,0,0,0,0,0,0,0,0,0,0,0,0,0,0.0,6.55,0.0,0,104150
1780259615341,-19.8729,-43.9747,0.0,0.000488,-0.0008539999999999999,-390.32000000000005,28.770000000000003,432.11,0,0,0,0,0,0,0,0,0,0,0,0,0,0,0,0,0,0,0,0,0,0,0,0,0,0,0,0,0,0,0,0,0,0,0,0,0,0,0,0,0,0,0,0,0,0,0,0,0.0,6.55,0.0,0,104449
1780259615624,-19.8729,-43.9747,0.0,0.000488,-0.001098,-390.32000000000005,28.770000000000003,432.11,0,0,0,0,0,0,0,0,0,0,0,0,0,0,0,0,0,0,0,0,0,0,0,0,0,0,0,0,0,0,0,0,0,0,0,0,0,0,0,0,0,0,0,0,0,0,0,0,0.0,6.55,0.0,0,104732
1780259615707,-19.8729,-43.9747,0.000122,0.000488,-0.000976,-390.32000000000005,28.770000000000003,432.11,0,0,0,0,0,0,0,0,0,0,0,0,0,0,0,0,0,0,0,0,0,0,0,0,0,0,0,0,0,0,0,0,0,0,0,0,0,0,0,0,0,0,0,0,0,0,0,0,0.0,6.55,0.0,0,104815
1780259616123,-19.8729,-43.9747,0.000122,0.000488,-0.000976,-390.32000000000005,28.770000000000003,432.11,0,0,0,0,0,0,0,0,0,0,0,0,0,0,0,0,0,0,0,0,0,0,0,0,0,0,0,0,0,0,0,0,0,0,0,0,0,0,0,0,0,0,0,0,0,0,0,0,0.0,6.55,0.0,0,105231
1780259616457,-19.8729,-43.9747,0.0,0.000488,-0.0008539999999999999,-390.32000000000005,28.770000000000003,432.11,0,0,0,0,0,0,0,0,0,0,0,0,0,0,0,0,0,0,0,0,0,0,0,0,0,0,0,0,0,0,0,0,0,0,0,0,0,0,0,0,0,0,0,0,0,0,0,0,0.0,6.55,0.0,0,105565
1780259616608,-19.8729,-43.9747,0.0,0.000488,-0.0008539999999999999,-390.32000000000005,28.770000000000003,432.11,0,0,0,0,0,0,0,0,0,0,0,0,0,0,0,0,0,0,0,0,0,0,0,0,0,0,0,0,0,0,0,0,0,0,0,0,0,0,0,0,0,0,0,0,0,0,0,0,0.0,6.55,0.0,0,105716
1780259616673,-19.8729,-43.9747,0.0,0.000488,-0.0008539999999999999,-388.36,23.310000000000002,435.40000000000003,0,0,0,0,0,0,0,0,0,0,0,0,0,0,0,0,0,0,0,0,0,0,0,0,0,0,0,0,0,0,0,0,0,0,0,0,0,0,0,0,0,0,0,0,0,0,0,0,0.0,6.55,0.0,0,105781
1780259617274,-19.8729,-43.9747,0.0,0.000488,-0.0008539999999999999,-387.45000000000005,22.05,434.77000000000004,0,0,0,0,0,0,0,0,0,0,0,0,0,0,0,0,0,0,0,0,0,0,0,0,0,0,0,0,0,0,0,0,0,0,0,0,0,0,0,0,0,0,0,0,0,0,0,0,0.0,6.55,0.0,0,106382
1780259617357,-19.8729,-43.9747,0.0,0.000488,-0.0008539999999999999,-390.32000000000005,21.14,435.82000000000005,0,0,0,0,0,0,0,0,0,0,0,0,0,0,0,0,0,0,0,0,0,0,0,0,0,0,0,0,0,0,0,0,0,0,0,0,0,0,0,0,0,0,0,0,0,0,0,0,0.0,6.55,0.0,0,106465
1780259617890,-19.8729,-43.9747,0.0,0.000488,-0.0008539999999999999,-390.6,22.750000000000004,435.26000000000005,0,0,0,0,0,0,0,0,0,0,0,0,0,0,0,0,0,0,0,0,0,0,0,0,0,0,0,0,0,0,0,0,0,0,0,0,0,0,0,0,0,0,0,0,0,0,0,0,0.0,6.55,0.0,0,106998
1780259618157,-19.8729,-43.9747,-0.000122,0.000366,-0.000732,-390.6,22.750000000000004,435.26000000000005,0,0,0,0,0,0,0,0,0,0,0,0,0,0,0,0,0,0,0,0,0,0,0,0,0,0,0,0,0,0,0,0,0,0,0,0,0,0,0,0,0,0,0,0,0,0,0,0,0.0,6.55,0.0,0,107265
1780259618324,-19.8729,-43.9747,-0.000122,0.000366,-0.000732,-388.08000000000004,21.700000000000003,437.43000000000006,0,0,0,0,0,0,0,0,0,0,0,0,0,0,0,0,0,0,0,0,0,0,0,0,0,0,0,0,0,0,0,0,0,0,0,0,0,0,0,0,0,0,0,0,0,0,0,0,0.0,6.55,0.0,0,107432
1780259618440,-19.8729,-43.9747,-0.000122,0.000366,-0.000732,-390.04,24.990000000000002,434.14000000000004,0,0,0,0,0,0,0,0,0,0,0,0,0,0,0,0,0,0,0,0,0,0,0,0,0,0,0,0,0,0,0,0,0,0,0,0,0,0,0,0,0,0,0,0,0,0,0,0,0.0,6.55,0.0,0,107548
1780259618573,-19.8729,-43.9747,-0.000122,0.000366,-0.000732,-390.04,24.990000000000002,434.14000000000004,0,0,0,0,0,0,0,0,0,0,0,0,0,0,0,0,0,0,0,0,0,0,0,0,0,0,0,0,0,0,0,0,0,0,0,0,0,0,0,0,0,0,0,0,0,0,0,0,0.0,6.55,0.0,0,107681
1780259618973,-19.8729,-43.9747,-0.000122,0.000366,-0.000732,-390.04,24.990000000000002,434.14000000000004,0,0,0,0,0,0,0,0,0,0,0,0,0,0,0,0,0,0,0,0,0,0,0,0,0,0,0,0,0,0,0,0,0,0,0,0,0,0,0,0,0,0,0,0,0,0,0,0,0.0,6.55,0.0,0,108081
1780259619408,-19.8729,-43.9747,-0.000122,0.000244,-0.000976,-390.04,24.990000000000002,434.14000000000004,0,0,0,0,0,0,0,0,0,0,0,0,0,0,0,0,0,0,0,0,0,0,0,0,0,0,0,0,0,0,0,0,0,0,0,0,0,0,0,0,0,0,0,0,0,0,0,0,0.0,6.55,0.0,0,108516
1780259619491,-19.8729,-43.9747,-0.000122,0.000244,-0.000976,-388.50000000000006,23.660000000000004,434.28000000000003,0,0,0,0,0,0,0,0,0,0,0,0,0,0,0,0,0,0,0,0,0,0,0,0,0,0,0,0,0,0,0,0,0,0,0,0,0,0,0,0,0,0,0,0,0,0,0,0,0.0,6.55,0.0,0,108599
1780259619541,-19.8729,-43.9747,-0.000122,0.000488,-0.001098,-388.50000000000006,23.660000000000004,434.28000000000003,0,0,0,0,0,0,0,0,0,0,0,0,0,0,0,0,0,0,0,0,0,0,0,0,0,0,0,0,0,0,0,0,0,0,0,0,0,0,0,0,0,0,0,0,0,0,0,0,0.0,6.55,0.0,0,108649
1780259626940,-19.8729,-43.9747,-0.000122,0.000488,-0.001098,-388.50000000000006,23.660000000000004,434.28000000000003,0,0,0,0,0,0,0,0,0,0,0,0,0,0,0,0,0,0,0,0,0,0,0,0,0,0,0,0,0,0,0,0,0,0,0,0,0,0,0,0,0,0,0,0,0,0,0,0,0.0,6.55,0.0,0,116048
1780259627039,-19.8729,-43.9747,-0.000122,0.00061,-0.0008539999999999999,-388.50000000000006,23.660000000000004,434.28000000000003,0,0,0,0,0,0,0,0,0,0,0,0,0,0,0,0,0,0,0,0,0,0,0,0,0,0,0,0,0,0,0,0,0,0,0,0,0,0,0,0,0,0,0,0,0,0,0,0,0.0,6.55,0.0,0,116147
1780259627209,-19.8729,-43.9747,-0.000122,0.00061,-0.0008539999999999999,-390.6,20.160000000000004,436.45000000000005,0,0,0,0,0,0,0,0,0,0,0,0,0,0,0,0,0,0,0,0,0,0,0,0,0,0,0,0,0,0,0,0,0,0,0,0,0,0,0,0,0,0,0,0,0,0,0,0,0.0,6.55,0.0,0,116317
1780259627324,-19.8729,-43.9747,0.0,0.000366,-0.000976,-390.6,20.160000000000004,436.45000000000005,0,0,0,0,0,0,0,0,0,0,0,0,0,0,0,0,0,0,0,0,0,0,0,0,0,0,0,0,0,0,0,0,0,0,0,0,0,0,0,0,0,0,0,0,0,0,0,0,0.0,6.55,0.0,0,116432
1780259628056,-19.8729,-43.9747,0.0,0.000366,-0.000976,-390.6,20.160000000000004,436.45000000000005,0,0,0,0,0,0,0,0,0,0,0,0,0,0,0,0,0,0,0,0,0,0,0,0,0,0,0,0,0,0,0,0,0,0,0,0,0,0,0,0,0,0,0,0,0,0,0,0,0.0,6.55,0.0,0,117164
1780259628106,-19.8729,-43.9747,0.0,0.000366,-0.000976,-390.6,20.160000000000004,436.45000000000005,0,0,0,0,0,0,0,0,0,0,0,0,0,0,0,0,0,0,0,0,0,0,0,0,0,0,0,0,0,0,0,0,0,0,0,0,0,0,0,0,0,0,0,0,0,0,0,0,0.0,6.55,0.0,0,117214
1780259628139,-19.8729,-43.9747,0.0,0.000366,-0.000976,-389.41,24.64,434.84000000000003,0,0,0,0,0,0,0,0,0,0,0,0,0,0,0,0,0,0,0,0,0,0,0,0,0,0,0,0,0,0,0,0,0,0,0,0,0,0,0,0,0,0,0,0,0,0,0,0,0.0,6.55,0.0,0,117247
1780259628256,-19.8729,-43.9747,0.0,0.000732,-0.000732,-389.41,24.64,434.84000000000003,0,0,0,0,0,0,0,0,0,0,0,0,0,0,0,0,0,0,0,0,0,0,0,0,0,0,0,0,0,0,0,0,0,0,0,0,0,0,0,0,0,0,0,0,0,0,0,0,0.0,6.55,0.0,0,117364
1780259628373,-19.8729,-43.9747,0.0,0.000732,-0.000732,-389.41,24.64,434.84000000000003,0,0,0,0,0,0,0,0,0,0,0,0,0,0,0,0,0,0,0,0,0,0,0,0,0,0,0,0,0,0,0,0,0,0,0,0,0,0,0,0,0,0,0,0,0,0,0,0,0.0,6.55,0.0,0,117481
1780259628456,-19.8729,-43.9747,0.0,0.000732,-0.000732,-387.66,21.770000000000003,434.49000000000007,0,0,0,0,0,0,0,0,0,0,0,0,0,0,0,0,0,0,0,0,0,0,0,0,0,0,0,0,0,0,0,0,0,0,0,0,0,0,0,0,0,0,0,0,0,0,0,0,0.0,6.55,0.0,0,117564
1780259628923,-19.8729,-43.9747,0.0,0.000732,-0.000732,-387.66,21.770000000000003,434.49000000000007,0,0,0,0,0,0,0,0,0,0,0,0,0,0,0,0,0,0,0,0,0,0,0,0,0,0,0,0,0,0,0,0,0,0,0,0,0,0,0,0,0,0,0,0,0,0,0,0,0.0,6.55,0.0,0,118031
1780259629139,-19.8729,-43.9747,0.0,0.000732,-0.000732,-387.66,21.770000000000003,434.49000000000007,0,0,0,0,0,0,0,0,0,0,0,0,0,0,0,0,0,0,0,0,0,0,0,0,0,0,0,0,0,0,0,0,0,0,0,0,0,0,0,0,0,0,0,0,0,0,0,0,0.0,6.55,0.0,0,118247
1780259629322,-19.8729,-43.9747,0.0,0.000732,-0.000732,-387.66,21.770000000000003,434.49000000000007,0,0,0,0,0,0,0,0,0,0,0,0,0,0,0,0,0,0,0,0,0,0,0,0,0,0,0,0,0,0,0,0,0,0,0,0,0,0,0,0,0,0,0,0,0,0,0,0,0.0,6.55,0.0,0,118430
1780259629657,-19.8729,-43.9747,0.0,0.000488,-0.000976,-387.66,21.770000000000003,434.49000000000007,0,0,0,0,0,0,0,0,0,0,0,0,0,0,0,0,0,0,0,0,0,0,0,0,0,0,0,0,0,0,0,0,0,0,0,0,0,0,0,0,0,0,0,0,0,0,0,0,0.0,6.55,0.0,0,118765
1780259629706,-19.8729,-43.9747,0.0,0.000488,-0.000976,-387.66,21.770000000000003,434.49000000000007,0,0,0,0,0,0,0,0,0,0,0,0,0,0,0,0,0,0,0,0,0,0,0,0,0,0,0,0,0,0,0,0,0,0,0,0,0,0,0,0,0,0,0,0,0,0,0,0,0.0,6.55,0.0,0,118814
1780259629740,-19.8729,-43.9747,0.0,0.000488,-0.000976,-390.04,22.330000000000002,436.1,0,0,0,0,0,0,0,0,0,0,0,0,0,0,0,0,0,0,0,0,0,0,0,0,0,0,0,0,0,0,0,0,0,0,0,0,0,0,0,0,0,0,0,0,0,0,0,0,0.0,6.55,0.0,0,118848
1780259631272,-19.8729,-43.9747,0.0,0.000488,-0.000976,-389.90000000000003,22.610000000000003,434.84000000000003,0,0,0,0,0,0,0,0,0,0,0,0,0,0,0,0,0,0,0,0,0,0,0,0,0,0,0,0,0,0,0,0,0,0,0,0,0,0,0,0,0,0,0,0,0,0,0,0,0.0,6.55,0.0,0,120380
1780259631638,-19.8729,-43.9747,0.0,0.000732,-0.001098,-389.90000000000003,22.610000000000003,434.84000000000003,0,0,0,0,0,0,0,0,0,0,0,0,0,0,0,0,0,0,0,0,0,0,0,0,0,0,0,0,0,0,0,0,0,0,0,0,0,0,0,0,0,0,0,0,0,0,0,0,0.0,6.55,0.0,0,120746
1780259631806,-19.8729,-43.9747,0.0,0.000732,-0.001098,-388.78000000000003,20.860000000000003,435.68000000000006,0,0,0,0,0,0,0,0,0,0,0,0,0,0,0,0,0,0,0,0,0,0,0,0,0,0,0,0,0,0,0,0,0,0,0,0,0,0,0,0,0,0,0,0,0,0,0,0,0.0,6.55,0.0,0,120914
1780259631924,-19.8729,-43.9747,0.0,0.000732,-0.001098,-389.20000000000005,25.270000000000003,439.53000000000003,0,0,0,0,0,0,0,0,0,0,0,0,0,0,0,0,0,0,0,0,0,0,0,0,0,0,0,0,0,0,0,0,0,0,0,0,0,0,0,0,0,0,0,0,0,0,0,0,0.0,6.55,0.0,0,121032
1780259632256,-19.8729,-43.9747,0.0,0.000732,-0.001098,-389.20000000000005,25.270000000000003,439.53000000000003,0,0,0,0,0,0,0,0,0,0,0,0,0,0,0,0,0,0,0,0,0,0,0,0,0,0,0,0,0,0,0,0,0,0,0,0,0,0,0,0,0,0,0,0,0,0,0,0,0.0,6.55,0.0,0,121364
1780259632306,-19.8729,-43.9747,0.0,0.000732,-0.001098,-389.20000000000005,25.270000000000003,439.53000000000003,0,0,0,0,0,0,0,0,0,0,0,0,0,0,0,0,0,0,0,0,0,0,0,0,0,0,0,0,0,0,0,0,0,0,0,0,0,0,0,0,0,0,0,0,0,0,0,0,0.0,6.55,0.0,0,121414
1780259632458,-19.8729,-43.9747,0.0,0.000488,-0.001098,-389.20000000000005,25.270000000000003,439.53000000000003,0,0,0,0,0,0,0,0,0,0,0,0,0,0,0,0,0,0,0,0,0,0,0,0,0,0,0,0,0,0,0,0,0,0,0,0,0,0,0,0,0,0,0,0,0,0,0,0,0.0,6.55,0.0,0,121566
1780259632589,-19.8729,-43.9747,0.0,0.000488,-0.0008539999999999999,-389.20000000000005,25.270000000000003,439.53000000000003,0,0,0,0,0,0,0,0,0,0,0,0,0,0,0,0,0,0,0,0,0,0,0,0,0,0,0,0,0,0,0,0,0,0,0,0,0,0,0,0,0,0,0,0,0,0,0,0,0.0,6.55,0.0,0,121697
1780259632839,-19.8729,-43.9747,0.0,0.00061,-0.0008539999999999999,-389.20000000000005,25.270000000000003,439.53000000000003,0,0,0,0,0,0,0,0,0,0,0,0,0,0,0,0,0,0,0,0,0,0,0,0,0,0,0,0,0,0,0,0,0,0,0,0,0,0,0,0,0,0,0,0,0,0,0,0,0.0,6.55,0.0,0,121947
1780259632872,-19.8729,-43.9747,0.0,0.00061,-0.0008539999999999999,-387.24,22.12,434.49000000000007,0,0,0,0,0,0,0,0,0,0,0,0,0,0,0,0,0,0,0,0,0,0,0,0,0,0,0,0,0,0,0,0,0,0,0,0,0,0,0,0,0,0,0,0,0,0,0,0,0.0,6.55,0.0,0,121980
1780259632923,-19.8729,-43.9747,0.0,0.00061,-0.0008539999999999999,-389.20000000000005,21.840000000000003,436.1,0,0,0,0,0,0,0,0,0,0,0,0,0,0,0,0,0,0,0,0,0,0,0,0,0,0,0,0,0,0,0,0,0,0,0,0,0,0,0,0,0,0,0,0,0,0,0,0,0.0,6.55,0.0,0,122031
1780259633006,-19.8729,-43.9747,0.0,0.00061,-0.0008539999999999999,-389.90000000000003,21.000000000000004,437.92,0,0,0,0,0,0,0,0,0,0,0,0,0,0,0,0,0,0,0,0,0,0,0,0,0,0,0,0,0,0,0,0,0,0,0,0,0,0,0,0,0,0,0,0,0,0,0,0,0.0,6.55,0.0,0,122114
1780259633373,-19.8729,-43.9747,-0.000122,0.000366,-0.001098,-389.90000000000003,21.000000000000004,437.92,0,0,0,0,0,0,0,0,0,0,0,0,0,0,0,0,0,0,0,0,0,0,0,0,0,0,0,0,0,0,0,0,0,0,0,0,0,0,0,0,0,0,0,0,0,0,0,0,0.0,6.55,0.0,0,122481
1780259633455,-19.8729,-43.9747,-0.000122,0.000366,-0.001098,-389.90000000000003,21.000000000000004,437.92,0,0,0,0,0,0,0,0,0,0,0,0,0,0,0,0,0,0,0,0,0,0,0,0,0,0,0,0,0,0,0,0,0,0,0,0,0,0,0,0,0,0,0,0,0,0,0,0,0.0,6.55,0.0,0,122563
1780259633572,-19.8729,-43.9747,0.0,0.000732,-0.001098,-389.90000000000003,21.000000000000004,437.92,0,0,0,0,0,0,0,0,0,0,0,0,0,0,0,0,0,0,0,0,0,0,0,0,0,0,0,0,0,0,0,0,0,0,0,0,0,0,0,0,0,0,0,0,0,0,0,0,0.0,6.55,0.0,0,122680
1780259633872,-19.8729,-43.9747,0.0,0.000488,-0.001098,-389.90000000000003,21.000000000000004,437.92,0,0,0,0,0,0,0,0,0,0,0,0,0,0,0,0,0,0,0,0,0,0,0,0,0,0,0,0,0,0,0,0,0,0,0,0,0,0,0,0,0,0,0,0,0,0,0,0,0.0,6.55,0.0,0,122980
1780259634122,-19.8729,-43.9747,0.0,0.000488,-0.001098,-389.90000000000003,21.000000000000004,437.92,0,0,0,0,0,0,0,0,0,0,0,0,0,0,0,0,0,0,0,0,0,0,0,0,0,0,0,0,0,0,0,0,0,0,0,0,0,0,0,0,0,0,0,0,0,0,0,0,0.0,6.55,0.0,0,123230
1780259634274,-19.8729,-43.9747,0.0,0.000488,-0.001098,-387.52000000000004,24.01,434.14000000000004,0,0,0,0,0,0,0,0,0,0,0,0,0,0,0,0,0,0,0,0,0,0,0,0,0,0,0,0,0,0,0,0,0,0,0,0,0,0,0,0,0,0,0,0,0,0,0,0,0.0,6.55,0.0,0,123382
1780259634440,-19.8729,-43.9747,0.000122,0.000732,-0.001098,-387.52000000000004,24.01,434.14000000000004,0,0,0,0,0,0,0,0,0,0,0,0,0,0,0,0,0,0,0,0,0,0,0,0,0,0,0,0,0,0,0,0,0,0,0,0,0,0,0,0,0,0,0,0,0,0,0,0,0.0,6.55,0.0,0,123548
1780259634889,-19.8729,-43.9747,0.000122,0.000732,-0.001098,-389.90000000000003,21.700000000000003,436.31000000000006,0,0,0,0,0,0,0,0,0,0,0,0,0,0,0,0,0,0,0,0,0,0,0,0,0,0,0,0,0,0,0,0,0,0,0,0,0,0,0,0,0,0,0,0,0,0,0,0,0.0,6.55,0.0,0,123997
1780259635023,-19.8729,-43.9747,0.000122,0.000732,-0.001098,-389.90000000000003,21.700000000000003,436.31000000000006,0,0,0,0,0,0,0,0,0,0,0,0,0,0,0,0,0,0,0,0,0,0,0,0,0,0,0,0,0,0,0,0,0,0,0,0,0,0,0,0,0,0,0,0,0,0,0,0,0.0,6.55,0.0,0,124131
1780259635141,-19.8729,-43.9747,0.0,0.000488,-0.0008539999999999999,-389.90000000000003,21.700000000000003,436.31000000000006,0,0,0,0,0,0,0,0,0,0,0,0,0,0,0,0,0,0,0,0,0,0,0,0,0,0,0,0,0,0,0,0,0,0,0,0,0,0,0,0,0,0,0,0,0,0,0,0,0.0,6.55,0.0,0,124249
1780259635339,-19.8729,-43.9747,0.0,0.000488,-0.0008539999999999999,-387.52000000000004,22.12,434.49000000000007,0,0,0,0,0,0,0,0,0,0,0,0,0,0,0,0,0,0,0,0,0,0,0,0,0,0,0,0,0,0,0,0,0,0,0,0,0,0,0,0,0,0,0,0,0,0,0,0,0.0,6.55,0.0,0,124447
1780259635472,-19.8729,-43.9747,0.0,0.000488,-0.0008539999999999999,-388.22,22.470000000000002,433.72,0,0,0,0,0,0,0,0,0,0,0,0,0,0,0,0,0,0,0,0,0,0,0,0,0,0,0,0,0,0,0,0,0,0,0,0,0,0,0,0,0,0,0,0,0,0,0,0,0.0,6.55,0.0,0,124580
1780259635790,-19.8729,-43.9747,0.0,0.000488,-0.0008539999999999999,-389.97,22.820000000000004,436.94000000000005,0,0,0,0,0,0,0,0,0,0,0,0,0,0,0,0,0,0,0,0,0,0,0,0,0,0,0,0,0,0,0,0,0,0,0,0,0,0,0,0,0,0,0,0,0,0,0,0,0.0,6.55,0.0,0,124898
1780259635839,-19.8729,-43.9747,0.0,0.00061,-0.000976,-389.97,22.820000000000004,436.94000000000005,0,0,0,0,0,0,0,0,0,0,0,0,0,0,0,0,0,0,0,0,0,0,0,0,0,0,0,0,0,0,0,0,0,0,0,0,0,0,0,0,0,0,0,0,0,0,0,0,0.0,6.55,0.0,0,124947
1780259636039,-19.8729,-43.9747,0.0,0.000488,-0.0008539999999999999,-389.97,22.820000000000004,436.94000000000005,0,0,0,0,0,0,0,0,0,0,0,0,0,0,0,0,0,0,0,0,0,0,0,0,0,0,0,0,0,0,0,0,0,0,0,0,0,0,0,0,0,0,0,0,0,0,0,0,0.0,6.55,0.0,0,125147
1780259636089,-19.8729,-43.9746,0.0,0.000488,-0.0008539999999999999,-389.97,22.820000000000004,436.94000000000005,0,0,0,0,0,0,0,0,0,0,0,0,0,0,0,0,0,0,0,0,0,0,0,0,0,0,0,0,0,0,0,0,0,0,0,0,0,0,0,0,0,0,0,0,0,0,0,0,0.0,6.55,0.0,0,125197
1780259636324,-19.8729,-43.9746,0.0,0.000244,-0.0008539999999999999,-389.97,22.820000000000004,436.94000000000005,0,0,0,0,0,0,0,0,0,0,0,0,0,0,0,0,0,0,0,0,0,0,0,0,0,0,0,0,0,0,0,0,0,0,0,0,0,0,0,0,0,0,0,0,0,0,0,0,0.0,6.55,0.0,0,125432
1780259636622,-19.8727,-43.9746,0.0,0.000244,-0.0008539999999999999,-389.97,22.820000000000004,436.94000000000005,0,0,0,0,0,0,0,0,0,0,0,0,0,0,0,0,0,0,0,0,0,0,0,0,0,0,0,0,0,0,0,0,0,0,0,0,0,0,0,0,0,0,0,0,0,0,0,0,0.0,6.55,0.0,0,125730
1780259636956,-19.8727,-43.9746,0.0,0.000366,-0.000976,-389.97,22.820000000000004,436.94000000000005,0,0,0,0,0,0,0,0,0,0,0,0,0,0,0,0,0,0,0,0,0,0,0,0,0,0,0,0,0,0,0,0,0,0,0,0,0,0,0,0,0,0,0,0,0,0,0,0,0.0,6.55,0.0,0,126064
1780259637140,-19.8727,-43.9746,0.0,0.000366,-0.000976,-389.62000000000006,22.19,435.54,0,0,0,0,0,0,0,0,0,0,0,0,0,0,0,0,0,0,0,0,0,0,0,0,0,0,0,0,0,0,0,0,0,0,0,0,0,0,0,0,0,0,0,0,0,0,0,0,0.0,6.55,0.0,0,126248
1780259637223,-19.8727,-43.9746,-0.000122,0.00061,-0.001098,-389.62000000000006,22.19,435.54,0,0,0,0,0,0,0,0,0,0,0,0,0,0,0,0,0,0,0,0,0,0,0,0,0,0,0,0,0,0,0,0,0,0,0,0,0,0,0,0,0,0,0,0,0,0,0,0,0.0,6.55,0.0,0,126331
1780259637707,-19.8727,-43.9746,-0.000122,0.00061,-0.001098,-389.62000000000006,21.910000000000004,435.19000000000005,0,0,0,0,0,0,0,0,0,0,0,0,0,0,0,0,0,0,0,0,0,0,0,0,0,0,0,0,0,0,0,0,0,0,0,0,0,0,0,0,0,0,0,0,0,0,0,0,0.0,6.55,0.0,0,126815
1780259637755,-19.8727,-43.9746,-0.000122,0.00061,-0.001098,-389.62000000000006,21.910000000000004,435.19000000000005,0,0,0,0,0,0,0,0,0,0,0,0,0,0,0,0,0,0,0,0,0,0,0,0,0,0,0,0,0,0,0,0,0,0,0,0,0,0,0,0,0,0,0,0,0,0,0,0,0.0,6.55,0.0,0,126863
1780259638089,-19.8727,-43.9746,-0.000122,0.00061,-0.001098,-389.55,23.1,436.80000000000007,0,0,0,0,0,0,0,0,0,0,0,0,0,0,0,0,0,0,0,0,0,0,0,0,0,0,0,0,0,0,0,0,0,0,0,0,0,0,0,0,0,0,0,0,0,0,0,0,0.0,6.55,0.0,0,127197
1780259638173,-19.8727,-43.9746,-0.000122,0.00061,-0.001098,-389.55,23.1,436.80000000000007,0,0,0,0,0,0,0,0,0,0,0,0,0,0,0,0,0,0,0,0,0,0,0,0,0,0,0,0,0,0,0,0,0,0,0,0,0,0,0,0,0,0,0,0,0,0,0,0,0.0,6.55,0.0,0,127281
1780259638491,-19.8727,-43.9746,0.0,0.000732,-0.000976,-389.55,23.1,436.80000000000007,0,0,0,0,0,0,0,0,0,0,0,0,0,0,0,0,0,0,0,0,0,0,0,0,0,0,0,0,0,0,0,0,0,0,0,0,0,0,0,0,0,0,0,0,0,0,0,0,0.0,6.55,0.0,0,127599
1780259638622,-19.8727,-43.9746,0.0,0.000732,-0.000976,-389.55,23.1,436.80000000000007,0,0,0,0,0,0,0,0,0,0,0,0,0,0,0,0,0,0,0,0,0,0,0,0,0,0,0,0,0,0,0,0,0,0,0,0,0,0,0,0,0,0,0,0,0,0,0,0,0.0,6.55,0.0,0,127730
1780259638756,-19.8727,-43.9746,0.0,0.000732,-0.000976,-389.55,23.1,436.80000000000007,0,0,0,0,0,0,0,0,0,0,0,0,0,0,0,0,0,0,0,0,0,0,0,0,0,0,0,0,0,0,0,0,0,0,0,0,0,0,0,0,0,0,0,0,0,0,0,0,0.0,6.55,0.0,0,127864
1780259638989,-19.8727,-43.9746,-0.000122,0.00061,-0.000976,-389.55,23.1,436.80000000000007,0,0,0,0,0,0,0,0,0,0,0,0,0,0,0,0,0,0,0,0,0,0,0,0,0,0,0,0,0,0,0,0,0,0,0,0,0,0,0,0,0,0,0,0,0,0,0,0,0.0,6.55,0.0,0,128097
1780259639156,-19.8727,-43.9746,-0.000122,0.000488,-0.000732,-389.55,23.1,436.80000000000007,0,0,0,0,0,0,0,0,0,0,0,0,0,0,0,0,0,0,0,0,0,0,0,0,0,0,0,0,0,0,0,0,0,0,0,0,0,0,0,0,0,0,0,0,0,0,0,0,0.0,6.55,0.0,0,128264
1780259639522,-19.8727,-43.9746,0.0,0.000366,-0.000976,-389.55,23.1,436.80000000000007,0,0,0,0,0,0,0,0,0,0,0,0,0,0,0,0,0,0,0,0,0,0,0,0,0,0,0,0,0,0,0,0,0,0,0,0,0,0,0,0,0,0,0,0,0,0,0,0,0.0,6.55,0.0,0,128630
1780259639772,-19.8727,-43.9746,0.0,0.000366,-0.000976,-392.28000000000003,20.790000000000003,437.85,0,0,0,0,0,0,0,0,0,0,0,0,0,0,0,0,0,0,0,0,0,0,0,0,0,0,0,0,0,0,0,0,0,0,0,0,0,0,0,0,0,0,0,0,0,0,0,0,0.0,6.55,0.0,0,128880
1780259639990,-19.8727,-43.9746,0.000122,0.000732,-0.00122,-392.28000000000003,20.790000000000003,437.85,0,0,0,0,0,0,0,0,0,0,0,0,0,0,0,0,0,0,0,0,0,0,0,0,0,0,0,0,0,0,0,0,0,0,0,0,0,0,0,0,0,0,0,0,0,0,0,0,0.0,6.55,0.0,0,129098
1780259640022,-19.8727,-43.9746,0.000122,0.000732,-0.00122,-388.78000000000003,25.900000000000002,431.34000000000003,0,0,0,0,0,0,0,0,0,0,0,0,0,0,0,0,0,0,0,0,0,0,0,0,0,0,0,0,0,0,0,0,0,0,0,0,0,0,0,0,0,0,0,0,0,0,0,0,0.0,6.55,0.0,0,129130
1780259640272,-19.8727,-43.9746,0.000122,0.000732,-0.00122,-388.50000000000006,23.380000000000003,435.82000000000005,0,0,0,0,0,0,0,0,0,0,0,0,0,0,0,0,0,0,0,0,0,0,0,0,0,0,0,0,0,0,0,0,0,0,0,0,0,0,0,0,0,0,0,0,0,0,0,0,0.0,6.55,0.0,0,129380
1780259640356,-19.8727,-43.9746,-0.000122,0.000366,-0.000976,-388.50000000000006,23.380000000000003,435.82000000000005,0,0,0,0,0,0,0,0,0,0,0,0,0,0,0,0,0,0,0,0,0,0,0,0,0,0,0,0,0,0,0,0,0,0,0,0,0,0,0,0,0,0,0,0,0,0,0,0,0.0,6.55,0.0,0,129464
1780259640439,-19.8727,-43.9746,-0.000122,0.000366,-0.000976,-391.51000000000005,22.750000000000004,435.47,0,0,0,0,0,0,0,0,0,0,0,0,0,0,0,0,0,0,0,0,0,0,0,0,0,0,0,0,0,0,0,0,0,0,0,0,0,0,0,0,0,0,0,0,0,0,0,0,0.0,6.55,0.0,0,129547
1780259640472,-19.8727,-43.9746,0.0,0.000488,-0.0008539999999999999,-391.51000000000005,22.750000000000004,435.47,0,0,0,0,0,0,0,0,0,0,0,0,0,0,0,0,0,0,0,0,0,0,0,0,0,0,0,0,0,0,0,0,0,0,0,0,0,0,0,0,0,0,0,0,0,0,0,0,0.0,6.55,0.0,0,129580
1780259640605,-19.8727,-43.9746,0.0,0.000488,-0.0008539999999999999,-387.73,23.1,438.55000000000007,0,0,0,0,0,0,0,0,0,0,0,0,0,0,0,0,0,0,0,0,0,0,0,0,0,0,0,0,0,0,0,0,0,0,0,0,0,0,0,0,0,0,0,0,0,0,0,0,0.0,6.55,0.0,0,129713
1780259640772,-19.8727,-43.9746,0.0,0.000488,-0.0008539999999999999,-387.73,23.1,438.55000000000007,0,0,0,0,0,0,0,0,0,0,0,0,0,0,0,0,0,0,0,0,0,0,0,0,0,0,0,0,0,0,0,0,0,0,0,0,0,0,0,0,0,0,0,0,0,0,0,0,0.0,6.55,0.0,0,129880
1780259640841,-19.8727,-43.9746,0.0,0.000244,-0.000732,-387.73,23.1,438.55000000000007,0,0,0,0,0,0,0,0,0,0,0,0,0,0,0,0,0,0,0,0,0,0,0,0,0,0,0,0,0,0,0,0,0,0,0,0,0,0,0,0,0,0,0,0,0,0,0,0,0.0,6.55,0.0,0,129949
1780259640889,-19.8727,-43.9746,-0.000122,0.00061,-0.0008539999999999999,-387.73,23.1,438.55000000000007,0,0,0,0,0,0,0,0,0,0,0,0,0,0,0,0,0,0,0,0,0,0,0,0,0,0,0,0,0,0,0,0,0,0,0,0,0,0,0,0,0,0,0,0,0,0,0,0,0.0,6.55,0.0,0,129997
1780259640972,-19.8727,-43.9746,-0.000122,0.00061,-0.0008539999999999999,-387.73,23.1,438.55000000000007,0,0,0,0,0,0,0,0,0,0,0,0,0,0,0,0,0,0,0,0,0,0,0,0,0,0,0,0,0,0,0,0,0,0,0,0,0,0,0,0,0,0,0,0,0,0,0,0,0.0,6.55,0.0,0,130080
1780259641338,-19.8727,-43.9746,-0.000122,0.00061,-0.0008539999999999999,-389.20000000000005,23.17,434.84000000000003,0,0,0,0,0,0,0,0,0,0,0,0,0,0,0,0,0,0,0,0,0,0,0,0,0,0,0,0,0,0,0,0,0,0,0,0,0,0,0,0,0,0,0,0,0,0,0,0,0.0,6.55,0.0,0,130446
1780259641472,-19.8727,-43.9746,-0.000122,0.00061,-0.0008539999999999999,-389.90000000000003,20.930000000000003,436.03000000000003,0,0,0,0,0,0,0,0,0,0,0,0,0,0,0,0,0,0,0,0,0,0,0,0,0,0,0,0,0,0,0,0,0,0,0,0,0,0,0,0,0,0,0,0,0,0,0,0,0.0,6.55,0.0,0,130580
1780259641556,-19.8727,-43.9746,-0.000122,0.00061,-0.0008539999999999999,-389.55,22.96,436.45000000000005,0,0,0,0,0,0,0,0,0,0,0,0,0,0,0,0,0,0,0,0,0,0,0,0,0,0,0,0,0,0,0,0,0,0,0,0,0,0,0,0,0,0,0,0,0,0,0,0,0.0,6.55,0.0,0,130664
1780259641923,-19.8727,-43.9746,0.0,0.000244,-0.0008539999999999999,-389.55,22.96,436.45000000000005,0,0,0,0,0,0,0,0,0,0,0,0,0,0,0,0,0,0,0,0,0,0,0,0,0,0,0,0,0,0,0,0,0,0,0,0,0,0,0,0,0,0,0,0,0,0,0,0,0.0,6.55,0.0,0,131031
1780259642039,-19.8727,-43.9746,0.000122,0.00061,-0.000976,-389.55,22.96,436.45000000000005,0,0,0,0,0,0,0,0,0,0,0,0,0,0,0,0,0,0,0,0,0,0,0,0,0,0,0,0,0,0,0,0,0,0,0,0,0,0,0,0,0,0,0,0,0,0,0,0,0.0,6.55,0.0,0,131147
1780259642255,-19.8727,-43.9746,0.000122,0.00061,-0.000976,-387.17,20.160000000000004,435.75000000000006,0,0,0,0,0,0,0,0,0,0,0,0,0,0,0,0,0,0,0,0,0,0,0,0,0,0,0,0,0,0,0,0,0,0,0,0,0,0,0,0,0,0,0,0,0,0,0,0,0.0,6.55,0.0,0,131363
1780259642339,-19.8727,-43.9746,0.000122,0.00061,-0.000976,-387.73,21.35,437.50000000000006,0,0,0,0,0,0,0,0,0,0,0,0,0,0,0,0,0,0,0,0,0,0,0,0,0,0,0,0,0,0,0,0,0,0,0,0,0,0,0,0,0,0,0,0,0,0,0,0,0.0,6.55,0.0,0,131447
1780259642455,-19.8727,-43.9746,0.000122,0.00061,-0.000976,-387.73,21.35,437.50000000000006,0,0,0,0,0,0,0,0,0,0,0,0,0,0,0,0,0,0,0,0,0,0,0,0,0,0,0,0,0,0,0,0,0,0,0,0,0,0,0,0,0,0,0,0,0,0,0,0,0.0,6.55,0.0,0,131563
1780259642491,-19.8727,-43.9746,0.0,0.00061,-0.000976,-387.73,21.35,437.50000000000006,0,0,0,0,0,0,0,0,0,0,0,0,0,0,0,0,0,0,0,0,0,0,0,0,0,0,0,0,0,0,0,0,0,0,0,0,0,0,0,0,0,0,0,0,0,0,0,0,0.0,6.55,0.0,0,131599
1780259642656,-19.8727,-43.9746,0.000122,0.00061,-0.000976,-387.73,21.35,437.50000000000006,0,0,0,0,0,0,0,0,0,0,0,0,0,0,0,0,0,0,0,0,0,0,0,0,0,0,0,0,0,0,0,0,0,0,0,0,0,0,0,0,0,0,0,0,0,0,0,0,0.0,6.55,0.0,0,131764
1780259642705,-19.8727,-43.9746,0.000122,0.00061,-0.000976,-388.22,21.000000000000004,434.98,0,0,0,0,0,0,0,0,0,0,0,0,0,0,0,0,0,0,0,0,0,0,0,0,0,0,0,0,0,0,0,0,0,0,0,0,0,0,0,0,0,0,0,0,0,0,0,0,0.0,6.55,0.0,0,131813
1780259642738,-19.8727,-43.9746,0.0,0.00061,-0.000976,-388.22,21.000000000000004,434.98,0,0,0,0,0,0,0,0,0,0,0,0,0,0,0,0,0,0,0,0,0,0,0,0,0,0,0,0,0,0,0,0,0,0,0,0,0,0,0,0,0,0,0,0,0,0,0,0,0.0,6.55,0.0,0,131846
1780259643155,-19.8727,-43.9746,0.000122,0.000488,-0.000976,-388.22,21.000000000000004,434.98,0,0,0,0,0,0,0,0,0,0,0,0,0,0,0,0,0,0,0,0,0,0,0,0,0,0,0,0,0,0,0,0,0,0,0,0,0,0,0,0,0,0,0,0,0,0,0,0,0.0,6.55,0.0,0,132263
1780259643572,-19.8727,-43.9746,0.000122,0.000488,-0.000976,-388.22,21.000000000000004,434.98,0,0,0,0,0,0,0,0,0,0,0,0,0,0,0,0,0,0,0,0,0,0,0,0,0,0,0,0,0,0,0,0,0,0,0,0,0,0,0,0,0,0,0,0,0,0,0,0,0.0,6.55,0.0,0,132680
1780259644105,-19.8727,-43.9746,0.000122,0.000488,-0.000976,-388.22,21.000000000000004,434.98,0,0,0,0,0,0,0,0,0,0,0,0,0,0,0,0,0,0,0,0,0,0,0,0,0,0,0,0,0,0,0,0,0,0,0,0,0,0,0,0,0,0,0,0,0,0,0,0,0.0,6.55,0.0,0,133213
1780259644223,-19.8727,-43.9746,0.0,0.000976,-0.001098,-388.22,21.000000000000004,434.98,0,0,0,0,0,0,0,0,0,0,0,0,0,0,0,0,0,0,0,0,0,0,0,0,0,0,0,0,0,0,0,0,0,0,0,0,0,0,0,0,0,0,0,0,0,0,0,0,0.0,6.55,0.0,0,133331
1780259644355,-19.8727,-43.9746,0.0,0.000976,-0.001098,-388.22,21.000000000000004,434.98,0,0,0,0,0,0,0,0,0,0,0,0,0,0,0,0,0,0,0,0,0,0,0,0,0,0,0,0,0,0,0,0,0,0,0,0,0,0,0,0,0,0,0,0,0,0,0,0,0.0,6.55,0.0,0,133463
1780259644389,-19.8727,-43.9746,0.000244,0.000488,-0.001098,-388.22,21.000000000000004,434.98,0,0,0,0,0,0,0,0,0,0,0,0,0,0,0,0,0,0,0,0,0,0,0,0,0,0,0,0,0,0,0,0,0,0,0,0,0,0,0,0,0,0,0,0,0,0,0,0,0.0,6.55,0.0,0,133497
1780259644605,-19.8727,-43.9746,0.000244,0.000488,-0.001098,-388.22,21.000000000000004,434.98,0,0,0,0,0,0,0,0,0,0,0,0,0,0,0,0,0,0,0,0,0,0,0,0,0,0,0,0,0,0,0,0,0,0,0,0,0,0,0,0,0,0,0,0,0,0,0,0,0.0,6.55,0.0,0,133713
1780259644689,-19.8727,-43.9746,0.000244,0.000488,-0.001098,-383.46000000000004,19.67,437.29,0,0,0,0,0,0,0,0,0,0,0,0,0,0,0,0,0,0,0,0,0,0,0,0,0,0,0,0,0,0,0,0,0,0,0,0,0,0,0,0,0,0,0,0,0,0,0,0,0.0,6.55,0.0,0,133797
1780259644722,-19.8727,-43.9746,0.000244,0.000488,-0.001098,-388.85,26.040000000000003,436.17,0,0,0,0,0,0,0,0,0,0,0,0,0,0,0,0,0,0,0,0,0,0,0,0,0,0,0,0,0,0,0,0,0,0,0,0,0,0,0,0,0,0,0,0,0,0,0,0,0.0,6.55,0.0,0,133830
1780259644889,-19.8727,-43.9746,0.000244,0.000488,-0.001098,-390.46000000000004,21.630000000000003,435.75000000000006,0,0,0,0,0,0,0,0,0,0,0,0,0,0,0,0,0,0,0,0,0,0,0,0,0,0,0,0,0,0,0,0,0,0,0,0,0,0,0,0,0,0,0,0,0,0,0,0,0.0,6.55,0.0,0,133997
1780259645106,-19.8727,-43.9746,0.000244,0.000488,-0.001098,-387.31000000000006,20.790000000000003,432.6,0,0,0,0,0,0,0,0,0,0,0,0,0,0,0,0,0,0,0,0,0,0,0,0,0,0,0,0,0,0,0,0,0,0,0,0,0,0,0,0,0,0,0,0,0,0,0,0,0.0,6.55,0.0,0,134214
1780259645672,-19.8727,-43.9746,-0.000244,0.000488,-0.000976,-387.31000000000006,20.790000000000003,432.6,0,0,0,0,0,0,0,0,0,0,0,0,0,0,0,0,0,0,0,0,0,0,0,0,0,0,0,0,0,0,0,0,0,0,0,0,0,0,0,0,0,0,0,0,0,0,0,0,0.0,6.55,0.0,0,134780
1780259645722,-19.8727,-43.9746,-0.000244,0.000488,-0.000976,-387.31000000000006,20.790000000000003,432.6,0,0,0,0,0,0,0,0,0,0,0,0,0,0,0,0,0,0,0,0,0,0,0,0,0,0,0,0,0,0,0,0,0,0,0,0,0,0,0,0,0,0,0,0,0,0,0,0,0.0,6.55,0.0,0,134830
1780259646039,-19.8727,-43.9746,-0.000244,0.000488,-0.000976,-388.08000000000004,18.900000000000002,433.72,0,0,0,0,0,0,0,0,0,0,0,0,0,0,0,0,0,0,0,0,0,0,0,0,0,0,0,0,0,0,0,0,0,0,0,0,0,0,0,0,0,0,0,0,0,0,0,0,0.0,6.55,0.0,0,135147
1780259646172,-19.8727,-43.9746,-0.000244,0.000488,-0.000976,-388.08000000000004,18.900000000000002,433.72,0,0,0,0,0,0,0,0,0,0,0,0,0,0,0,0,0,0,0,0,0,0,0,0,0,0,0,0,0,0,0,0,0,0,0,0,0,0,0,0,0,0,0,0,0,0,0,0,0.0,6.55,0.0,0,135280
1780259646205,-19.8727,-43.9746,-0.000122,0.000366,-0.000976,-388.08000000000004,18.900000000000002,433.72,0,0,0,0,0,0,0,0,0,0,0,0,0,0,0,0,0,0,0,0,0,0,0,0,0,0,0,0,0,0,0,0,0,0,0,0,0,0,0,0,0,0,0,0,0,0,0,0,0.0,6.55,0.0,0,135313
1780259646455,-19.8727,-43.9746,-0.000122,0.00061,-0.0008539999999999999,-388.08000000000004,18.900000000000002,433.72,0,0,0,0,0,0,0,0,0,0,0,0,0,0,0,0,0,0,0,0,0,0,0,0,0,0,0,0,0,0,0,0,0,0,0,0,0,0,0,0,0,0,0,0,0,0,0,0,0.0,6.55,0.0,0,135563
1780259646621,-19.8727,-43.9746,-0.000122,0.00061,-0.0008539999999999999,-388.08000000000004,18.900000000000002,433.72,0,0,0,0,0,0,0,0,0,0,0,0,0,0,0,0,0,0,0,0,0,0,0,0,0,0,0,0,0,0,0,0,0,0,0,0,0,0,0,0,0,0,0,0,0,0,0,0,0.0,6.55,0.0,0,135729
1780259646740,-19.8727,-43.9746,-0.000122,0.00061,-0.0008539999999999999,-389.48,23.03,433.72,0,0,0,0,0,0,0,0,0,0,0,0,0,0,0,0,0,0,0,0,0,0,0,0,0,0,0,0,0,0,0,0,0,0,0,0,0,0,0,0,0,0,0,0,0,0,0,0,0.0,6.55,0.0,0,135848
1780259646789,-19.8727,-43.9746,0.0,0.00061,-0.0008539999999999999,-389.48,23.03,433.72,0,0,0,0,0,0,0,0,0,0,0,0,0,0,0,0,0,0,0,0,0,0,0,0,0,0,0,0,0,0,0,0,0,0,0,0,0,0,0,0,0,0,0,0,0,0,0,0,0.0,6.55,0.0,0,135897
1780259646823,-19.8727,-43.9746,-0.000122,0.000366,-0.000976,-389.48,23.03,433.72,0,0,0,0,0,0,0,0,0,0,0,0,0,0,0,0,0,0,0,0,0,0,0,0,0,0,0,0,0,0,0,0,0,0,0,0,0,0,0,0,0,0,0,0,0,0,0,0,0.0,6.55,0.0,0,135931
1780259647038,-19.8727,-43.9746,-0.000122,0.000366,-0.000976,-392.07000000000005,21.630000000000003,434.42,0,0,0,0,0,0,0,0,0,0,0,0,0,0,0,0,0,0,0,0,0,0,0,0,0,0,0,0,0,0,0,0,0,0,0,0,0,0,0,0,0,0,0,0,0,0,0,0,0.0,6.55,0.0,0,136146
1780259647089,-19.8727,-43.9746,-0.000122,0.000366,-0.000976,-392.07000000000005,21.630000000000003,434.42,0,0,0,0,0,0,0,0,0,0,0,0,0,0,0,0,0,0,0,0,0,0,0,0,0,0,0,0,0,0,0,0,0,0,0,0,0,0,0,0,0,0,0,0,0,0,0,0,0.0,6.55,0.0,0,136197
1780259647239,-19.8727,-43.9746,-0.000122,0.000366,-0.001098,-392.07000000000005,21.630000000000003,434.42,0,0,0,0,0,0,0,0,0,0,0,0,0,0,0,0,0,0,0,0,0,0,0,0,0,0,0,0,0,0,0,0,0,0,0,0,0,0,0,0,0,0,0,0,0,0,0,0,0.0,6.55,0.0,0,136347
1780259647289,-19.8727,-43.9746,-0.000122,0.000366,-0.001098,-392.07000000000005,21.630000000000003,434.42,0,0,0,0,0,0,0,0,0,0,0,0,0,0,0,0,0,0,0,0,0,0,0,0,0,0,0,0,0,0,0,0,0,0,0,0,0,0,0,0,0,0,0,0,0,0,0,0,0.0,6.55,0.0,0,136397
1780259648355,-19.8727,-43.9746,-0.000122,0.000366,-0.001098,-389.62000000000006,22.26,437.22,0,0,0,0,0,0,0,0,0,0,0,0,0,0,0,0,0,0,0,0,0,0,0,0,0,0,0,0,0,0,0,0,0,0,0,0,0,0,0,0,0,0,0,0,0,0,0,0,0.0,6.55,0.0,0,137463
1780259648605,-19.8727,-43.9746,-0.000122,0.00061,-0.0008539999999999999,-389.62000000000006,22.26,437.22,0,0,0,0,0,0,0,0,0,0,0,0,0,0,0,0,0,0,0,0,0,0,0,0,0,0,0,0,0,0,0,0,0,0,0,0,0,0,0,0,0,0,0,0,0,0,0,0,0.0,6.55,0.0,0,137713
1780259649173,-19.8727,-43.9746,-0.000122,0.00061,-0.0008539999999999999,-389.41,21.700000000000003,436.38000000000005,0,0,0,0,0,0,0,0,0,0,0,0,0,0,0,0,0,0,0,0,0,0,0,0,0,0,0,0,0,0,0,0,0,0,0,0,0,0,0,0,0,0,0,0,0,0,0,0,0.0,6.55,0.0,0,138281
1780259649272,-19.8727,-43.9746,-0.000122,0.00061,-0.0008539999999999999,-389.41,21.700000000000003,436.38000000000005,0,0,0,0,0,0,0,0,0,0,0,0,0,0,0,0,0,0,0,0,0,0,0,0,0,0,0,0,0,0,0,0,0,0,0,0,0,0,0,0,0,0,0,0,0,0,0,0,0.0,6.55,0.0,0,138380
1780259649474,-19.8727,-43.9746,0.0,0.00061,-0.000732,-389.41,21.700000000000003,436.38000000000005,0,0,0,0,0,0,0,0,0,0,0,0,0,0,0,0,0,0,0,0,0,0,0,0,0,0,0,0,0,0,0,0,0,0,0,0,0,0,0,0,0,0,0,0,0,0,0,0,0.0,6.55,0.0,0,138582
1780259649588,-19.8727,-43.9746,0.0,0.00061,-0.0008539999999999999,-389.41,21.700000000000003,436.38000000000005,0,0,0,0,0,0,0,0,0,0,0,0,0,0,0,0,0,0,0,0,0,0,0,0,0,0,0,0,0,0,0,0,0,0,0,0,0,0,0,0,0,0,0,0,0,0,0,0,0.0,6.55,0.0,0,138696
1780259650338,-19.8727,-43.9746,0.0,0.00061,-0.0008539999999999999,-389.41,21.700000000000003,436.38000000000005,0,0,0,0,0,0,0,0,0,0,0,0,0,0,0,0,0,0,0,0,0,0,0,0,0,0,0,0,0,0,0,0,0,0,0,0,0,0,0,0,0,0,0,0,0,0,0,0,0.0,6.55,0.0,0,139446
1780259650371,-19.8727,-43.9746,0.0,0.00061,-0.0008539999999999999,-389.41,21.700000000000003,436.38000000000005,0,0,0,0,0,0,0,0,0,0,0,0,0,0,0,0,0,0,0,0,0,0,0,0,0,0,0,0,0,0,0,0,0,0,0,0,0,0,0,0,0,0,0,0,0,0,0,0,0.0,6.55,0.0,0,139479
1780259650539,-19.8727,-43.9746,0.0,0.00061,-0.0008539999999999999,-388.78000000000003,21.560000000000002,435.54,0,0,0,0,0,0,0,0,0,0,0,0,0,0,0,0,0,0,0,0,0,0,0,0,0,0,0,0,0,0,0,0,0,0,0,0,0,0,0,0,0,0,0,0,0,0,0,0,0.0,6.55,0.0,0,139647
1780259650704,-19.8727,-43.9746,0.0,0.00061,-0.0008539999999999999,-389.55,21.28,434.49000000000007,0,0,0,0,0,0,0,0,0,0,0,0,0,0,0,0,0,0,0,0,0,0,0,0,0,0,0,0,0,0,0,0,0,0,0,0,0,0,0,0,0,0,0,0,0,0,0,0,0.0,6.55,0.0,0,139812
1780259650954,-19.8727,-43.9746,0.0,0.00061,-0.0008539999999999999,-390.46000000000004,22.610000000000003,436.1,0,0,0,0,0,0,0,0,0,0,0,0,0,0,0,0,0,0,0,0,0,0,0,0,0,0,0,0,0,0,0,0,0,0,0,0,0,0,0,0,0,0,0,0,0,0,0,0,0.0,6.55,0.0,0,140062
1780259651154,-19.8727,-43.9746,0.000122,0.000488,-0.001098,-390.46000000000004,22.610000000000003,436.1,0,0,0,0,0,0,0,0,0,0,0,0,0,0,0,0,0,0,0,0,0,0,0,0,0,0,0,0,0,0,0,0,0,0,0,0,0,0,0,0,0,0,0,0,0,0,0,0,0.0,6.55,0.0,0,140262
1780259651205,-19.8727,-43.9746,0.000122,0.000488,-0.001098,-388.43000000000006,23.310000000000002,436.31000000000006,0,0,0,0,0,0,0,0,0,0,0,0,0,0,0,0,0,0,0,0,0,0,0,0,0,0,0,0,0,0,0,0,0,0,0,0,0,0,0,0,0,0,0,0,0,0,0,0,0.0,6.55,0.0,0,140313
1780259651371,-19.8727,-43.9746,0.000122,0.000488,-0.001098,-391.37000000000006,20.650000000000002,436.87000000000006,0,0,0,0,0,0,0,0,0,0,0,0,0,0,0,0,0,0,0,0,0,0,0,0,0,0,0,0,0,0,0,0,0,0,0,0,0,0,0,0,0,0,0,0,0,0,0,0,0.0,6.55,0.0,0,140479
1780259651489,-19.8727,-43.9746,0.000122,0.000244,-0.000976,-391.37000000000006,20.650000000000002,436.87000000000006,0,0,0,0,0,0,0,0,0,0,0,0,0,0,0,0,0,0,0,0,0,0,0,0,0,0,0,0,0,0,0,0,0,0,0,0,0,0,0,0,0,0,0,0,0,0,0,0,0.0,6.55,0.0,0,140597
