timestamp,THROTTLE,BRAKE,ECU_MODE_ID,TORQUE_GAIN,TORQUE_REF_LEFT_MOTOR,TORQUE_REF_RIGHT_MOTOR,LEFT_MOTOR_SPEED,RIGHT_MOTOR_SPEED,REAR_LEFT_WHEEL_SPEED,REAR_RIGHT_WHEEL_SPEED,ACCEL_LONGITUDINAL,ACCEL_LATERAL,ACCEL_NORMAL,VEL_ANGULAR_YAW,VEL_ANGULAR_PITCH,VEL_ANGULAR_ROLL,STACK_1_CELL_1,STACK_1_CELL_2,STACK_1_CELL_3,STACK_1_CELL_4,STACK_2_CELL_1,STACK_2_CELL_2,STACK_2_CELL_3,STACK_2_CELL_4,STACK_3_CELL_1,STACK_3_CELL_2,STACK_3_CELL_3,STACK_3_CELL_4,STACK_4_CELL_1,STACK_4_CELL_2,STACK_4_CELL_3,STACK_4_CELL_4,STACK_5_CELL_1,STACK_5_CELL_2,STACK_5_CELL_3,STACK_5_CELL_4,STACK_6_CELL_1,STACK_6_CELL_2,STACK_6_CELL_3,STACK_6_CELL_4,MAX_VOLTAGE,MIN_VOLTAGE,TOTAL_VOLTAGE,SHUNT_CURRENT,BMS_MODE_ID,BMS_ERROR_ID,AIR_P,AIR_N,t
1765228585342,0.0,0.0,1.0,10.0,0.0,0.0,0.0,0.0,0.0,0.0,-0.092232,-0.01281,0.983686,-0.6300000000000001,0.49000000000000005,-0.07,3.27,3.32,3.23,3.25,3.26,3.28,3.25,3.25,3.28,3.28,3.29,3.28,3.27,3.27,3.27,3.29,3.28,3.27,3.27,3.27,3.29,3.29,3.28,3.27,3.32,3.23,78.5,-1.0,1.0,0.0,1.0,1.0,10080316
1765228585351,0.0,0.0,1.0,10.0,0.0,0.0,0.0,0.0,0.0,0.0,-0.018056,0.002562,0.99552,-0.6300000000000001,0.49000000000000005,-0.07,3.27,3.32,3.23,3.25,3.26,3.28,3.25,3.25,3.28,3.28,3.29,3.28,3.27,3.27,3.27,3.29,3.28,3.27,3.27,3.27,3.29,3.29,3.28,3.27,3.32,3.23,78.5,-1.0,1.0,0.0,1.0,1.0,10080325
1765228585358,0.0,0.0,1.0,10.0,0.0,0.0,0.0,0.0,0.0,0.0,-0.018056,0.002562,0.99552,-0.56,0.21000000000000002,0.0,3.27,3.32,3.23,3.25,3.26,3.28,3.25,3.25,3.28,3.28,3.29,3.28,3.27,3.27,3.27,3.29,3.28,3.27,3.27,3.27,3.29,3.29,3.28,3.27,3.32,3.23,78.5,-1.0,1.0,0.0,1.0,1.0,10080332
1765228585369,0.0,0.0,1.0,10.0,0.0,0.0,0.0,0.0,0.0,0.0,-0.01952,0.000122,0.9916159999999999,-0.56,0.21000000000000002,0.0,3.27,3.32,3.23,3.25,3.26,3.28,3.25,3.25,3.28,3.28,3.29,3.28,3.27,3.27,3.27,3.29,3.28,3.27,3.27,3.27,3.29,3.29,3.28,3.27,3.32,3.23,78.5,-1.0,1.0,0.0,1.0,1.0,10080343
1765228585376,0.0,0.0,2.0,20.0,0.0,0.0,0.0,0.0,0.0,0.0,-0.01952,0.000122,0.9916159999999999,-0.6300000000000001,0.35000000000000003,0.0,3.27,3.32,3.23,3.25,3.26,3.28,3.25,3.25,3.28,3.28,3.29,3.28,3.27,3.27,3.27,3.29,3.28,3.27,3.27,3.27,3.29,3.29,3.28,3.27,3.32,3.23,78.5,-1.0,1.0,0.0,1.0,1.0,10080350
1765228585384,0.0,0.0,2.0,20.0,0.0,0.0,0.0,0.0,0.0,0.0,-0.01952,0.000122,0.9916159999999999,-0.6300000000000001,0.35000000000000003,0.0,3.27,3.32,3.23,3.25,3.26,3.28,3.25,3.25,3.28,3.28,3.29,3.28,3.27,3.27,3.27,3.29,3.28,3.27,3.27,3.27,3.29,3.29,3.28,3.27,3.32,3.23,78.5,-1.0,1.0,0.0,1.0,1.0,10080358
1765228585392,0.0,0.0,2.0,20.0,0.0,0.0,0.0,0.0,0.0,0.0,-0.01952,0.000122,0.9916159999999999,-0.6300000000000001,0.35000000000000003,0.0,3.27,3.32,3.23,3.25,3.26,3.28,3.25,3.25,3.28,3.28,3.29,3.28,3.27,3.27,3.27,3.29,3.28,3.27,3.27,3.27,3.29,3.29,3.28,3.27,3.32,3.23,78.5,-1.0,1.0,0.0,1.0,1.0,10080366
1765228585400,0.0,0.0,2.0,20.0,0.0,0.0,0.0,0.0,0.0,0.0,-0.01952,0.000122,0.9916159999999999,-0.6300000000000001,0.35000000000000003,0.0,3.27,3.32,3.23,3.25,3.26,3.28,3.25,3.25,3.28,3.28,3.29,3.28,3.27,3.27,3.27,3.29,3.28,3.27,3.27,3.27,3.29,3.29,3.28,3.27,3.32,3.23,78.5,-1.0,1.0,0.0,1.0,1.0,10080374
1765228585408,0.0,0.0,2.0,20.0,0.0,0.0,0.0,0.0,0.0,0.0,-0.01952,0.000122,0.9916159999999999,-0.6300000000000001,0.35000000000000003,0.0,3.27,3.32,3.23,3.25,3.26,3.28,3.25,3.25,3.28,3.28,3.29,3.28,3.27,3.27,3.27,3.29,3.28,3.27,3.27,3.27,3.29,3.29,3.28,3.27,3.32,3.23,78.5,-1.0,1.0,0.0,1.0,1.0,10080382
1765228585416,0.0,0.0,2.0,20.0,0.0,0.0,0.0,0.0,0.0,0.0,-0.020739999999999998,0.000976,0.99064,-0.6300000000000001,0.35000000000000003,0.0,3.27,3.32,3.23,3.25,3.26,3.28,3.25,3.25,3.28,3.28,3.29,3.28,3.27,3.27,3.27,3.29,3.28,3.27,3.27,3.27,3.29,3.29,3.28,3.27,3.32,3.23,78.5,-1.0,1.0,0.0,1.0,1.0,10080390
1765228585426,0.0,0.0,2.0,20.0,0.0,0.0,0.0,0.0,0.0,0.0,-0.020739999999999998,0.000976,0.99064,-0.6300000000000001,0.21000000000000002,-0.07,3.27,3.32,3.23,3.25,3.26,3.28,3.25,3.25,3.28,3.28,3.29,3.28,3.27,3.27,3.27,3.29,3.28,3.27,3.27,3.27,3.29,3.29,3.28,3.27,3.32,3.23,78.5,-1.0,1.0,0.0,1.0,1.0,10080400
1765228585451,0.0,0.0,2.0,20.0,0.0,0.0,0.0,0.0,0.0,0.0,-0.020739999999999998,0.000976,0.99064,-0.6300000000000001,0.21000000000000002,-0.07,3.27,3.32,3.23,3.25,3.26,3.28,3.25,3.25,3.28,3.28,3.29,3.28,3.27,3.27,3.27,3.29,3.28,3.27,3.27,3.27,3.29,3.29,3.28,3.27,3.32,3.25,78.9,0.0,1.0,0.0,1.0,1.0,10080425
1765228585460,0.0,0.0,2.0,20.0,0.0,0.0,0.0,0.0,0.0,0.0,-0.017324,0.002196,0.997594,-0.6300000000000001,0.21000000000000002,-0.07,3.27,3.32,3.23,3.25,3.26,3.28,3.25,3.25,3.28,3.28,3.29,3.28,3.27,3.27,3.27,3.29,3.28,3.27,3.27,3.27,3.29,3.29,3.28,3.27,3.32,3.25,78.9,0.0,1.0,0.0,1.0,1.0,10080434
1765228585469,0.0,0.0,2.0,20.0,0.0,0.0,0.0,0.0,0.0,0.0,-0.017324,0.002196,0.997594,-0.56,0.42000000000000004,0.0,3.27,3.32,3.23,3.25,3.26,3.28,3.25,3.25,3.28,3.28,3.29,3.28,3.27,3.27,3.27,3.29,3.28,3.27,3.27,3.27,3.29,3.29,3.28,3.27,3.32,3.25,78.9,0.0,1.0,0.0,1.0,1.0,10080443
1765228585478,0.0,0.0,2.0,20.0,0.0,0.0,0.0,0.0,0.0,0.0,-0.017324,0.002196,0.997594,-0.56,0.42000000000000004,0.0,3.27,3.32,3.23,3.25,3.26,3.28,3.25,3.25,3.28,3.28,3.29,3.28,3.27,3.27,3.27,3.29,3.28,3.27,3.27,3.27,3.29,3.29,3.28,3.27,3.32,3.25,78.9,0.0,1.0,0.0,1.0,1.0,10080452
1765228585487,0.0,0.0,2.0,20.0,0.0,0.0,0.0,0.0,0.0,0.0,-0.017324,0.002196,0.997594,-0.56,0.42000000000000004,0.0,3.27,3.32,3.23,3.25,3.26,3.28,3.25,3.25,3.28,3.28,3.29,3.28,3.27,3.27,3.27,3.29,3.28,3.27,3.27,3.27,3.29,3.29,3.28,3.27,3.32,3.25,78.9,0.0,1.0,0.0,1.0,1.0,10080461
1765228585496,0.0,0.0,2.0,20.0,0.0,0.0,0.0,0.0,0.0,0.0,-0.017324,0.002196,0.997594,-0.56,0.42000000000000004,0.0,3.27,3.32,3.23,3.25,3.26,3.28,3.25,3.25,3.28,3.28,3.29,3.28,3.27,3.27,3.27,3.29,3.28,3.27,3.27,3.27,3.29,3.29,3.28,3.27,3.32,3.25,78.9,0.0,1.0,0.0,1.0,1.0,10080470
1765228585504,0.0,0.0,2.0,20.0,0.0,0.0,0.0,0.0,0.0,0.0,-0.020618,0.0030499999999999998,0.988444,-0.56,0.42000000000000004,0.0,3.27,3.32,3.23,3.25,3.26,3.28,3.25,3.25,3.28,3.28,3.29,3.28,3.27,3.27,3.27,3.29,3.28,3.27,3.27,3.27,3.29,3.29,3.28,3.27,3.32,3.25,78.9,0.0,1.0,0.0,1.0,1.0,10080478
1765228585522,0.0,0.0,2.0,20.0,0.0,0.0,0.0,0.0,0.0,0.0,-0.020618,0.0030499999999999998,0.988444,-0.49000000000000005,0.35000000000000003,-0.07,3.27,3.32,3.23,3.25,3.26,3.28,3.25,3.25,3.28,3.28,3.29,3.28,3.27,3.27,3.27,3.29,3.28,3.27,3.27,3.27,3.29,3.29,3.28,3.27,3.32,3.25,78.9,0.0,1.0,0.0,1.0,1.0,10080496
1765228585531,0.0,0.0,2.0,20.0,0.0,0.0,0.0,0.0,0.0,0.0,-0.018543999999999998,0.002196,0.9946659999999999,-0.49000000000000005,0.35000000000000003,-0.07,3.27,3.32,3.23,3.25,3.26,3.28,3.25,3.25,3.28,3.28,3.29,3.28,3.27,3.27,3.27,3.29,3.28,3.27,3.27,3.27,3.29,3.29,3.28,3.27,3.32,3.25,78.9,0.0,1.0,0.0,1.0,1.0,10080505
1765228585550,0.0,0.0,2.0,20.0,0.0,0.0,0.0,0.0,0.0,0.0,-0.018543999999999998,0.002196,0.9946659999999999,-0.7000000000000001,0.28,0.07,3.27,3.32,3.23,3.25,3.26,3.28,3.25,3.25,3.28,3.28,3.29,3.28,3.27,3.27,3.27,3.29,3.28,3.27,3.27,3.27,3.29,3.29,3.28,3.27,3.32,3.25,78.9,0.0,1.0,0.0,1.0,1.0,10080524
1765228585559,0.0,0.0,2.0,20.0,0.0,0.0,0.0,0.0,0.0,0.0,-0.018543999999999998,0.002196,0.9946659999999999,-0.7000000000000001,0.28,0.07,3.27,3.32,3.23,3.25,3.26,3.28,3.25,3.25,3.28,3.28,3.29,3.28,3.27,3.27,3.27,3.29,3.28,3.27,3.27,3.27,3.29,3.29,3.28,3.27,3.32,3.25,78.9,0.0,1.0,0.0,1.0,1.0,10080533
1765228585568,0.0,0.0,2.0,20.0,0.0,0.0,0.0,0.0,0.0,0.0,-0.018543999999999998,0.002196,0.9946659999999999,-0.7000000000000001,0.28,0.07,3.27,3.32,3.23,3.25,3.26,3.28,3.25,3.25,3.28,3.28,3.29,3.28,3.27,3.27,3.27,3.29,3.28,3.27,3.27,3.27,3.29,3.29,3.28,3.27,3.32,3.25,78.9,0.0,1.0,0.0,1.0,1.0,10080542
1765228585606,0.0,0.0,2.0,20.0,0.0,0.0,0.0,0.0,0.0,0.0,-0.019764,0.0017079999999999999,0.993202,-0.7000000000000001,0.28,0.07,3.27,3.32,3.23,3.25,3.26,3.28,3.25,3.25,3.28,3.28,3.29,3.28,3.27,3.27,3.27,3.29,3.28,3.27,3.27,3.27,3.29,3.29,3.28,3.27,3.32,3.25,78.9,0.0,1.0,0.0,1.0,1.0,10080580
1765228585632,0.0,0.0,2.0,20.0,0.0,0.0,0.0,0.0,0.0,0.0,-0.019764,0.0017079999999999999,0.993202,-0.6300000000000001,0.28,0.0,3.27,3.32,3.23,3.25,3.26,3.28,3.25,3.25,3.28,3.28,3.29,3.28,3.27,3.27,3.27,3.29,3.28,3.27,3.27,3.27,3.29,3.29,3.28,3.27,3.32,3.25,78.9,0.0,1.0,0.0,1.0,1.0,10080606
1765228585679,0.0,0.0,2.0,20.0,0.0,0.0,0.0,0.0,0.0,0.0,-0.019764,0.0017079999999999999,0.993202,-0.6300000000000001,0.28,0.0,3.27,3.32,3.23,3.25,3.26,3.28,3.25,3.25,3.28,3.28,3.29,3.28,3.27,3.27,3.27,3.29,3.28,3.27,3.27,3.27,3.29,3.29,3.28,3.27,3.32,3.25,78.9,0.0,1.0,0.0,1.0,1.0,10080653
1765228585686,0.0,0.0,2.0,20.0,0.0,0.0,0.0,0.0,0.0,0.0,-0.019764,0.0017079999999999999,0.993202,-0.6300000000000001,0.28,0.0,3.27,3.32,3.23,3.25,3.26,3.28,3.25,3.25,3.28,3.28,3.29,3.28,3.27,3.27,3.27,3.29,3.28,3.27,3.27,3.27,3.29,3.29,3.28,3.27,3.32,3.25,78.9,0.0,1.0,0.0,1.0,1.0,10080660
1765228585706,0.0,0.0,2.0,20.0,0.0,0.0,0.0,0.0,0.0,0.0,-0.019764,0.0017079999999999999,0.993202,-0.6300000000000001,0.28,0.0,3.27,3.32,3.23,3.25,3.26,3.28,3.25,3.25,3.28,3.28,3.29,3.28,3.27,3.27,3.27,3.29,3.28,3.27,3.27,3.27,3.29,3.29,3.28,3.27,3.32,3.25,78.9,0.0,1.0,0.0,1.0,1.0,10080680
1765228585716,0.0,0.0,2.0,20.0,0.0,0.0,0.0,0.0,0.0,0.0,-0.019764,0.0017079999999999999,0.993202,-0.6300000000000001,0.28,0.0,3.27,3.32,3.23,3.25,3.26,3.28,3.25,3.25,3.28,3.28,3.29,3.28,3.27,3.27,3.27,3.29,3.28,3.27,3.27,3.27,3.29,3.29,3.28,3.27,3.32,3.25,78.9,0.0,1.0,0.0,1.0,1.0,10080690
1765228585727,0.0,0.0,2.0,20.0,0.0,0.0,0.0,0.0,0.0,0.0,-0.019275999999999998,0.00183,0.99369,-0.6300000000000001,0.28,0.0,3.27,3.32,3.23,3.25,3.26,3.28,3.25,3.25,3.28,3.28,3.29,3.28,3.27,3.27,3.27,3.29,3.28,3.27,3.27,3.27,3.29,3.29,3.28,3.27,3.32,3.25,78.9,0.0,1.0,0.0,1.0,1.0,10080701
1765228585758,0.0,0.0,2.0,20.0,0.0,0.0,0.0,0.0,0.0,0.0,-0.019275999999999998,0.00183,0.99369,-0.6300000000000001,0.28,0.0,3.27,3.32,3.23,3.25,3.26,3.28,3.25,3.25,3.28,3.28,3.29,3.28,3.27,3.27,3.27,3.29,3.28,3.27,3.27,3.27,3.29,3.29,3.28,3.27,3.32,3.25,78.9,0.0,1.0,0.0,1.0,1.0,10080732
1765228585788,0.0,0.0,2.0,20.0,0.0,0.0,0.0,0.0,0.0,0.0,-0.019275999999999998,0.00183,0.99369,-0.56,0.35000000000000003,0.0,3.27,3.32,3.23,3.25,3.26,3.28,3.25,3.25,3.28,3.28,3.29,3.28,3.27,3.27,3.27,3.29,3.28,3.27,3.27,3.27,3.29,3.29,3.28,3.27,3.32,3.25,78.9,0.0,1.0,0.0,1.0,1.0,10080762
1765228585820,0.0,0.0,2.0,20.0,0.0,0.0,0.0,0.0,0.0,0.0,-0.019275999999999998,0.00183,0.99369,-0.56,0.35000000000000003,0.0,3.27,3.32,3.23,3.25,3.26,3.28,3.25,3.25,3.28,3.28,3.29,3.28,3.27,3.27,3.27,3.29,3.28,3.27,3.27,3.27,3.29,3.29,3.28,3.27,3.32,3.25,78.9,0.0,1.0,0.0,1.0,1.0,10080794
1765228585901,0.0,0.0,2.0,20.0,0.0,0.0,0.0,0.0,0.0,0.0,-0.018422,0.0037819999999999998,0.990152,-0.56,0.35000000000000003,0.0,3.27,3.32,3.23,3.25,3.26,3.28,3.25,3.25,3.28,3.28,3.29,3.28,3.27,3.27,3.27,3.29,3.28,3.27,3.27,3.27,3.29,3.29,3.28,3.27,3.32,3.25,78.9,0.0,1.0,0.0,1.0,1.0,10080875
1765228585921,0.0,0.0,2.0,20.0,0.0,0.0,0.0,0.0,0.0,0.0,-0.018422,0.0037819999999999998,0.990152,-0.56,0.35000000000000003,0.0,3.28,3.32,3.25,3.27,3.26,3.28,3.25,3.25,3.28,3.28,3.29,3.28,3.27,3.27,3.27,3.29,3.28,3.27,3.27,3.27,3.29,3.29,3.28,3.27,3.32,3.25,78.9,0.0,1.0,0.0,1.0,1.0,10080895
1765228585940,0.0,0.0,2.0,20.0,0.0,0.0,0.0,0.0,0.0,0.0,-0.018422,0.0037819999999999998,0.990152,-0.56,0.35000000000000003,0.0,3.28,3.32,3.25,3.27,3.28,3.29,3.28,3.28,3.28,3.28,3.29,3.28,3.27,3.27,3.27,3.29,3.28,3.27,3.27,3.27,3.29,3.29,3.28,3.27,3.32,3.25,78.9,0.0,1.0,0.0,1.0,1.0,10080914
1765228585950,0.0,0.0,2.0,20.0,0.0,0.0,0.0,0.0,0.0,0.0,-0.018422,0.0037819999999999998,0.990152,-0.56,0.35000000000000003,0.0,3.28,3.32,3.25,3.27,3.28,3.29,3.28,3.28,3.28,3.28,3.29,3.28,3.27,3.27,3.27,3.29,3.28,3.27,3.27,3.27,3.29,3.29,3.28,3.27,3.32,3.25,78.9,0.0,1.0,0.0,1.0,1.0,10080924
1765228585959,0.0,0.0,2.0,20.0,0.0,0.0,0.0,0.0,0.0,0.0,-0.018422,0.0037819999999999998,0.990152,-0.56,0.35000000000000003,0.0,3.28,3.32,3.25,3.27,3.28,3.29,3.28,3.28,3.3,3.3,3.3,3.29,3.27,3.27,3.27,3.29,3.28,3.27,3.27,3.27,3.29,3.29,3.28,3.27,3.32,3.25,78.9,0.0,1.0,0.0,1.0,1.0,10080933
1765228585968,0.0,0.0,2.0,20.0,0.0,0.0,0.0,0.0,0.0,0.0,-0.018422,0.0037819999999999998,0.990152,-0.56,0.35000000000000003,0.0,3.28,3.32,3.25,3.27,3.28,3.29,3.28,3.28,3.3,3.3,3.3,3.29,3.28,3.28,3.28,3.29,3.28,3.27,3.27,3.27,3.29,3.29,3.28,3.27,3.32,3.25,78.9,0.0,1.0,0.0,1.0,1.0,10080942
1765228585988,0.0,0.0,2.0,20.0,0.0,0.0,0.0,0.0,0.0,0.0,-0.018422,0.0037819999999999998,0.990152,-0.56,0.35000000000000003,0.0,3.28,3.32,3.25,3.27,3.28,3.29,3.28,3.28,3.3,3.3,3.3,3.29,3.28,3.28,3.28,3.29,3.28,3.29,3.29,3.28,3.29,3.29,3.28,3.27,3.32,3.25,78.9,0.0,1.0,0.0,1.0,1.0,10080962
1765228585998,0.0,0.0,2.0,20.0,0.0,0.0,0.0,0.0,0.0,0.0,-0.018422,0.0037819999999999998,0.990152,-0.56,0.35000000000000003,0.0,3.28,3.32,3.25,3.27,3.28,3.29,3.28,3.28,3.3,3.3,3.3,3.29,3.28,3.28,3.28,3.29,3.28,3.29,3.29,3.28,3.31,3.3,3.3,3.29,3.32,3.25,78.9,0.0,1.0,0.0,1.0,1.0,10080972
1765228586019,0.0,0.0,2.0,20.0,0.0,0.0,0.0,0.0,0.0,0.0,-0.018422,0.0037819999999999998,0.990152,-0.56,0.35000000000000003,0.0,3.28,3.32,3.25,3.27,3.28,3.29,3.28,3.28,3.3,3.3,3.3,3.29,3.28,3.28,3.28,3.29,3.28,3.29,3.29,3.28,3.31,3.3,3.3,3.29,3.32,3.25,78.9,0.0,1.0,0.0,1.0,1.0,10080993
1765228586029,0.0,0.0,2.0,20.0,0.0,0.0,0.0,0.0,0.0,0.0,-0.018422,0.0037819999999999998,0.990152,-0.56,0.35000000000000003,0.0,3.28,3.32,3.25,3.27,3.28,3.29,3.28,3.28,3.3,3.3,3.3,3.29,3.28,3.28,3.28,3.29,3.28,3.29,3.29,3.28,3.31,3.3,3.3,3.29,3.32,3.25,78.9,0.0,1.0,0.0,1.0,1.0,10081003
1765228586039,0.0,0.0,2.0,20.0,0.0,0.0,0.0,0.0,0.0,0.0,-0.018422,0.0037819999999999998,0.990152,-0.56,0.35000000000000003,0.0,3.28,3.32,3.25,3.27,3.28,3.29,3.28,3.28,3.3,3.3,3.3,3.29,3.28,3.28,3.28,3.29,3.28,3.29,3.29,3.28,3.31,3.3,3.3,3.29,3.32,3.25,78.9,0.0,1.0,0.0,1.0,1.0,10081013
1765228586060,0.0,0.0,2.0,20.0,0.0,0.0,0.0,0.0,0.0,0.0,-0.018422,0.0037819999999999998,0.990152,-0.56,0.35000000000000003,0.0,3.28,3.32,3.25,3.27,3.28,3.29,3.28,3.28,3.3,3.3,3.3,3.29,3.28,3.28,3.28,3.29,3.28,3.29,3.29,3.28,3.31,3.3,3.3,3.29,3.32,3.25,78.9,0.0,1.0,0.0,1.0,1.0,10081034
1765228586100,0.0,0.0,2.0,20.0,0.0,0.0,0.0,0.0,0.0,0.0,-0.018422,0.0037819999999999998,0.990152,-0.56,0.35000000000000003,0.0,3.28,3.32,3.25,3.27,3.28,3.29,3.28,3.28,3.3,3.3,3.3,3.29,3.28,3.28,3.28,3.29,3.28,3.29,3.29,3.28,3.31,3.3,3.3,3.29,3.32,3.25,78.9,0.0,1.0,0.0,1.0,1.0,10081074
1765228586153,0.0,0.0,2.0,20.0,0.0,0.0,0.0,0.0,0.0,0.0,-0.018422,0.0037819999999999998,0.990152,-0.56,0.35000000000000003,0.0,3.28,3.32,3.25,3.27,3.28,3.29,3.28,3.28,3.3,3.3,3.3,3.29,3.28,3.28,3.28,3.29,3.28,3.29,3.29,3.28,3.31,3.3,3.3,3.29,3.32,3.25,78.9,0.0,1.0,0.0,1.0,1.0,10081127
1765228586225,0.0,0.0,2.0,20.0,0.0,0.0,0.0,0.0,0.0,0.0,-0.018422,0.0037819999999999998,0.990152,-0.56,0.35000000000000003,0.0,3.28,3.32,3.25,3.27,3.28,3.29,3.28,3.28,3.3,3.3,3.3,3.29,3.28,3.28,3.28,3.29,3.28,3.29,3.29,3.28,3.31,3.3,3.3,3.29,3.32,3.25,78.9,0.0,1.0,0.0,1.0,1.0,10081199
1765228586288,0.0,0.0,2.0,20.0,0.0,0.0,0.0,0.0,0.0,0.0,-0.018422,0.0037819999999999998,0.990152,-0.56,0.35000000000000003,0.0,3.28,3.32,3.25,3.27,3.28,3.29,3.28,3.28,3.3,3.3,3.3,3.29,3.28,3.28,3.28,3.29,3.28,3.29,3.29,3.28,3.31,3.3,3.3,3.29,3.32,3.25,78.9,0.0,1.0,0.0,1.0,1.0,10081262
1765228586356,0.0,0.0,2.0,20.0,0.0,0.0,0.0,0.0,0.0,0.0,-0.017202,0.0034159999999999998,0.995032,-0.56,0.35000000000000003,0.0,3.28,3.32,3.25,3.27,3.28,3.29,3.28,3.28,3.3,3.3,3.3,3.29,3.28,3.28,3.28,3.29,3.28,3.29,3.29,3.28,3.31,3.3,3.3,3.29,3.32,3.25,78.9,0.0,1.0,0.0,1.0,1.0,10081330
1765228586376,0.0,0.0,2.0,20.0,0.0,0.0,0.0,0.0,0.0,0.0,-0.017202,0.0034159999999999998,0.995032,-0.56,0.21000000000000002,0.07,3.28,3.32,3.25,3.27,3.28,3.29,3.28,3.28,3.3,3.3,3.3,3.29,3.28,3.28,3.28,3.29,3.28,3.29,3.29,3.28,3.31,3.3,3.3,3.29,3.32,3.25,78.9,0.0,1.0,0.0,1.0,1.0,10081350
1765228586415,0.0,0.0,2.0,20.0,0.0,0.0,0.0,0.0,0.0,0.0,-0.017202,0.0034159999999999998,0.995032,-0.56,0.21000000000000002,0.07,3.28,3.32,3.25,3.27,3.28,3.29,3.28,3.28,3.3,3.3,3.3,3.29,3.28,3.28,3.28,3.29,3.28,3.29,3.29,3.28,3.31,3.3,3.3,3.29,3.32,3.25,78.9,0.0,1.0,0.0,1.0,1.0,10081389
1765228586425,0.0,0.0,2.0,20.0,0.0,0.0,0.0,0.0,0.0,0.0,-0.017202,0.0034159999999999998,0.995032,-0.56,0.21000000000000002,0.07,3.28,3.32,3.25,3.27,3.28,3.29,3.28,3.28,3.3,3.3,3.3,3.29,3.28,3.28,3.28,3.29,3.28,3.29,3.29,3.28,3.31,3.3,3.3,3.29,3.32,3.25,78.9,0.0,1.0,0.0,1.0,1.0,10081399
1765228586444,0.0,0.0,2.0,20.0,0.0,0.0,0.0,0.0,0.0,0.0,-0.017202,0.0034159999999999998,0.995032,-0.56,0.21000000000000002,0.07,3.28,3.32,3.25,3.27,3.28,3.29,3.28,3.28,3.3,3.3,3.3,3.29,3.28,3.28,3.28,3.29,3.28,3.29,3.29,3.28,3.31,3.3,3.3,3.29,3.32,3.25,78.9,0.0,1.0,0.0,1.0,1.0,10081418
1765228586463,0.0,0.0,2.0,20.0,0.0,0.0,0.0,0.0,0.0,0.0,-0.017202,0.0034159999999999998,0.995032,-0.56,0.21000000000000002,0.07,3.28,3.32,3.25,3.27,3.28,3.29,3.28,3.28,3.3,3.3,3.3,3.29,3.28,3.28,3.28,3.29,3.28,3.29,3.29,3.28,3.31,3.3,3.3,3.29,3.32,3.25,78.9,0.0,1.0,0.0,1.0,1.0,10081437
1765228586483,0.0,0.0,2.0,20.0,0.0,0.0,0.0,0.0,0.0,0.0,-0.017202,0.0034159999999999998,0.995032,-0.56,0.21000000000000002,0.07,3.28,3.32,3.25,3.27,3.28,3.29,3.28,3.28,3.3,3.3,3.3,3.29,3.28,3.28,3.28,3.29,3.28,3.29,3.29,3.28,3.31,3.3,3.3,3.29,3.32,3.25,78.9,0.0,1.0,0.0,1.0,1.0,10081457
1765228586493,0.0,0.0,2.0,20.0,0.0,0.0,0.0,0.0,0.0,0.0,-0.018422,0.002562,0.9922259999999999,-0.56,0.21000000000000002,0.07,3.28,3.32,3.25,3.27,3.28,3.29,3.28,3.28,3.3,3.3,3.3,3.29,3.28,3.28,3.28,3.29,3.28,3.29,3.29,3.28,3.31,3.3,3.3,3.29,3.32,3.25,78.9,0.0,1.0,0.0,1.0,1.0,10081467
1765228586544,0.0,0.0,2.0,20.0,0.0,0.0,0.0,0.0,0.0,0.0,-0.018422,0.002562,0.9922259999999999,-0.49000000000000005,0.28,0.0,3.28,3.32,3.25,3.27,3.28,3.29,3.28,3.28,3.3,3.3,3.3,3.29,3.28,3.28,3.28,3.29,3.28,3.29,3.29,3.28,3.31,3.3,3.3,3.29,3.32,3.25,78.9,0.0,1.0,0.0,1.0,1.0,10081518
1765228586559,0.0,0.0,2.0,20.0,0.0,0.0,0.0,0.0,0.0,0.0,-0.018422,0.002562,0.9922259999999999,-0.49000000000000005,0.28,0.0,3.28,3.32,3.25,3.27,3.28,3.29,3.28,3.28,3.3,3.3,3.3,3.29,3.28,3.28,3.28,3.29,3.28,3.29,3.29,3.28,3.31,3.3,3.3,3.29,3.32,3.25,78.9,0.0,1.0,0.0,1.0,1.0,10081533
1765228586655,0.0,0.0,2.0,20.0,0.0,0.0,0.0,0.0,0.0,0.0,-0.017811999999999998,0.00244,0.992104,-0.49000000000000005,0.28,0.0,3.28,3.32,3.25,3.27,3.28,3.29,3.28,3.28,3.3,3.3,3.3,3.29,3.28,3.28,3.28,3.29,3.28,3.29,3.29,3.28,3.31,3.3,3.3,3.29,3.32,3.25,78.9,0.0,1.0,0.0,1.0,1.0,10081629
1765228586672,0.0,0.0,2.0,20.0,0.0,0.0,0.0,0.0,0.0,0.0,-0.017811999999999998,0.00244,0.992104,-0.7000000000000001,0.35000000000000003,0.0,3.28,3.32,3.25,3.27,3.28,3.29,3.28,3.28,3.3,3.3,3.3,3.29,3.28,3.28,3.28,3.29,3.28,3.29,3.29,3.28,3.31,3.3,3.3,3.29,3.32,3.25,78.9,0.0,1.0,0.0,1.0,1.0,10081646
1765228586711,0.0,0.0,2.0,20.0,0.0,0.0,0.0,0.0,0.0,0.0,-0.017811999999999998,0.00244,0.992104,-0.7000000000000001,0.35000000000000003,0.0,3.28,3.32,3.25,3.27,3.28,3.29,3.28,3.28,3.3,3.3,3.3,3.29,3.28,3.28,3.28,3.29,3.28,3.29,3.29,3.28,3.31,3.3,3.3,3.29,3.32,3.25,78.9,0.0,1.0,0.0,1.0,1.0,10081685
1765228586721,0.0,0.0,2.0,20.0,0.0,0.0,0.0,0.0,0.0,0.0,-0.017811999999999998,0.00244,0.992104,-0.7000000000000001,0.35000000000000003,0.0,3.28,3.32,3.25,3.27,3.28,3.29,3.28,3.28,3.3,3.3,3.3,3.29,3.28,3.28,3.28,3.29,3.28,3.29,3.29,3.28,3.31,3.3,3.3,3.29,3.32,3.25,78.9,0.0,1.0,0.0,1.0,1.0,10081695
1765228586730,0.0,0.0,2.0,20.0,0.0,0.0,0.0,0.0,0.0,0.0,-0.017811999999999998,0.00244,0.992104,-0.7000000000000001,0.35000000000000003,0.0,3.28,3.32,3.25,3.27,3.28,3.29,3.28,3.28,3.3,3.3,3.3,3.29,3.28,3.28,3.28,3.29,3.28,3.29,3.29,3.28,3.31,3.3,3.3,3.29,3.32,3.25,78.9,0.0,1.0,0.0,1.0,1.0,10081704
1765228586740,0.0,0.0,2.0,20.0,0.0,0.0,0.0,0.0,0.0,0.0,-0.017811999999999998,0.00244,0.992104,-0.7000000000000001,0.35000000000000003,0.0,3.28,3.32,3.25,3.27,3.28,3.29,3.28,3.28,3.3,3.3,3.3,3.29,3.28,3.28,3.28,3.29,3.28,3.29,3.29,3.28,3.31,3.3,3.3,3.29,3.32,3.25,78.9,0.0,1.0,0.0,1.0,1.0,10081714
1765228586799,0.0,0.0,2.0,20.0,0.0,0.0,0.0,0.0,0.0,0.0,-0.017811999999999998,0.00244,0.992104,-0.7000000000000001,0.35000000000000003,0.0,3.28,3.32,3.25,3.27,3.28,3.29,3.28,3.28,3.3,3.3,3.3,3.29,3.28,3.28,3.28,3.29,3.28,3.29,3.29,3.28,3.31,3.3,3.3,3.29,3.32,3.25,78.8,-1.0,1.0,0.0,1.0,1.0,10081773
1765228586808,0.0,0.0,2.0,20.0,0.0,0.0,0.0,0.0,0.0,0.0,-0.017811999999999998,0.00244,0.992104,-0.7000000000000001,0.35000000000000003,0.0,3.28,3.32,3.25,3.27,3.28,3.29,3.28,3.28,3.3,3.3,3.3,3.29,3.28,3.28,3.28,3.29,3.28,3.29,3.29,3.28,3.31,3.3,3.3,3.29,3.32,3.25,78.8,-1.0,1.0,0.0,1.0,1.0,10081782
1765228586857,0.0,0.0,2.0,20.0,0.0,0.0,0.0,0.0,0.0,0.0,-0.017811999999999998,0.00244,0.992104,-0.7000000000000001,0.35000000000000003,0.0,3.28,3.32,3.25,3.27,3.28,3.29,3.28,3.28,3.3,3.3,3.3,3.29,3.28,3.28,3.28,3.29,3.28,3.29,3.29,3.28,3.31,3.3,3.3,3.29,3.32,3.25,78.8,-1.0,1.0,0.0,1.0,1.0,10081831
1765228586873,0.0,0.0,2.0,20.0,0.0,0.0,0.0,0.0,0.0,0.0,-0.017811999999999998,0.00244,0.992104,-0.7000000000000001,0.35000000000000003,0.0,3.28,3.32,3.25,3.27,3.28,3.29,3.28,3.28,3.3,3.3,3.3,3.29,3.28,3.28,3.28,3.29,3.28,3.29,3.29,3.28,3.31,3.3,3.3,3.29,3.32,3.25,78.8,-1.0,1.0,0.0,1.0,1.0,10081847
1765228586909,0.0,0.0,2.0,20.0,0.0,0.0,0.0,0.0,0.0,0.0,-0.017811999999999998,0.00244,0.992104,-0.7000000000000001,0.35000000000000003,0.0,3.28,3.32,3.25,3.27,3.28,3.29,3.28,3.28,3.3,3.3,3.3,3.29,3.28,3.28,3.28,3.29,3.28,3.29,3.29,3.28,3.31,3.3,3.3,3.29,3.32,3.25,78.8,-1.0,1.0,0.0,1.0,1.0,10081883
1765228586959,0.0,0.0,2.0,20.0,0.0,0.0,0.0,0.0,0.0,0.0,-0.017811999999999998,0.00244,0.992104,-0.7000000000000001,0.35000000000000003,0.0,3.28,3.32,3.25,3.27,3.28,3.29,3.28,3.28,3.3,3.3,3.3,3.29,3.28,3.28,3.28,3.29,3.28,3.29,3.29,3.28,3.31,3.3,3.3,3.29,3.32,3.25,78.8,0.0,1.0,0.0,1.0,1.0,10081933
1765228586984,0.0,0.0,2.0,20.0,0.0,0.0,0.0,0.0,0.0,0.0,-0.017811999999999998,0.00244,0.992104,-0.7000000000000001,0.35000000000000003,0.0,3.28,3.32,3.25,3.27,3.28,3.29,3.28,3.28,3.3,3.3,3.3,3.29,3.28,3.28,3.28,3.29,3.28,3.29,3.29,3.28,3.31,3.3,3.3,3.29,3.32,3.25,78.8,0.0,1.0,0.0,1.0,1.0,10081958
1765228587002,0.0,0.0,2.0,20.0,0.0,0.0,0.0,0.0,0.0,0.0,-0.017811999999999998,0.00244,0.992104,-0.7000000000000001,0.35000000000000003,0.0,3.28,3.32,3.25,3.27,3.28,3.29,3.28,3.28,3.3,3.3,3.3,3.29,3.28,3.28,3.28,3.29,3.28,3.29,3.29,3.28,3.31,3.3,3.3,3.29,3.32,3.25,78.8,0.0,1.0,0.0,1.0,1.0,10081976
1765228587059,0.0,0.0,2.0,20.0,0.0,0.0,0.0,0.0,0.0,0.0,-0.015982,0.0023179999999999997,0.994422,-0.7000000000000001,0.35000000000000003,0.0,3.28,3.32,3.25,3.27,3.28,3.29,3.28,3.28,3.3,3.3,3.3,3.29,3.28,3.28,3.28,3.29,3.28,3.29,3.29,3.28,3.31,3.3,3.3,3.29,3.32,3.25,78.8,0.0,1.0,0.0,1.0,1.0,10082033
1765228587085,0.0,0.0,2.0,20.0,0.0,0.0,0.0,0.0,0.0,0.0,-0.015982,0.0023179999999999997,0.994422,-0.56,0.28,0.0,3.28,3.32,3.25,3.27,3.28,3.29,3.28,3.28,3.3,3.3,3.3,3.29,3.28,3.28,3.28,3.29,3.28,3.29,3.29,3.28,3.31,3.3,3.3,3.29,3.32,3.25,78.8,0.0,1.0,0.0,1.0,1.0,10082059
1765228587140,0.0,0.0,2.0,20.0,0.0,0.0,0.0,0.0,0.0,0.0,-0.020496,-0.00183,0.987224,-0.56,0.28,0.0,3.28,3.32,3.25,3.27,3.28,3.29,3.28,3.28,3.3,3.3,3.3,3.29,3.28,3.28,3.28,3.29,3.28,3.29,3.29,3.28,3.31,3.3,3.3,3.29,3.32,3.25,78.8,0.0,1.0,0.0,1.0,1.0,10082114
1765228587150,0.0,0.0,2.0,20.0,0.0,0.0,0.0,0.0,0.0,0.0,-0.020496,-0.00183,0.987224,-0.56,0.28,0.0,3.28,3.32,3.25,3.27,3.28,3.29,3.28,3.28,3.3,3.3,3.3,3.29,3.28,3.28,3.28,3.29,3.28,3.29,3.29,3.28,3.31,3.3,3.3,3.29,3.32,3.25,78.8,0.0,1.0,0.0,1.0,1.0,10082124
1765228587160,0.0,0.0,2.0,20.0,0.0,0.0,0.0,0.0,0.0,0.0,-0.020496,-0.00183,0.987224,-0.56,0.28,0.0,3.28,3.32,3.25,3.27,3.28,3.29,3.28,3.28,3.3,3.3,3.3,3.29,3.28,3.28,3.28,3.29,3.28,3.29,3.29,3.28,3.31,3.3,3.3,3.29,3.32,3.25,78.8,0.0,1.0,0.0,1.0,1.0,10082134
1765228587169,0.0,0.0,2.0,20.0,0.0,0.0,0.0,0.0,0.0,0.0,-0.020496,-0.00183,0.987224,-0.56,0.28,0.0,3.28,3.32,3.25,3.27,3.28,3.29,3.28,3.28,3.3,3.3,3.3,3.29,3.28,3.28,3.28,3.29,3.28,3.29,3.29,3.28,3.31,3.3,3.3,3.29,3.32,3.25,78.8,0.0,1.0,0.0,1.0,1.0,10082143
1765228587199,0.0,0.0,2.0,20.0,0.0,0.0,0.0,0.0,0.0,0.0,-0.020496,-0.00183,0.987224,-0.56,0.35000000000000003,0.0,3.28,3.32,3.25,3.27,3.28,3.29,3.28,3.28,3.3,3.3,3.3,3.29,3.28,3.28,3.28,3.29,3.28,3.29,3.29,3.28,3.31,3.3,3.3,3.29,3.32,3.25,78.8,0.0,1.0,0.0,1.0,1.0,10082173
1765228587208,0.0,0.0,2.0,20.0,0.0,0.0,0.0,0.0,0.0,0.0,-0.020496,-0.00183,0.987224,-0.56,0.35000000000000003,0.0,3.28,3.32,3.25,3.27,3.28,3.29,3.28,3.28,3.3,3.3,3.3,3.29,3.28,3.28,3.28,3.29,3.28,3.29,3.29,3.28,3.31,3.3,3.3,3.29,3.32,3.25,78.8,0.0,1.0,0.0,1.0,1.0,10082182
1765228587230,0.0,0.0,2.0,20.0,0.0,0.0,0.0,0.0,0.0,0.0,-0.020496,-0.00183,0.987224,-0.56,0.35000000000000003,0.0,3.28,3.32,3.25,3.27,3.28,3.29,3.28,3.28,3.3,3.3,3.3,3.29,3.28,3.28,3.28,3.29,3.28,3.29,3.29,3.28,3.31,3.3,3.3,3.29,3.32,3.25,78.8,0.0,1.0,0.0,1.0,1.0,10082204
1765228587295,0.0,0.0,2.0,20.0,0.0,0.0,0.0,0.0,0.0,0.0,-0.020496,-0.00183,0.987224,-0.56,0.35000000000000003,0.0,3.28,3.32,3.25,3.27,3.28,3.29,3.28,3.28,3.3,3.3,3.3,3.29,3.28,3.28,3.28,3.29,3.28,3.29,3.29,3.28,3.31,3.3,3.3,3.29,3.32,3.25,78.8,0.0,1.0,0.0,1.0,1.0,10082269
1765228587357,0.0,0.0,2.0,20.0,0.0,0.0,0.0,0.0,0.0,0.0,-0.019764,0.00183,0.99552,-0.56,0.35000000000000003,0.0,3.28,3.32,3.25,3.27,3.28,3.29,3.28,3.28,3.3,3.3,3.3,3.29,3.28,3.28,3.28,3.29,3.28,3.29,3.29,3.28,3.31,3.3,3.3,3.29,3.32,3.25,78.8,0.0,1.0,0.0,1.0,1.0,10082331
1765228587378,0.0,0.0,2.0,20.0,0.0,0.0,0.0,0.0,0.0,0.0,-0.019764,0.00183,0.99552,-0.56,0.28,-0.07,3.28,3.32,3.25,3.27,3.28,3.29,3.28,3.28,3.3,3.3,3.3,3.29,3.28,3.28,3.28,3.29,3.28,3.29,3.29,3.28,3.31,3.3,3.3,3.29,3.32,3.25,78.8,0.0,1.0,0.0,1.0,1.0,10082352
1765228587433,0.0,0.0,2.0,20.0,0.0,0.0,0.0,0.0,0.0,0.0,-0.019764,0.00183,0.99552,-0.56,0.28,-0.07,3.28,3.32,3.25,3.27,3.28,3.29,3.28,3.28,3.3,3.3,3.3,3.29,3.28,3.28,3.28,3.29,3.28,3.29,3.29,3.28,3.31,3.3,3.3,3.29,3.32,3.25,78.8,0.0,1.0,0.0,1.0,1.0,10082407
1765228587502,0.0,0.0,2.0,20.0,0.0,0.0,0.0,0.0,0.0,0.0,-0.008296,0.018422,1.000766,-0.56,0.28,-0.07,3.28,3.32,3.25,3.27,3.28,3.29,3.28,3.28,3.3,3.3,3.3,3.29,3.28,3.28,3.28,3.29,3.28,3.29,3.29,3.28,3.31,3.3,3.3,3.29,3.32,3.25,78.8,0.0,1.0,0.0,1.0,1.0,10082476
1765228587522,0.0,0.0,2.0,20.0,0.0,0.0,0.0,0.0,0.0,0.0,-0.008296,0.018422,1.000766,-0.35000000000000003,0.21000000000000002,0.14,3.28,3.32,3.25,3.27,3.28,3.29,3.28,3.28,3.3,3.3,3.3,3.29,3.28,3.28,3.28,3.29,3.28,3.29,3.29,3.28,3.31,3.3,3.3,3.29,3.32,3.25,78.8,0.0,1.0,0.0,1.0,1.0,10082496
1765228587561,0.0,0.0,2.0,20.0,0.0,0.0,0.0,0.0,0.0,0.0,-0.008296,0.018422,1.000766,-0.35000000000000003,0.21000000000000002,0.14,3.28,3.32,3.25,3.27,3.28,3.29,3.28,3.28,3.3,3.3,3.3,3.29,3.28,3.28,3.28,3.29,3.28,3.29,3.29,3.28,3.31,3.3,3.3,3.29,3.32,3.25,78.8,0.0,1.0,0.0,1.0,1.0,10082535
1765228587580,0.0,0.0,2.0,20.0,0.0,0.0,0.0,0.0,0.0,0.0,-0.008296,0.018422,1.000766,-0.35000000000000003,0.21000000000000002,0.14,3.28,3.32,3.25,3.27,3.28,3.29,3.28,3.28,3.3,3.3,3.3,3.29,3.28,3.28,3.28,3.29,3.28,3.29,3.29,3.28,3.31,3.3,3.3,3.29,3.32,3.25,78.8,0.0,1.0,0.0,1.0,1.0,10082554
1765228587589,0.0,0.0,2.0,20.0,0.0,0.0,0.0,0.0,0.0,0.0,-0.008296,0.018422,1.000766,-0.35000000000000003,0.21000000000000002,0.14,3.28,3.32,3.25,3.27,3.28,3.29,3.28,3.28,3.3,3.3,3.3,3.29,3.28,3.28,3.28,3.29,3.28,3.29,3.29,3.28,3.31,3.3,3.3,3.29,3.32,3.25,78.8,0.0,1.0,0.0,1.0,1.0,10082563
1765228587609,0.0,0.0,2.0,20.0,0.0,0.0,0.0,0.0,0.0,0.0,-0.008296,0.018422,1.000766,-0.35000000000000003,0.21000000000000002,0.14,3.28,3.32,3.25,3.27,3.28,3.29,3.28,3.28,3.3,3.3,3.3,3.29,3.28,3.28,3.28,3.29,3.28,3.29,3.29,3.28,3.31,3.3,3.3,3.29,3.32,3.25,78.8,0.0,1.0,0.0,1.0,1.0,10082583
1765228587628,0.0,0.0,2.0,20.0,0.0,0.0,0.0,0.0,0.0,0.0,-0.019154,0.005612,1.012844,-0.35000000000000003,0.21000000000000002,0.14,3.28,3.32,3.25,3.27,3.28,3.29,3.28,3.28,3.3,3.3,3.3,3.29,3.28,3.28,3.28,3.29,3.28,3.29,3.29,3.28,3.31,3.3,3.3,3.29,3.32,3.25,78.8,0.0,1.0,0.0,1.0,1.0,10082602
1765228587638,0.0,0.0,2.0,20.0,0.0,0.0,0.0,0.0,0.0,0.0,-0.019154,0.005612,1.012844,-0.35000000000000003,0.21000000000000002,0.14,3.28,3.32,3.25,3.27,3.28,3.29,3.28,3.28,3.3,3.3,3.3,3.29,3.28,3.28,3.28,3.29,3.28,3.29,3.29,3.28,3.31,3.3,3.3,3.29,3.32,3.25,78.8,0.0,1.0,0.0,1.0,1.0,10082612
1765228587687,0.0,0.0,2.0,20.0,0.0,0.0,0.0,0.0,0.0,0.0,-0.019154,0.005612,1.012844,-0.6300000000000001,0.49000000000000005,-0.14,3.28,3.32,3.25,3.27,3.28,3.29,3.28,3.28,3.3,3.3,3.3,3.29,3.28,3.28,3.28,3.29,3.28,3.29,3.29,3.28,3.31,3.3,3.3,3.29,3.32,3.25,78.8,0.0,1.0,0.0,1.0,1.0,10082661
1765228587707,0.0,0.0,2.0,20.0,0.0,0.0,0.0,0.0,0.0,0.0,-0.019154,0.005612,1.012844,-0.6300000000000001,0.49000000000000005,-0.14,3.28,3.32,3.25,3.27,3.28,3.29,3.28,3.28,3.3,3.3,3.3,3.29,3.28,3.28,3.28,3.29,3.28,3.29,3.29,3.28,3.31,3.3,3.3,3.29,3.32,3.25,78.8,0.0,1.0,0.0,1.0,1.0,10082681
1765228587716,0.0,0.0,2.0,20.0,0.0,0.0,0.0,0.0,0.0,0.0,-0.019154,0.005612,1.012844,-0.6300000000000001,0.49000000000000005,-0.14,3.28,3.32,3.25,3.27,3.28,3.29,3.28,3.28,3.3,3.3,3.3,3.29,3.28,3.28,3.28,3.29,3.28,3.29,3.29,3.28,3.31,3.3,3.3,3.29,3.32,3.25,78.8,0.0,1.0,0.0,1.0,1.0,10082690
1765228587745,0.0,0.0,2.0,20.0,0.0,0.0,0.0,0.0,0.0,0.0,-0.019154,0.005612,1.012844,-0.6300000000000001,0.49000000000000005,-0.14,3.28,3.32,3.25,3.27,3.28,3.29,3.28,3.28,3.3,3.3,3.3,3.29,3.28,3.28,3.28,3.29,3.28,3.29,3.29,3.28,3.31,3.3,3.3,3.29,3.32,3.25,78.8,0.0,1.0,0.0,1.0,1.0,10082719
1765228587785,0.0,0.0,2.0,20.0,0.0,0.0,0.0,0.0,0.0,0.0,-0.019154,0.005612,1.012844,-0.6300000000000001,0.49000000000000005,-0.14,3.28,3.32,3.25,3.27,3.28,3.29,3.28,3.28,3.3,3.3,3.3,3.29,3.28,3.28,3.28,3.29,3.28,3.29,3.29,3.28,3.31,3.3,3.3,3.29,3.32,3.25,78.8,0.0,1.0,0.0,1.0,1.0,10082759
1765228587805,0.0,0.0,2.0,20.0,0.0,0.0,0.0,0.0,0.0,0.0,-0.019154,0.005612,1.012844,-0.6300000000000001,0.49000000000000005,-0.14,3.28,3.32,3.25,3.27,3.28,3.29,3.28,3.28,3.3,3.3,3.3,3.29,3.28,3.28,3.28,3.29,3.28,3.29,3.29,3.28,3.31,3.3,3.3,3.29,3.32,3.25,78.8,0.0,1.0,0.0,1.0,1.0,10082779
1765228587825,0.0,0.0,2.0,20.0,0.0,0.0,0.0,0.0,0.0,0.0,-0.019154,0.005612,1.012844,-0.6300000000000001,0.49000000000000005,-0.14,3.28,3.32,3.25,3.27,3.28,3.29,3.28,3.28,3.3,3.3,3.3,3.29,3.28,3.28,3.28,3.29,3.28,3.29,3.29,3.28,3.31,3.3,3.3,3.29,3.32,3.25,78.8,0.0,1.0,0.0,1.0,1.0,10082799
1765228587834,0.0,0.0,2.0,20.0,0.0,0.0,0.0,0.0,0.0,0.0,-0.019154,0.005612,1.012844,-0.6300000000000001,0.49000000000000005,-0.14,3.28,3.32,3.25,3.27,3.28,3.29,3.28,3.28,3.3,3.3,3.3,3.29,3.28,3.28,3.28,3.29,3.28,3.29,3.29,3.28,3.31,3.3,3.3,3.29,3.32,3.25,78.8,0.0,1.0,0.0,1.0,1.0,10082808
1765228587874,0.0,0.0,2.0,20.0,0.0,0.0,0.0,0.0,0.0,0.0,-0.011224,-0.009516,0.97478,-0.6300000000000001,0.49000000000000005,-0.14,3.28,3.32,3.25,3.27,3.28,3.29,3.28,3.28,3.3,3.3,3.3,3.29,3.28,3.28,3.28,3.29,3.28,3.29,3.29,3.28,3.31,3.3,3.3,3.29,3.32,3.25,78.8,0.0,1.0,0.0,1.0,1.0,10082848
1765228587899,0.0,0.0,2.0,20.0,0.0,0.0,0.0,0.0,0.0,0.0,-0.011224,-0.009516,0.97478,-0.56,0.35000000000000003,0.07,3.28,3.32,3.25,3.27,3.28,3.29,3.28,3.28,3.3,3.3,3.3,3.29,3.28,3.28,3.28,3.29,3.28,3.29,3.29,3.28,3.31,3.3,3.3,3.29,3.32,3.25,78.8,0.0,1.0,0.0,1.0,1.0,10082873
1765228587909,0.0,0.0,2.0,20.0,0.0,0.0,0.0,0.0,0.0,0.0,-0.011224,-0.009516,0.97478,-0.56,0.35000000000000003,0.07,3.28,3.32,3.25,3.27,3.28,3.29,3.28,3.28,3.3,3.3,3.3,3.29,3.28,3.28,3.28,3.29,3.28,3.29,3.29,3.28,3.31,3.3,3.3,3.29,3.32,3.25,78.8,0.0,1.0,0.0,1.0,1.0,10082883
1765228587918,0.0,0.0,2.0,20.0,0.0,0.0,0.0,0.0,0.0,0.0,-0.011224,-0.009516,0.97478,-0.56,0.35000000000000003,0.07,3.28,3.32,3.25,3.27,3.28,3.29,3.28,3.28,3.3,3.3,3.3,3.29,3.28,3.28,3.28,3.29,3.28,3.29,3.29,3.28,3.31,3.3,3.3,3.29,3.32,3.25,78.8,0.0,1.0,0.0,1.0,1.0,10082892
1765228587929,0.0,0.0,2.0,20.0,0.0,0.0,0.0,0.0,0.0,0.0,-0.011224,-0.009516,0.97478,-0.56,0.35000000000000003,0.07,3.28,3.32,3.25,3.27,3.28,3.29,3.28,3.28,3.3,3.3,3.3,3.29,3.28,3.28,3.28,3.29,3.28,3.29,3.29,3.28,3.31,3.3,3.3,3.29,3.32,3.25,78.8,0.0,1.0,0.0,1.0,1.0,10082903
1765228587958,0.0,0.0,2.0,20.0,0.0,0.0,0.0,0.0,0.0,0.0,-0.011224,-0.009516,0.97478,-0.56,0.35000000000000003,0.07,3.28,3.32,3.25,3.27,3.28,3.29,3.28,3.28,3.3,3.3,3.3,3.29,3.28,3.28,3.28,3.29,3.28,3.29,3.29,3.28,3.31,3.3,3.3,3.29,3.32,3.25,78.8,0.0,1.0,0.0,1.0,1.0,10082932
1765228587997,0.0,0.0,2.0,20.0,0.0,0.0,0.0,0.0,0.0,0.0,-0.011224,-0.009516,0.97478,-0.56,0.35000000000000003,0.07,3.28,3.32,3.25,3.27,3.28,3.29,3.28,3.28,3.3,3.3,3.3,3.29,3.28,3.28,3.28,3.29,3.28,3.29,3.29,3.28,3.31,3.3,3.3,3.29,3.32,3.25,78.8,0.0,1.0,0.0,1.0,1.0,10082971
1765228588045,0.0,0.0,2.0,20.0,0.0,0.0,0.0,0.0,0.0,0.0,-0.011224,-0.009516,0.97478,-0.56,0.35000000000000003,0.07,3.28,3.32,3.25,3.27,3.28,3.29,3.28,3.28,3.3,3.3,3.3,3.29,3.28,3.28,3.28,3.29,3.28,3.29,3.29,3.28,3.31,3.3,3.3,3.29,3.32,3.25,78.8,0.0,1.0,0.0,1.0,1.0,10083019
1765228588065,0.0,0.0,2.0,20.0,0.0,0.0,0.0,0.0,0.0,0.0,-0.011224,-0.009516,0.97478,-0.56,0.35000000000000003,0.07,3.28,3.32,3.25,3.27,3.28,3.29,3.28,3.28,3.3,3.3,3.3,3.29,3.28,3.28,3.28,3.29,3.28,3.29,3.29,3.28,3.31,3.3,3.3,3.29,3.32,3.25,78.8,0.0,1.0,0.0,1.0,1.0,10083039
1765228588084,0.0,0.0,2.0,20.0,0.0,0.0,0.0,0.0,0.0,0.0,-0.011224,-0.009516,0.97478,-0.49000000000000005,0.28,0.14,3.28,3.32,3.25,3.27,3.28,3.29,3.28,3.28,3.3,3.3,3.3,3.29,3.28,3.28,3.28,3.29,3.28,3.29,3.29,3.28,3.31,3.3,3.3,3.29,3.32,3.25,78.8,0.0,1.0,0.0,1.0,1.0,10083058
1765228588094,0.0,0.0,2.0,20.0,0.0,0.0,0.0,0.0,0.0,0.0,-0.011224,-0.009516,0.97478,-0.49000000000000005,0.28,0.14,3.28,3.32,3.25,3.27,3.28,3.29,3.28,3.28,3.3,3.3,3.3,3.29,3.28,3.28,3.28,3.29,3.28,3.29,3.29,3.28,3.31,3.3,3.3,3.29,3.32,3.25,78.8,0.0,1.0,0.0,1.0,1.0,10083068
1765228588123,0.0,0.0,2.0,20.0,0.0,0.0,0.0,0.0,0.0,0.0,-0.011224,-0.009516,0.97478,-0.49000000000000005,0.28,0.14,3.28,3.32,3.25,3.27,3.28,3.29,3.28,3.28,3.3,3.3,3.3,3.29,3.28,3.28,3.28,3.29,3.28,3.29,3.29,3.28,3.31,3.3,3.3,3.29,3.32,3.25,78.8,0.0,1.0,0.0,1.0,1.0,10083097
1765228588173,0.0,0.0,2.0,20.0,0.0,0.0,0.0,0.0,0.0,0.0,-0.011224,-0.009516,0.97478,-0.49000000000000005,0.28,0.14,3.28,3.32,3.25,3.27,3.28,3.29,3.28,3.28,3.3,3.3,3.3,3.29,3.28,3.28,3.28,3.29,3.28,3.29,3.29,3.28,3.31,3.3,3.3,3.29,3.32,3.25,78.8,0.0,1.0,0.0,1.0,1.0,10083147
1765228588254,0.0,0.0,2.0,20.0,0.0,0.0,0.0,0.0,0.0,0.0,-0.0183,0.005856,0.9958859999999999,-0.49000000000000005,0.28,0.14,3.28,3.32,3.25,3.27,3.28,3.29,3.28,3.28,3.3,3.3,3.3,3.29,3.28,3.28,3.28,3.29,3.28,3.29,3.29,3.28,3.31,3.3,3.3,3.29,3.32,3.25,78.8,0.0,1.0,0.0,1.0,1.0,10083228
1765228588264,0.0,0.0,2.0,20.0,0.0,0.0,0.0,0.0,0.0,0.0,-0.0183,0.005856,0.9958859999999999,-0.49000000000000005,0.42000000000000004,0.07,3.28,3.32,3.25,3.27,3.28,3.29,3.28,3.28,3.3,3.3,3.3,3.29,3.28,3.28,3.28,3.29,3.28,3.29,3.29,3.28,3.31,3.3,3.3,3.29,3.32,3.25,78.8,0.0,1.0,0.0,1.0,1.0,10083238
1765228588323,0.0,0.0,2.0,20.0,0.0,0.0,0.0,0.0,0.0,0.0,-0.0183,0.005856,0.9958859999999999,-0.49000000000000005,0.42000000000000004,0.07,3.28,3.32,3.25,3.27,3.28,3.29,3.28,3.28,3.3,3.3,3.3,3.29,3.28,3.28,3.28,3.29,3.28,3.29,3.29,3.28,3.31,3.3,3.3,3.29,3.32,3.25,78.8,0.0,1.0,0.0,1.0,1.0,10083297
1765228588331,0.0,0.0,2.0,20.0,0.0,0.0,0.0,0.0,0.0,0.0,-0.016592,-0.0008539999999999999,0.98759,-0.49000000000000005,0.42000000000000004,0.07,3.28,3.32,3.25,3.27,3.28,3.29,3.28,3.28,3.3,3.3,3.3,3.29,3.28,3.28,3.28,3.29,3.28,3.29,3.29,3.28,3.31,3.3,3.3,3.29,3.32,3.25,78.8,0.0,1.0,0.0,1.0,1.0,10083305
1765228588339,0.0,0.0,2.0,20.0,0.0,0.0,0.0,0.0,0.0,0.0,-0.016592,-0.0008539999999999999,0.98759,-0.49000000000000005,0.42000000000000004,0.07,3.28,3.32,3.25,3.27,3.28,3.29,3.28,3.28,3.3,3.3,3.3,3.29,3.28,3.28,3.28,3.29,3.28,3.29,3.29,3.28,3.31,3.3,3.3,3.29,3.32,3.25,78.8,0.0,1.0,0.0,1.0,1.0,10083313
1765228588360,0.0,0.0,2.0,20.0,0.0,0.0,0.0,0.0,0.0,0.0,-0.016592,-0.0008539999999999999,0.98759,-0.49000000000000005,0.42000000000000004,0.07,3.28,3.32,3.25,3.27,3.28,3.29,3.28,3.28,3.3,3.3,3.3,3.29,3.28,3.28,3.28,3.29,3.28,3.29,3.29,3.28,3.31,3.3,3.3,3.29,3.32,3.25,78.8,0.0,1.0,0.0,1.0,1.0,10083334
1765228588376,0.0,0.0,2.0,20.0,0.0,0.0,0.0,0.0,0.0,0.0,-0.016592,-0.0008539999999999999,0.98759,-0.49000000000000005,0.42000000000000004,0.07,3.28,3.32,3.25,3.27,3.28,3.29,3.28,3.28,3.3,3.3,3.3,3.29,3.28,3.28,3.28,3.29,3.28,3.29,3.29,3.28,3.31,3.3,3.3,3.29,3.32,3.25,78.8,0.0,1.0,0.0,1.0,1.0,10083350
1765228588392,0.0,0.0,2.0,20.0,0.0,0.0,0.0,0.0,0.0,0.0,-0.016592,-0.0008539999999999999,0.98759,-0.7000000000000001,0.14,0.0,3.28,3.32,3.25,3.27,3.28,3.29,3.28,3.28,3.3,3.3,3.3,3.29,3.28,3.28,3.28,3.29,3.28,3.29,3.29,3.28,3.31,3.3,3.3,3.29,3.32,3.25,78.8,0.0,1.0,0.0,1.0,1.0,10083366
1765228588409,0.0,0.0,2.0,20.0,0.0,0.0,0.0,0.0,0.0,0.0,-0.016592,-0.0008539999999999999,0.98759,-0.7000000000000001,0.14,0.0,3.28,3.32,3.25,3.27,3.28,3.29,3.28,3.28,3.3,3.3,3.3,3.29,3.28,3.28,3.28,3.29,3.28,3.29,3.29,3.28,3.31,3.3,3.3,3.29,3.32,3.25,78.8,0.0,1.0,0.0,1.0,1.0,10083383
1765228588472,0.0,0.0,2.0,20.0,0.0,0.0,0.0,0.0,0.0,0.0,-0.016592,-0.0008539999999999999,0.98759,-0.7000000000000001,0.14,0.0,3.28,3.32,3.25,3.27,3.28,3.29,3.28,3.28,3.3,3.3,3.3,3.29,3.28,3.28,3.28,3.29,3.28,3.29,3.29,3.28,3.31,3.3,3.3,3.29,3.32,3.25,78.8,0.0,1.0,0.0,1.0,1.0,10083446
1765228588554,0.0,0.0,2.0,20.0,0.0,0.0,0.0,0.0,0.0,0.0,-0.018666,0.000976,0.995764,-0.7000000000000001,0.14,0.0,3.28,3.32,3.25,3.27,3.28,3.29,3.28,3.28,3.3,3.3,3.3,3.29,3.28,3.28,3.28,3.29,3.28,3.29,3.29,3.28,3.31,3.3,3.3,3.29,3.32,3.25,78.8,0.0,1.0,0.0,1.0,1.0,10083528
1765228588567,0.0,0.0,2.0,20.0,0.0,0.0,0.0,0.0,0.0,0.0,-0.018666,0.000976,0.995764,-0.7000000000000001,0.14,0.0,3.28,3.32,3.25,3.27,3.28,3.29,3.28,3.28,3.3,3.3,3.3,3.29,3.28,3.28,3.28,3.29,3.28,3.29,3.29,3.28,3.31,3.3,3.3,3.29,3.32,3.25,78.9,1.0,1.0,0.0,1.0,1.0,10083541
1765228588592,0.0,0.0,2.0,20.0,0.0,0.0,0.0,0.0,0.0,0.0,-0.018666,0.000976,0.995764,-0.7000000000000001,0.14,0.0,3.28,3.32,3.25,3.27,3.28,3.29,3.28,3.28,3.3,3.3,3.3,3.29,3.28,3.28,3.28,3.29,3.28,3.29,3.29,3.28,3.31,3.3,3.3,3.29,3.32,3.25,78.9,1.0,1.0,0.0,1.0,1.0,10083566
1765228588603,0.0,0.0,2.0,20.0,0.0,0.0,0.0,0.0,0.0,0.0,-0.018666,0.000976,0.995764,-0.49000000000000005,0.28,0.0,3.28,3.32,3.25,3.27,3.28,3.29,3.28,3.28,3.3,3.3,3.3,3.29,3.28,3.28,3.28,3.29,3.28,3.29,3.29,3.28,3.31,3.3,3.3,3.29,3.32,3.25,78.9,1.0,1.0,0.0,1.0,1.0,10083577
1765228588660,0.0,0.0,2.0,20.0,0.0,0.0,0.0,0.0,0.0,0.0,-0.018666,0.000976,0.995764,-0.49000000000000005,0.28,0.0,3.28,3.32,3.25,3.27,3.28,3.29,3.28,3.28,3.3,3.3,3.3,3.29,3.28,3.28,3.28,3.29,3.28,3.29,3.29,3.28,3.31,3.3,3.3,3.29,3.32,3.25,78.9,1.0,1.0,0.0,1.0,1.0,10083634
1765228588693,0.0,0.0,2.0,20.0,0.0,0.0,0.0,0.0,0.0,0.0,-0.019764,0.006954,0.989908,-0.49000000000000005,0.28,0.0,3.28,3.32,3.25,3.27,3.28,3.29,3.28,3.28,3.3,3.3,3.3,3.29,3.28,3.28,3.28,3.29,3.28,3.29,3.29,3.28,3.31,3.3,3.3,3.29,3.32,3.25,78.9,1.0,1.0,0.0,1.0,1.0,10083667
1765228588705,0.0,0.0,2.0,20.0,0.0,0.0,0.0,0.0,0.0,0.0,-0.019764,0.006954,0.989908,-0.56,0.28,0.14,3.28,3.32,3.25,3.27,3.28,3.29,3.28,3.28,3.3,3.3,3.3,3.29,3.28,3.28,3.28,3.29,3.28,3.29,3.29,3.28,3.31,3.3,3.3,3.29,3.32,3.25,78.9,1.0,1.0,0.0,1.0,1.0,10083679
1765228588727,0.0,0.0,2.0,20.0,0.0,0.0,0.0,0.0,0.0,0.0,-0.019764,0.006954,0.989908,-0.56,0.28,0.14,3.28,3.32,3.25,3.27,3.28,3.29,3.28,3.28,3.3,3.3,3.3,3.29,3.28,3.28,3.28,3.29,3.28,3.29,3.29,3.28,3.31,3.3,3.3,3.29,3.32,3.25,78.8,-1.0,1.0,0.0,1.0,1.0,10083701
1765228588751,0.0,0.0,2.0,20.0,0.0,0.0,0.0,0.0,0.0,0.0,-0.019764,0.006954,0.989908,-0.56,0.28,0.14,3.28,3.32,3.25,3.27,3.28,3.29,3.28,3.28,3.3,3.3,3.3,3.29,3.28,3.28,3.28,3.29,3.28,3.29,3.29,3.28,3.31,3.3,3.3,3.29,3.32,3.25,78.8,-1.0,1.0,0.0,1.0,1.0,10083725
1765228588795,0.0,0.0,2.0,20.0,0.0,0.0,0.0,0.0,0.0,0.0,-0.019764,0.006954,0.989908,-0.56,0.28,0.14,3.28,3.32,3.25,3.27,3.28,3.29,3.28,3.28,3.3,3.3,3.3,3.29,3.28,3.28,3.28,3.29,3.28,3.29,3.29,3.28,3.31,3.3,3.3,3.29,3.32,3.25,78.8,-1.0,1.0,0.0,1.0,1.0,10083769
1765228588807,0.0,0.0,2.0,20.0,0.0,0.0,0.0,0.0,0.0,0.0,-0.019764,0.006954,0.989908,-0.56,0.28,0.14,3.28,3.32,3.25,3.27,3.28,3.29,3.28,3.28,3.3,3.3,3.3,3.29,3.28,3.28,3.28,3.29,3.28,3.29,3.29,3.28,3.31,3.3,3.3,3.29,3.32,3.25,78.8,-1.0,1.0,0.0,1.0,1.0,10083781
1765228588818,0.0,0.0,2.0,20.0,0.0,0.0,0.0,0.0,0.0,0.0,-0.019764,0.006954,0.989908,-0.56,0.28,0.14,3.28,3.32,3.25,3.27,3.28,3.29,3.28,3.28,3.3,3.3,3.3,3.29,3.28,3.28,3.28,3.29,3.28,3.29,3.29,3.28,3.31,3.3,3.3,3.29,3.32,3.25,78.8,-1.0,1.0,0.0,1.0,1.0,10083792
1765228588839,0.0,0.0,2.0,20.0,0.0,0.0,0.0,0.0,0.0,0.0,-0.019764,0.006954,0.989908,-0.56,0.28,0.14,3.28,3.32,3.25,3.27,3.28,3.29,3.28,3.28,3.3,3.3,3.3,3.29,3.28,3.28,3.28,3.29,3.28,3.29,3.29,3.28,3.31,3.3,3.3,3.29,3.32,3.25,78.8,-1.0,1.0,0.0,1.0,1.0,10083813
1765228588859,0.0,0.0,2.0,20.0,0.0,0.0,0.0,0.0,0.0,0.0,-0.019764,0.006954,0.989908,-0.56,0.28,0.14,3.28,3.32,3.25,3.27,3.28,3.29,3.28,3.28,3.3,3.3,3.3,3.29,3.28,3.28,3.28,3.29,3.28,3.29,3.29,3.28,3.31,3.3,3.3,3.29,3.32,3.25,78.8,-1.0,1.0,0.0,1.0,1.0,10083833
1765228588910,0.0,0.0,2.0,20.0,0.0,0.0,0.0,0.0,0.0,0.0,-0.0183,0.0060999999999999995,0.997472,-0.56,0.28,0.14,3.28,3.32,3.25,3.27,3.28,3.29,3.28,3.28,3.3,3.3,3.3,3.29,3.28,3.28,3.28,3.29,3.28,3.29,3.29,3.28,3.31,3.3,3.3,3.29,3.32,3.25,78.8,-1.0,1.0,0.0,1.0,1.0,10083884
1765228588919,0.0,0.0,2.0,20.0,0.0,0.0,0.0,0.0,0.0,0.0,-0.0183,0.0060999999999999995,0.997472,-0.56,0.28,0.14,3.28,3.32,3.25,3.27,3.28,3.29,3.28,3.28,3.3,3.3,3.3,3.29,3.28,3.28,3.28,3.29,3.28,3.29,3.29,3.28,3.31,3.3,3.3,3.29,3.32,3.25,78.8,-1.0,1.0,0.0,1.0,1.0,10083893
1765228588980,0.0,0.0,2.0,20.0,0.0,0.0,0.0,0.0,0.0,0.0,-0.0183,0.0060999999999999995,0.997472,-0.56,0.28,0.07,3.28,3.32,3.25,3.27,3.28,3.29,3.28,3.28,3.3,3.3,3.3,3.29,3.28,3.28,3.28,3.29,3.28,3.29,3.29,3.28,3.31,3.3,3.3,3.29,3.32,3.25,78.8,-1.0,1.0,0.0,1.0,1.0,10083954
1765228589033,0.0,0.0,2.0,20.0,0.0,0.0,0.0,0.0,0.0,0.0,-0.019764,-0.001952,0.987956,-0.56,0.28,0.07,3.28,3.32,3.25,3.27,3.28,3.29,3.28,3.28,3.3,3.3,3.3,3.29,3.28,3.28,3.28,3.29,3.28,3.29,3.29,3.28,3.31,3.3,3.3,3.29,3.32,3.25,78.8,-1.0,1.0,0.0,1.0,1.0,10084007
1765228589051,0.0,0.0,2.0,20.0,0.0,0.0,0.0,0.0,0.0,0.0,-0.019764,-0.001952,0.987956,-0.42000000000000004,0.21000000000000002,0.0,3.28,3.32,3.25,3.27,3.28,3.29,3.28,3.28,3.3,3.3,3.3,3.29,3.28,3.28,3.28,3.29,3.28,3.29,3.29,3.28,3.31,3.3,3.3,3.29,3.32,3.25,78.8,-1.0,1.0,0.0,1.0,1.0,10084025
1765228589070,0.0,0.0,2.0,20.0,0.0,0.0,0.0,0.0,0.0,0.0,-0.019764,-0.001952,0.987956,-0.42000000000000004,0.21000000000000002,0.0,3.28,3.32,3.25,3.27,3.28,3.29,3.28,3.28,3.3,3.3,3.3,3.29,3.28,3.28,3.28,3.29,3.28,3.29,3.29,3.28,3.31,3.3,3.3,3.29,3.32,3.25,78.8,-1.0,1.0,0.0,1.0,1.0,10084044
1765228589081,0.0,0.0,2.0,20.0,0.0,0.0,0.0,0.0,0.0,0.0,-0.019764,-0.001952,0.987956,-0.42000000000000004,0.21000000000000002,0.0,3.28,3.32,3.25,3.27,3.28,3.29,3.28,3.28,3.3,3.3,3.3,3.29,3.28,3.28,3.28,3.29,3.28,3.29,3.29,3.28,3.31,3.3,3.3,3.29,3.32,3.25,78.8,-1.0,1.0,0.0,1.0,1.0,10084055
1765228589102,0.0,0.0,2.0,20.0,0.0,0.0,0.0,0.0,0.0,0.0,-0.019764,-0.001952,0.987956,-0.42000000000000004,0.21000000000000002,0.0,3.28,3.32,3.25,3.27,3.28,3.29,3.28,3.28,3.3,3.3,3.3,3.29,3.28,3.28,3.28,3.29,3.28,3.29,3.29,3.28,3.31,3.3,3.3,3.29,3.32,3.25,78.8,-1.0,1.0,0.0,1.0,1.0,10084076
1765228589113,0.0,0.0,2.0,20.0,0.0,0.0,0.0,0.0,0.0,0.0,-0.019764,-0.001952,0.987956,-0.42000000000000004,0.21000000000000002,0.0,3.28,3.32,3.25,3.27,3.28,3.29,3.28,3.28,3.3,3.3,3.3,3.29,3.28,3.28,3.28,3.29,3.28,3.29,3.29,3.28,3.31,3.3,3.3,3.29,3.32,3.25,78.8,-1.0,1.0,0.0,1.0,1.0,10084087
1765228589147,0.0,0.0,2.0,20.0,0.0,0.0,0.0,0.0,0.0,0.0,-0.019764,-0.001952,0.987956,-0.42000000000000004,0.21000000000000002,0.0,3.28,3.32,3.25,3.27,3.28,3.29,3.28,3.28,3.3,3.3,3.3,3.29,3.28,3.28,3.28,3.29,3.28,3.29,3.29,3.28,3.31,3.3,3.3,3.29,3.32,3.25,78.8,-1.0,1.0,0.0,1.0,1.0,10084121
1765228589203,0.0,0.0,2.0,20.0,0.0,0.0,0.0,0.0,0.0,0.0,-0.019764,-0.001952,0.987956,-0.42000000000000004,0.21000000000000002,0.0,3.28,3.32,3.25,3.27,3.28,3.29,3.28,3.28,3.3,3.3,3.3,3.29,3.28,3.28,3.28,3.29,3.28,3.29,3.29,3.28,3.31,3.3,3.3,3.29,3.32,3.25,78.8,-1.0,1.0,0.0,1.0,1.0,10084177
1765228589226,0.0,0.0,2.0,20.0,0.0,0.0,0.0,0.0,0.0,0.0,-0.015493999999999999,0.003538,0.993568,-0.42000000000000004,0.21000000000000002,0.0,3.28,3.32,3.25,3.27,3.28,3.29,3.28,3.28,3.3,3.3,3.3,3.29,3.28,3.28,3.28,3.29,3.28,3.29,3.29,3.28,3.31,3.3,3.3,3.29,3.32,3.25,78.8,-1.0,1.0,0.0,1.0,1.0,10084200
1765228589286,0.0,0.0,2.0,20.0,0.0,0.0,0.0,0.0,0.0,0.0,-0.015493999999999999,0.003538,0.993568,-0.56,0.21000000000000002,0.0,3.28,3.32,3.25,3.27,3.28,3.29,3.28,3.28,3.3,3.3,3.3,3.29,3.28,3.28,3.28,3.29,3.28,3.29,3.29,3.28,3.31,3.3,3.3,3.29,3.32,3.25,78.8,-1.0,1.0,0.0,1.0,1.0,10084260
1765228589325,0.0,0.0,2.0,20.0,0.0,0.0,0.0,0.0,0.0,0.0,-0.015493999999999999,0.003538,0.993568,-0.56,0.21000000000000002,0.0,3.28,3.32,3.25,3.27,3.28,3.29,3.28,3.28,3.3,3.3,3.3,3.29,3.28,3.28,3.28,3.29,3.28,3.29,3.29,3.28,3.31,3.3,3.3,3.29,3.32,3.25,78.8,-1.0,1.0,0.0,1.0,1.0,10084299
1765228589398,0.0,0.0,2.0,20.0,0.0,0.0,0.0,0.0,0.0,0.0,-0.027938,-0.001098,0.9810019999999999,-0.56,0.21000000000000002,0.0,3.28,3.32,3.25,3.27,3.28,3.29,3.28,3.28,3.3,3.3,3.3,3.29,3.28,3.28,3.28,3.29,3.28,3.29,3.29,3.28,3.31,3.3,3.3,3.29,3.32,3.25,78.8,-1.0,1.0,0.0,1.0,1.0,10084372
1765228589409,0.0,0.0,2.0,20.0,0.0,0.0,0.0,0.0,0.0,0.0,-0.027938,-0.001098,0.9810019999999999,-0.9100000000000001,0.21000000000000002,0.07,3.28,3.32,3.25,3.27,3.28,3.29,3.28,3.28,3.3,3.3,3.3,3.29,3.28,3.28,3.28,3.29,3.28,3.29,3.29,3.28,3.31,3.3,3.3,3.29,3.32,3.25,78.8,-1.0,1.0,0.0,1.0,1.0,10084383
1765228589452,0.0,0.0,2.0,20.0,0.0,0.0,0.0,0.0,0.0,0.0,-0.027938,-0.001098,0.9810019999999999,-0.9100000000000001,0.21000000000000002,0.07,3.28,3.32,3.25,3.27,3.28,3.29,3.28,3.28,3.3,3.3,3.3,3.29,3.28,3.28,3.28,3.29,3.28,3.29,3.29,3.28,3.31,3.3,3.3,3.29,3.32,3.25,78.8,-1.0,1.0,0.0,1.0,1.0,10084426
1765228589485,0.0,0.0,2.0,20.0,0.0,0.0,0.0,0.0,0.0,0.0,-0.027938,-0.001098,0.9810019999999999,-0.9100000000000001,0.21000000000000002,0.07,3.28,3.32,3.25,3.27,3.28,3.29,3.28,3.28,3.3,3.3,3.3,3.29,3.28,3.28,3.28,3.29,3.28,3.29,3.29,3.28,3.31,3.3,3.3,3.29,3.32,3.25,78.8,-1.0,1.0,0.0,1.0,1.0,10084459
1765228589507,0.0,0.0,2.0,20.0,0.0,0.0,0.0,0.0,0.0,0.0,-0.027938,-0.001098,0.9810019999999999,-0.9100000000000001,0.21000000000000002,0.07,3.28,3.32,3.25,3.27,3.28,3.29,3.28,3.28,3.3,3.3,3.3,3.29,3.28,3.28,3.28,3.29,3.28,3.29,3.29,3.28,3.31,3.3,3.3,3.29,3.32,3.25,78.8,-1.0,1.0,0.0,1.0,1.0,10084481
1765228589540,0.0,0.0,2.0,20.0,0.0,0.0,0.0,0.0,0.0,0.0,-0.027938,-0.001098,0.9810019999999999,-0.9100000000000001,0.21000000000000002,0.07,3.28,3.32,3.25,3.27,3.28,3.29,3.28,3.28,3.3,3.3,3.3,3.29,3.28,3.28,3.28,3.29,3.28,3.29,3.29,3.28,3.31,3.3,3.3,3.29,3.32,3.25,78.8,-1.0,1.0,0.0,1.0,1.0,10084514
1765228589552,0.0,0.0,2.0,20.0,0.0,0.0,0.0,0.0,0.0,0.0,-0.027938,-0.001098,0.9810019999999999,-0.9100000000000001,0.21000000000000002,0.07,3.28,3.32,3.25,3.27,3.28,3.29,3.28,3.28,3.3,3.3,3.3,3.29,3.28,3.28,3.28,3.29,3.28,3.29,3.29,3.28,3.31,3.3,3.3,3.29,3.32,3.25,78.8,-1.0,1.0,0.0,1.0,1.0,10084526
1765228589562,0.0,0.0,2.0,20.0,0.0,0.0,0.0,0.0,0.0,0.0,-0.027938,-0.001098,0.9810019999999999,-0.9100000000000001,0.21000000000000002,0.07,3.28,3.32,3.25,3.27,3.28,3.29,3.28,3.28,3.3,3.3,3.3,3.29,3.28,3.28,3.28,3.29,3.28,3.29,3.29,3.28,3.31,3.3,3.3,3.29,3.32,3.25,78.8,-1.0,1.0,0.0,1.0,1.0,10084536
1765228589583,0.0,0.0,2.0,20.0,0.0,0.0,0.0,0.0,0.0,0.0,-0.01891,0.00366,0.987224,-0.9100000000000001,0.21000000000000002,0.07,3.28,3.32,3.25,3.27,3.28,3.29,3.28,3.28,3.3,3.3,3.3,3.29,3.28,3.28,3.28,3.29,3.28,3.29,3.29,3.28,3.31,3.3,3.3,3.29,3.32,3.25,78.8,-1.0,1.0,0.0,1.0,1.0,10084557
1765228589616,0.0,0.0,2.0,20.0,0.0,0.0,0.0,0.0,0.0,0.0,-0.01891,0.00366,0.987224,-0.9100000000000001,0.21000000000000002,0.07,3.28,3.32,3.25,3.27,3.28,3.29,3.28,3.28,3.3,3.3,3.3,3.29,3.28,3.28,3.28,3.29,3.28,3.29,3.29,3.28,3.31,3.3,3.3,3.29,3.32,3.25,78.8,-1.0,1.0,0.0,1.0,1.0,10084590
1765228589667,0.0,0.0,2.0,20.0,0.0,0.0,0.0,0.0,0.0,0.0,-0.01891,0.00366,0.987224,-0.9100000000000001,0.21000000000000002,0.07,3.28,3.32,3.25,3.27,3.28,3.29,3.28,3.28,3.3,3.3,3.3,3.29,3.28,3.28,3.28,3.29,3.28,3.29,3.29,3.28,3.31,3.3,3.3,3.29,3.32,3.25,78.8,-1.0,1.0,0.0,1.0,1.0,10084641
1765228589675,0.0,0.0,2.0,20.0,0.0,0.0,0.0,0.0,0.0,0.0,-0.01891,0.00366,0.987224,-0.56,0.35000000000000003,0.0,3.28,3.32,3.25,3.27,3.28,3.29,3.28,3.28,3.3,3.3,3.3,3.29,3.28,3.28,3.28,3.29,3.28,3.29,3.29,3.28,3.31,3.3,3.3,3.29,3.32,3.25,78.8,-1.0,1.0,0.0,1.0,1.0,10084649
1765228589761,0.0,0.0,2.0,20.0,0.0,0.0,0.0,0.0,0.0,0.0,-0.021471999999999998,0.0030499999999999998,0.998204,-0.56,0.35000000000000003,0.0,3.28,3.32,3.25,3.27,3.28,3.29,3.28,3.28,3.3,3.3,3.3,3.29,3.28,3.28,3.28,3.29,3.28,3.29,3.29,3.28,3.31,3.3,3.3,3.29,3.32,3.25,78.8,-1.0,1.0,0.0,1.0,1.0,10084735
1765228589784,0.0,0.0,2.0,20.0,0.0,0.0,0.0,0.0,0.0,0.0,-0.021471999999999998,0.0030499999999999998,0.998204,-0.77,0.35000000000000003,-0.14,3.28,3.32,3.25,3.27,3.28,3.29,3.28,3.28,3.3,3.3,3.3,3.29,3.28,3.28,3.28,3.29,3.28,3.29,3.29,3.28,3.31,3.3,3.3,3.29,3.32,3.25,78.8,-1.0,1.0,0.0,1.0,1.0,10084758
1765228589829,0.0,0.0,2.0,20.0,0.0,0.0,0.0,0.0,0.0,0.0,-0.021471999999999998,0.0030499999999999998,0.998204,-0.77,0.35000000000000003,-0.14,3.28,3.32,3.25,3.27,3.28,3.29,3.28,3.28,3.3,3.3,3.3,3.29,3.28,3.28,3.28,3.29,3.28,3.29,3.29,3.28,3.31,3.3,3.3,3.29,3.32,3.25,78.8,-1.0,1.0,0.0,1.0,1.0,10084803
1765228589840,0.0,0.0,2.0,20.0,0.0,0.0,0.0,0.0,0.0,0.0,-0.021471999999999998,0.0030499999999999998,0.998204,-0.77,0.35000000000000003,-0.14,3.28,3.32,3.25,3.27,3.28,3.29,3.28,3.28,3.3,3.3,3.3,3.29,3.28,3.28,3.28,3.29,3.28,3.29,3.29,3.28,3.31,3.3,3.3,3.29,3.32,3.25,78.8,-1.0,1.0,0.0,1.0,1.0,10084814
1765228589851,0.0,0.0,2.0,20.0,0.0,0.0,0.0,0.0,0.0,0.0,-0.021471999999999998,0.0030499999999999998,0.998204,-0.77,0.35000000000000003,-0.14,3.28,3.32,3.25,3.27,3.28,3.29,3.28,3.28,3.3,3.3,3.3,3.29,3.28,3.28,3.28,3.29,3.28,3.29,3.29,3.28,3.31,3.3,3.3,3.29,3.32,3.25,78.8,-1.0,1.0,0.0,1.0,1.0,10084825
1765228589860,0.0,0.0,2.0,20.0,0.0,0.0,0.0,0.0,0.0,0.0,-0.021471999999999998,0.0030499999999999998,0.998204,-0.77,0.35000000000000003,-0.14,3.28,3.32,3.25,3.27,3.28,3.29,3.28,3.28,3.3,3.3,3.3,3.29,3.28,3.28,3.28,3.29,3.28,3.29,3.29,3.28,3.31,3.3,3.3,3.29,3.32,3.25,78.8,-1.0,1.0,0.0,1.0,1.0,10084834
1765228589910,0.0,0.0,2.0,20.0,0.0,0.0,0.0,0.0,0.0,0.0,-0.020862,0.002074,0.990518,-0.77,0.35000000000000003,-0.14,3.28,3.32,3.25,3.27,3.28,3.29,3.28,3.28,3.3,3.3,3.3,3.29,3.28,3.28,3.28,3.29,3.28,3.29,3.29,3.28,3.31,3.3,3.3,3.29,3.32,3.25,78.8,-1.0,1.0,0.0,1.0,1.0,10084884
1765228589921,0.0,0.0,2.0,20.0,0.0,0.0,0.0,0.0,0.0,0.0,-0.020862,0.002074,0.990518,-0.6300000000000001,0.49000000000000005,0.0,3.28,3.32,3.25,3.27,3.28,3.29,3.28,3.28,3.3,3.3,3.3,3.29,3.28,3.28,3.28,3.29,3.28,3.29,3.29,3.28,3.31,3.3,3.3,3.29,3.32,3.25,78.8,-1.0,1.0,0.0,1.0,1.0,10084895
1765228589962,0.0,0.0,2.0,20.0,0.0,0.0,0.0,0.0,0.0,0.0,-0.020862,0.002074,0.990518,-0.6300000000000001,0.49000000000000005,0.0,3.28,3.32,3.25,3.27,3.28,3.29,3.28,3.28,3.3,3.3,3.3,3.29,3.28,3.28,3.28,3.29,3.28,3.29,3.29,3.28,3.31,3.3,3.3,3.29,3.32,3.25,78.8,-1.0,1.0,0.0,1.0,1.0,10084936
1765228589973,0.0,0.0,2.0,20.0,0.0,0.0,0.0,0.0,0.0,0.0,-0.020862,0.002074,0.990518,-0.6300000000000001,0.49000000000000005,0.0,3.28,3.32,3.25,3.27,3.28,3.29,3.28,3.28,3.3,3.3,3.3,3.29,3.28,3.28,3.28,3.29,3.28,3.29,3.29,3.28,3.31,3.3,3.3,3.29,3.32,3.25,78.8,-1.0,1.0,0.0,1.0,1.0,10084947
1765228589990,0.0,0.0,2.0,20.0,0.0,0.0,0.0,0.0,0.0,0.0,-0.020862,0.002074,0.990518,-0.6300000000000001,0.49000000000000005,0.0,3.28,3.32,3.25,3.27,3.28,3.29,3.28,3.28,3.3,3.3,3.3,3.29,3.28,3.28,3.28,3.29,3.28,3.29,3.29,3.28,3.31,3.3,3.3,3.29,3.32,3.25,78.8,-1.0,1.0,0.0,1.0,1.0,10084964
1765228589999,0.0,0.0,2.0,20.0,0.0,0.0,0.0,0.0,0.0,0.0,-0.020862,0.002074,0.990518,-0.6300000000000001,0.49000000000000005,0.0,3.28,3.32,3.25,3.27,3.28,3.29,3.28,3.28,3.3,3.3,3.3,3.29,3.28,3.28,3.28,3.29,3.28,3.29,3.29,3.28,3.31,3.3,3.3,3.29,3.32,3.25,78.8,-1.0,1.0,0.0,1.0,1.0,10084973
1765228590023,0.0,0.0,2.0,20.0,0.0,0.0,0.0,0.0,0.0,0.0,-0.020862,0.002074,0.990518,-0.6300000000000001,0.49000000000000005,0.0,3.28,3.32,3.25,3.27,3.28,3.29,3.28,3.28,3.3,3.3,3.3,3.29,3.28,3.28,3.28,3.29,3.28,3.29,3.29,3.28,3.31,3.3,3.3,3.29,3.32,3.25,78.8,-1.0,1.0,0.0,1.0,1.0,10084997
1765228590058,0.0,0.0,2.0,20.0,0.0,0.0,0.0,0.0,0.0,0.0,-0.019275999999999998,-0.000244,0.9928359999999999,-0.6300000000000001,0.49000000000000005,0.0,3.28,3.32,3.25,3.27,3.28,3.29,3.28,3.28,3.3,3.3,3.3,3.29,3.28,3.28,3.28,3.29,3.28,3.29,3.29,3.28,3.31,3.3,3.3,3.29,3.32,3.25,78.8,-1.0,1.0,0.0,1.0,1.0,10085032
1765228590091,0.0,0.0,2.0,20.0,0.0,0.0,0.0,0.0,0.0,0.0,-0.019275999999999998,-0.000244,0.9928359999999999,-0.6300000000000001,0.49000000000000005,0.0,3.28,3.32,3.25,3.27,3.28,3.29,3.28,3.28,3.3,3.3,3.3,3.29,3.28,3.28,3.28,3.29,3.28,3.29,3.29,3.28,3.31,3.3,3.3,3.29,3.32,3.25,78.8,-1.0,1.0,0.0,1.0,1.0,10085065
1765228590102,0.0,0.0,2.0,20.0,0.0,0.0,0.0,0.0,0.0,0.0,-0.019275999999999998,-0.000244,0.9928359999999999,-0.56,0.35000000000000003,0.07,3.28,3.32,3.25,3.27,3.28,3.29,3.28,3.28,3.3,3.3,3.3,3.29,3.28,3.28,3.28,3.29,3.28,3.29,3.29,3.28,3.31,3.3,3.3,3.29,3.32,3.25,78.8,-1.0,1.0,0.0,1.0,1.0,10085076
1765228590208,0.0,0.0,2.0,20.0,0.0,0.0,0.0,0.0,0.0,0.0,-0.01952,0.00183,0.993812,-0.7000000000000001,0.21000000000000002,0.07,3.28,3.32,3.25,3.27,3.28,3.29,3.28,3.28,3.3,3.3,3.3,3.29,3.28,3.28,3.28,3.29,3.28,3.29,3.29,3.28,3.31,3.3,3.3,3.29,3.32,3.25,78.8,-1.0,1.0,0.0,1.0,1.0,10085182
1765228590251,0.0,0.0,2.0,20.0,0.0,0.0,0.0,0.0,0.0,0.0,-0.01952,0.00183,0.993812,-0.7000000000000001,0.21000000000000002,0.07,3.28,3.32,3.25,3.27,3.28,3.29,3.28,3.28,3.3,3.3,3.3,3.29,3.28,3.28,3.28,3.29,3.28,3.29,3.29,3.28,3.31,3.3,3.3,3.29,3.32,3.25,78.8,-1.0,1.0,0.0,1.0,1.0,10085225
1765228590261,0.0,0.0,2.0,20.0,0.0,0.0,0.0,0.0,0.0,0.0,-0.01952,0.00183,0.993812,-0.7000000000000001,0.21000000000000002,0.07,3.28,3.32,3.25,3.27,3.28,3.29,3.28,3.28,3.3,3.3,3.3,3.29,3.28,3.28,3.28,3.29,3.28,3.29,3.29,3.28,3.31,3.3,3.3,3.29,3.32,3.25,78.8,-1.0,1.0,0.0,1.0,1.0,10085235
1765228590273,0.0,0.0,2.0,20.0,0.0,0.0,0.0,0.0,0.0,0.0,-0.01952,0.00183,0.993812,-0.7000000000000001,0.21000000000000002,0.07,3.28,3.32,3.25,3.27,3.28,3.29,3.28,3.28,3.3,3.3,3.3,3.29,3.28,3.28,3.28,3.29,3.28,3.29,3.29,3.28,3.31,3.3,3.3,3.29,3.32,3.25,78.8,-1.0,1.0,0.0,1.0,1.0,10085247
1765228590282,0.0,0.0,2.0,20.0,0.0,0.0,0.0,0.0,0.0,0.0,-0.01952,0.00183,0.993812,-0.7000000000000001,0.21000000000000002,0.07,3.28,3.32,3.25,3.27,3.28,3.29,3.28,3.28,3.3,3.3,3.3,3.29,3.28,3.28,3.28,3.29,3.28,3.29,3.29,3.28,3.31,3.3,3.3,3.29,3.32,3.25,78.8,-1.0,1.0,0.0,1.0,1.0,10085256
1765228590316,0.0,0.0,2.0,20.0,0.0,0.0,0.0,0.0,0.0,0.0,-0.01952,0.00183,0.993812,-0.7000000000000001,0.21000000000000002,0.07,3.28,3.32,3.25,3.27,3.28,3.29,3.28,3.28,3.3,3.3,3.3,3.29,3.28,3.28,3.28,3.29,3.28,3.29,3.29,3.28,3.31,3.3,3.3,3.29,3.32,3.25,78.8,-1.0,1.0,0.0,1.0,1.0,10085290
1765228590357,0.0,0.0,2.0,20.0,0.0,0.0,0.0,0.0,0.0,0.0,-0.017079999999999998,0.004514,0.992714,-0.7000000000000001,0.21000000000000002,0.07,3.28,3.32,3.25,3.27,3.28,3.29,3.28,3.28,3.3,3.3,3.3,3.29,3.28,3.28,3.28,3.29,3.28,3.29,3.29,3.28,3.31,3.3,3.3,3.29,3.32,3.25,78.8,-1.0,1.0,0.0,1.0,1.0,10085331
1765228590380,0.0,0.0,2.0,20.0,0.0,0.0,0.0,0.0,0.0,0.0,-0.017079999999999998,0.004514,0.992714,-0.7000000000000001,0.21000000000000002,0.07,3.28,3.32,3.25,3.27,3.28,3.29,3.28,3.28,3.3,3.3,3.3,3.29,3.28,3.28,3.28,3.29,3.28,3.29,3.29,3.28,3.31,3.3,3.3,3.29,3.32,3.25,78.8,-1.0,1.0,0.0,1.0,1.0,10085354
1765228590397,0.0,0.0,2.0,20.0,0.0,0.0,0.0,0.0,0.0,0.0,-0.017079999999999998,0.004514,0.992714,-0.7000000000000001,0.21000000000000002,0.07,3.28,3.32,3.25,3.27,3.28,3.29,3.28,3.28,3.3,3.3,3.3,3.29,3.28,3.28,3.28,3.29,3.28,3.29,3.29,3.28,3.31,3.3,3.3,3.29,3.32,3.25,78.8,0.0,1.0,0.0,1.0,1.0,10085371
1765228590437,0.0,0.0,2.0,20.0,0.0,0.0,0.0,0.0,0.0,0.0,-0.017079999999999998,0.004514,0.992714,-0.7000000000000001,0.21000000000000002,0.07,3.28,3.32,3.25,3.27,3.28,3.29,3.28,3.28,3.3,3.3,3.3,3.29,3.28,3.28,3.28,3.29,3.28,3.29,3.29,3.28,3.31,3.3,3.3,3.29,3.32,3.25,78.8,0.0,1.0,0.0,1.0,1.0,10085411
1765228590462,0.0,0.0,2.0,20.0,0.0,0.0,0.0,0.0,0.0,0.0,-0.017079999999999998,0.004514,0.992714,-0.49000000000000005,0.28,0.0,3.28,3.32,3.25,3.27,3.28,3.29,3.28,3.28,3.3,3.3,3.3,3.29,3.28,3.28,3.28,3.29,3.28,3.29,3.29,3.28,3.31,3.3,3.3,3.29,3.32,3.25,78.8,0.0,1.0,0.0,1.0,1.0,10085436
1765228590522,0.0,0.0,2.0,20.0,0.0,0.0,0.0,0.0,0.0,0.0,-0.017079999999999998,0.004514,0.992714,-0.49000000000000005,0.28,0.0,3.28,3.32,3.25,3.27,3.28,3.29,3.28,3.28,3.3,3.3,3.3,3.29,3.28,3.28,3.28,3.29,3.28,3.29,3.29,3.28,3.31,3.3,3.3,3.29,3.32,3.25,78.8,0.0,1.0,0.0,1.0,1.0,10085496
1765228590607,0.0,0.0,2.0,20.0,0.0,0.0,0.0,0.0,0.0,0.0,-0.017079999999999998,0.004514,0.992714,-0.49000000000000005,0.28,0.0,3.28,3.32,3.25,3.27,3.28,3.29,3.28,3.28,3.3,3.3,3.3,3.29,3.28,3.28,3.28,3.29,3.28,3.29,3.29,3.28,3.31,3.3,3.3,3.29,3.32,3.25,78.9,1.0,1.0,0.0,1.0,1.0,10085581
1765228590629,0.0,0.0,2.0,20.0,0.0,0.0,0.0,0.0,0.0,0.0,-0.017079999999999998,0.004514,0.992714,-0.49000000000000005,0.28,0.0,3.28,3.32,3.25,3.27,3.28,3.29,3.28,3.28,3.3,3.3,3.3,3.29,3.28,3.28,3.28,3.29,3.28,3.29,3.29,3.28,3.31,3.3,3.3,3.29,3.32,3.25,78.9,1.0,1.0,0.0,1.0,1.0,10085603
1765228590660,0.0,0.0,2.0,20.0,0.0,0.0,0.0,0.0,0.0,0.0,-0.028914,0.0046359999999999995,0.996252,-0.49000000000000005,0.28,0.0,3.28,3.32,3.25,3.27,3.28,3.29,3.28,3.28,3.3,3.3,3.3,3.29,3.28,3.28,3.28,3.29,3.28,3.29,3.29,3.28,3.31,3.3,3.3,3.29,3.32,3.25,78.9,1.0,1.0,0.0,1.0,1.0,10085634
1765228590670,0.0,0.0,2.0,20.0,0.0,0.0,0.0,0.0,0.0,0.0,-0.028914,0.0046359999999999995,0.996252,-0.56,0.21000000000000002,0.0,3.28,3.32,3.25,3.27,3.28,3.29,3.28,3.28,3.3,3.3,3.3,3.29,3.28,3.28,3.28,3.29,3.28,3.29,3.29,3.28,3.31,3.3,3.3,3.29,3.32,3.25,78.9,1.0,1.0,0.0,1.0,1.0,10085644
1765228590722,847.0,0.0,2.0,20.0,0.0,0.0,0.0,0.0,0.0,0.0,-0.028914,0.0046359999999999995,0.996252,-0.56,0.21000000000000002,0.0,3.28,3.32,3.25,3.27,3.28,3.29,3.28,3.28,3.3,3.3,3.3,3.29,3.28,3.28,3.28,3.29,3.28,3.29,3.29,3.28,3.31,3.3,3.3,3.29,3.32,3.25,78.9,1.0,1.0,0.0,1.0,1.0,10085696
1765228590732,847.0,0.0,2.0,20.0,0.0,0.0,0.0,0.0,0.0,0.0,-0.028914,0.0046359999999999995,0.996252,-0.56,0.21000000000000002,0.0,3.28,3.32,3.25,3.27,3.28,3.29,3.28,3.28,3.3,3.3,3.3,3.29,3.28,3.28,3.28,3.29,3.28,3.29,3.29,3.28,3.31,3.3,3.3,3.29,3.32,3.25,78.9,1.0,1.0,0.0,1.0,1.0,10085706
1765228590743,847.0,0.0,2.0,20.0,300.0,300.0,0.0,0.0,0.0,0.0,-0.028914,0.0046359999999999995,0.996252,-0.56,0.21000000000000002,0.0,3.28,3.32,3.25,3.27,3.28,3.29,3.28,3.28,3.3,3.3,3.3,3.29,3.28,3.28,3.28,3.29,3.28,3.29,3.29,3.28,3.31,3.3,3.3,3.29,3.32,3.25,78.9,1.0,1.0,0.0,1.0,1.0,10085717
1765228590755,847.0,0.0,2.0,20.0,300.0,300.0,0.0,0.0,0.011040128571428571,0.0,-0.028914,0.0046359999999999995,0.996252,-0.56,0.21000000000000002,0.0,3.28,3.32,3.25,3.27,3.28,3.29,3.28,3.28,3.3,3.3,3.3,3.29,3.28,3.28,3.28,3.29,3.28,3.29,3.29,3.28,3.31,3.3,3.3,3.29,3.32,3.25,78.9,1.0,1.0,0.0,1.0,1.0,10085729
1765228590794,847.0,0.0,2.0,20.0,300.0,300.0,0.011040128571428571,0.0,0.011040128571428571,0.0,-0.028914,0.0046359999999999995,0.996252,-0.56,0.21000000000000002,0.0,3.28,3.32,3.25,3.27,3.28,3.29,3.28,3.28,3.3,3.3,3.3,3.29,3.28,3.28,3.28,3.29,3.28,3.29,3.29,3.28,3.31,3.3,3.3,3.29,3.32,3.25,78.9,1.0,1.0,0.0,1.0,1.0,10085768
1765228590815,847.0,0.0,2.0,20.0,300.0,300.0,0.011040128571428571,0.0,0.011040128571428571,0.0,-0.012444,0.0026839999999999998,0.994178,-0.56,0.21000000000000002,0.0,3.28,3.32,3.25,3.27,3.28,3.29,3.28,3.28,3.3,3.3,3.3,3.29,3.28,3.28,3.28,3.29,3.28,3.29,3.29,3.28,3.31,3.3,3.3,3.29,3.32,3.25,78.9,1.0,1.0,0.0,1.0,1.0,10085789
1765228590844,847.0,0.0,2.0,20.0,300.0,300.0,0.011040128571428571,0.0,0.011040128571428571,0.0,-0.012444,0.0026839999999999998,0.994178,-0.56,0.21000000000000002,0.0,3.28,3.32,3.25,3.27,3.28,3.29,3.28,3.28,3.3,3.3,3.3,3.29,3.28,3.28,3.28,3.29,3.28,3.29,3.29,3.28,3.31,3.3,3.3,3.29,3.32,3.25,78.9,1.0,1.0,0.0,1.0,1.0,10085818
1765228590852,847.0,0.0,2.0,20.0,300.0,300.0,0.011040128571428571,0.0,0.011040128571428571,0.0,-0.012444,0.0026839999999999998,0.994178,-0.77,0.35000000000000003,-0.07,3.28,3.32,3.25,3.27,3.28,3.29,3.28,3.28,3.3,3.3,3.3,3.29,3.28,3.28,3.28,3.29,3.28,3.29,3.29,3.28,3.31,3.3,3.3,3.29,3.32,3.25,78.9,1.0,1.0,0.0,1.0,1.0,10085826
1765228590956,847.0,0.0,2.0,20.0,300.0,300.0,0.011040128571428571,0.0,0.011040128571428571,0.0,-0.01586,-0.00183,0.989542,-0.77,0.35000000000000003,-0.07,3.28,3.32,3.25,3.27,3.28,3.29,3.28,3.28,3.3,3.3,3.3,3.29,3.28,3.28,3.28,3.29,3.28,3.29,3.29,3.28,3.31,3.3,3.3,3.29,3.32,3.25,78.9,1.0,1.0,0.0,1.0,1.0,10085930
