timestamp,THROTTLE,BRAKE,ECU_MODE_ID,TORQUE_GAIN,TORQUE_REF_LEFT_MOTOR,TORQUE_REF_RIGHT_MOTOR,LEFT_MOTOR_SPEED,LEFT_MOTOR_TORQUE,LEFT_MOTOR_POWER,LEFT_MOTOR_CURRENT,RIGHT_MOTOR_SPEED,RIGHT_MOTOR_TORQUE,RIGHT_MOTOR_POWER,RIGHT_MOTOR_CURRENT,REAR_LEFT_WHEEL_SPEED,REAR_RIGHT_WHEEL_SPEED,FRONT_LEFT_WHEEL_SPEED,FRONT_RIGHT_WHEEL_SPEED,ACCEL_LONGITUDINAL,ACCEL_LATERAL,ACCEL_NORMAL,VEL_ANGULAR_YAW,VEL_ANGULAR_PITCH,VEL_ANGULAR_ROLL,ELETROBUILD_TEMPERATURE,STACK_1_CELL_1,STACK_1_CELL_2,STACK_1_CELL_3,STACK_1_CELL_4,STACK_2_CELL_1,STACK_2_CELL_2,STACK_2_CELL_3,STACK_2_CELL_4,STACK_3_CELL_1,STACK_3_CELL_2,STACK_3_CELL_3,STACK_3_CELL_4,STACK_4_CELL_1,STACK_4_CELL_2,STACK_4_CELL_3,STACK_4_CELL_4,STACK_5_CELL_1,STACK_5_CELL_2,STACK_5_CELL_3,STACK_5_CELL_4,STACK_6_CELL_1,STACK_6_CELL_2,STACK_6_CELL_3,STACK_6_CELL_4,MAX_VOLTAGE,MIN_VOLTAGE,SHUNT_CURRENT,BMS_MODE_ID,BMS_ERROR_ID,AIR_P,AIR_N,t
1765915845002,0.0,0.0,0.0,0.0,0.0,0.0,39.29181758571429,896.0,0.0,1324.0,39.20349655714286,889.0,43.0,1310.0,39.29181758571429,39.20349655714286,0.0,0.0,-0.05307,-0.054168,1.01382,0.6300000000000001,-0.28,0.07,27.68359375,3.24,3.29,3.19,3.22,3.26,3.24,3.26,3.3,3.27,3.28,3.27,3.26,3.26,3.28,3.21,3.25,3.27,3.26,3.27,3.23,3.29,3.28,3.28,3.27,3.3,3.19,0.0,1.0,2.0,0.0,0.0,19664984
1765915845035,0.0,0.0,1.0,10.0,0.0,0.0,39.29181758571429,896.0,0.0,1324.0,39.20349655714286,889.0,43.0,1310.0,39.29181758571429,39.20349655714286,0.0,0.0,-0.05307,-0.054168,1.01382,0.6300000000000001,-0.28,0.07,27.68359375,3.24,3.29,3.19,3.22,3.26,3.24,3.26,3.3,3.27,3.28,3.27,3.26,3.26,3.28,3.21,3.25,3.27,3.26,3.27,3.23,3.29,3.28,3.28,3.27,3.3,3.19,0.0,1.0,2.0,0.0,0.0,19665017
1765915845051,0.0,0.0,1.0,10.0,0.0,0.0,39.29181758571429,896.0,0.0,1324.0,39.20349655714286,889.0,43.0,1310.0,39.29181758571429,39.20349655714286,0.0,0.0,-0.05307,-0.054168,1.01382,0.6300000000000001,-0.42000000000000004,0.0,27.68359375,3.24,3.29,3.19,3.22,3.26,3.24,3.26,3.3,3.27,3.28,3.27,3.26,3.26,3.28,3.21,3.25,3.27,3.26,3.27,3.23,3.29,3.28,3.28,3.27,3.3,3.19,0.0,1.0,2.0,0.0,0.0,19665033
1765915845068,0.0,0.0,1.0,10.0,0.0,0.0,39.29181758571429,896.0,0.0,1324.0,39.20349655714286,889.0,43.0,1310.0,0.0,0.0,0.0,0.0,-0.05307,-0.054168,1.01382,0.6300000000000001,-0.42000000000000004,0.0,27.68359375,3.24,3.29,3.19,3.22,3.26,3.24,3.26,3.3,3.27,3.28,3.27,3.26,3.26,3.28,3.21,3.25,3.27,3.26,3.27,3.23,3.29,3.28,3.28,3.27,3.3,3.19,0.0,1.0,2.0,0.0,0.0,19665050
1765915845102,0.0,0.0,1.0,10.0,0.0,0.0,0.0,0.0,0.0,0.0,39.20349655714286,889.0,43.0,1310.0,0.0,0.0,0.0,0.0,-0.05307,-0.054168,1.01382,0.6300000000000001,-0.42000000000000004,0.0,27.68359375,3.24,3.29,3.19,3.22,3.26,3.24,3.26,3.3,3.27,3.28,3.27,3.26,3.26,3.28,3.21,3.25,3.27,3.26,3.27,3.23,3.29,3.28,3.28,3.27,3.3,3.19,0.0,1.0,2.0,0.0,0.0,19665084
1765915845118,0.0,0.0,1.0,10.0,0.0,0.0,0.0,0.0,0.0,0.0,39.20349655714286,889.0,43.0,1310.0,0.0,0.0,0.0,0.0,-0.05307,-0.054168,1.01382,0.6300000000000001,-0.42000000000000004,0.0,28.24609375,3.24,3.29,3.19,3.22,3.26,3.24,3.26,3.3,3.27,3.28,3.27,3.26,3.26,3.28,3.21,3.25,3.27,3.26,3.27,3.23,3.29,3.28,3.28,3.27,3.3,3.19,0.0,1.0,2.0,0.0,0.0,19665100
1765915845168,0.0,0.0,1.0,10.0,0.0,0.0,0.0,0.0,0.0,0.0,0.0,0.0,0.0,0.0,0.0,0.0,0.0,0.0,-0.05307,-0.054168,1.01382,0.6300000000000001,-0.42000000000000004,0.0,28.24609375,3.24,3.29,3.19,3.22,3.26,3.24,3.26,3.3,3.27,3.28,3.27,3.26,3.26,3.28,3.21,3.25,3.27,3.26,3.27,3.23,3.29,3.28,3.28,3.27,3.3,3.19,0.0,1.0,2.0,0.0,0.0,19665150
1765915845235,0.0,0.0,1.0,10.0,0.0,0.0,0.0,0.0,0.0,0.0,0.0,0.0,0.0,0.0,0.0,0.0,0.0,0.0,-0.05124,-0.05795,1.011014,0.6300000000000001,-0.42000000000000004,0.0,28.24609375,3.24,3.29,3.19,3.22,3.26,3.24,3.26,3.3,3.27,3.28,3.27,3.26,3.26,3.28,3.21,3.25,3.27,3.26,3.27,3.23,3.29,3.28,3.28,3.27,3.3,3.19,0.0,1.0,2.0,0.0,0.0,19665217
1765915845252,0.0,0.0,1.0,10.0,0.0,0.0,0.0,0.0,0.0,0.0,0.0,0.0,0.0,0.0,0.0,0.0,0.0,0.0,-0.05124,-0.05795,1.011014,0.6300000000000001,-0.42000000000000004,0.07,28.24609375,3.24,3.29,3.19,3.22,3.26,3.24,3.26,3.3,3.27,3.28,3.27,3.26,3.26,3.28,3.21,3.25,3.27,3.26,3.27,3.23,3.29,3.28,3.28,3.27,3.3,3.19,0.0,1.0,2.0,0.0,0.0,19665234
1765915845268,0.0,0.0,1.0,10.0,0.0,0.0,0.0,0.0,0.0,0.0,0.0,0.0,0.0,0.0,0.0,0.0,0.0,0.0,-0.05124,-0.05795,1.011014,0.6300000000000001,-0.42000000000000004,0.07,28.27734375,3.24,3.29,3.19,3.22,3.26,3.24,3.26,3.3,3.27,3.28,3.27,3.26,3.26,3.28,3.21,3.25,3.27,3.26,3.27,3.23,3.29,3.28,3.28,3.27,3.3,3.19,0.0,1.0,2.0,0.0,0.0,19665250
1765915845302,0.0,0.0,1.0,10.0,0.0,0.0,0.0,0.0,0.0,0.0,0.0,0.0,0.0,0.0,0.0,0.0,0.0,0.0,-0.05124,-0.05795,1.011014,0.6300000000000001,-0.42000000000000004,0.07,28.27734375,3.24,3.29,3.19,3.22,3.26,3.24,3.26,3.3,3.27,3.28,3.27,3.26,3.26,3.28,3.21,3.25,3.27,3.26,3.27,3.23,3.29,3.28,3.28,3.27,3.3,3.19,0.0,1.0,2.0,0.0,0.0,19665284
1765915845318,0.0,0.0,1.0,10.0,0.0,0.0,0.0,0.0,0.0,0.0,0.0,0.0,0.0,0.0,0.0,0.0,0.0,0.0,-0.05124,-0.05795,1.011014,0.6300000000000001,-0.42000000000000004,0.07,28.27734375,3.24,3.29,3.19,3.22,3.26,3.24,3.26,3.3,3.27,3.28,3.27,3.26,3.26,3.28,3.21,3.25,3.27,3.26,3.27,3.23,3.29,3.28,3.28,3.27,3.3,3.19,0.0,1.0,2.0,0.0,0.0,19665300
1765915845335,0.0,0.0,1.0,10.0,0.0,0.0,0.0,0.0,0.0,0.0,0.0,0.0,0.0,0.0,0.0,0.0,0.0,0.0,-0.05124,-0.05795,1.011014,0.6300000000000001,-0.42000000000000004,0.07,28.27734375,3.24,3.29,3.19,3.22,3.26,3.24,3.26,3.3,3.27,3.28,3.27,3.26,3.26,3.28,3.21,3.25,3.27,3.26,3.27,3.23,3.29,3.28,3.28,3.27,3.3,3.19,0.0,1.0,2.0,0.0,0.0,19665317
1765915845352,0.0,0.0,1.0,10.0,0.0,0.0,0.0,0.0,0.0,0.0,0.0,0.0,0.0,0.0,0.0,0.0,0.0,0.0,-0.054412,-0.055144,1.012356,0.6300000000000001,-0.42000000000000004,0.07,28.27734375,3.24,3.29,3.19,3.22,3.26,3.24,3.26,3.3,3.27,3.28,3.27,3.26,3.26,3.28,3.21,3.25,3.27,3.26,3.27,3.23,3.29,3.28,3.28,3.27,3.3,3.19,0.0,1.0,2.0,0.0,0.0,19665334
1765915845385,0.0,0.0,1.0,10.0,0.0,0.0,0.0,0.0,0.0,0.0,0.0,0.0,0.0,0.0,0.0,0.0,0.0,0.0,-0.054412,-0.055144,1.012356,0.6300000000000001,-0.49000000000000005,0.14,28.27734375,3.24,3.29,3.19,3.22,3.26,3.24,3.26,3.3,3.27,3.28,3.27,3.26,3.26,3.28,3.21,3.25,3.27,3.26,3.27,3.23,3.29,3.28,3.28,3.27,3.3,3.19,0.0,1.0,2.0,0.0,0.0,19665367
1765915845452,0.0,0.0,1.0,10.0,0.0,0.0,0.0,0.0,0.0,0.0,0.0,0.0,0.0,0.0,0.0,0.0,0.0,0.0,-0.054412,-0.055144,1.012356,0.6300000000000001,-0.49000000000000005,0.14,28.23828125,3.24,3.29,3.19,3.22,3.26,3.24,3.26,3.3,3.27,3.28,3.27,3.26,3.26,3.28,3.21,3.25,3.27,3.26,3.27,3.23,3.29,3.28,3.28,3.27,3.3,3.19,0.0,1.0,2.0,0.0,0.0,19665434
1765915845485,0.0,0.0,1.0,10.0,0.0,0.0,0.0,0.0,0.0,0.0,0.0,0.0,0.0,0.0,0.0,0.0,0.0,0.0,-0.054412,-0.055144,1.012356,0.6300000000000001,-0.49000000000000005,0.14,28.23828125,3.24,3.29,3.19,3.22,3.26,3.24,3.26,3.3,3.27,3.28,3.27,3.26,3.26,3.28,3.21,3.25,3.27,3.26,3.27,3.23,3.29,3.28,3.28,3.27,3.3,3.19,0.0,1.0,2.0,0.0,0.0,19665467
1765915845551,0.0,0.0,1.0,10.0,0.0,0.0,0.0,0.0,0.0,0.0,0.0,0.0,0.0,0.0,0.0,0.0,0.0,0.0,-0.044164,-0.059047999999999996,1.018578,0.6300000000000001,-0.49000000000000005,0.14,28.23828125,3.24,3.29,3.19,3.22,3.26,3.24,3.26,3.3,3.27,3.28,3.27,3.26,3.26,3.28,3.21,3.25,3.27,3.26,3.27,3.23,3.29,3.28,3.28,3.27,3.3,3.19,0.0,1.0,2.0,0.0,0.0,19665533
1765915845568,0.0,0.0,1.0,10.0,0.0,0.0,0.0,0.0,0.0,0.0,0.0,0.0,0.0,0.0,0.0,0.0,0.0,0.0,-0.044164,-0.059047999999999996,1.018578,0.6300000000000001,-0.35000000000000003,0.0,28.23828125,3.24,3.29,3.19,3.22,3.26,3.24,3.26,3.3,3.27,3.28,3.27,3.26,3.26,3.28,3.21,3.25,3.27,3.26,3.27,3.23,3.29,3.28,3.28,3.27,3.3,3.19,0.0,1.0,2.0,0.0,0.0,19665550
1765915845585,0.0,0.0,1.0,10.0,0.0,0.0,0.0,0.0,0.0,0.0,0.0,0.0,0.0,0.0,0.0,0.0,0.0,0.0,-0.044164,-0.059047999999999996,1.018578,0.6300000000000001,-0.35000000000000003,0.0,28.24609375,3.24,3.29,3.19,3.22,3.26,3.24,3.26,3.3,3.27,3.28,3.27,3.26,3.26,3.28,3.21,3.25,3.27,3.26,3.27,3.23,3.29,3.28,3.28,3.27,3.3,3.19,0.0,1.0,2.0,0.0,0.0,19665567
1765915845618,0.0,0.0,1.0,10.0,0.0,0.0,0.0,0.0,0.0,0.0,0.0,0.0,0.0,0.0,0.0,0.0,0.0,0.0,-0.044164,-0.059047999999999996,1.018578,0.6300000000000001,-0.35000000000000003,0.0,28.24609375,3.24,3.29,3.19,3.22,3.26,3.24,3.26,3.3,3.27,3.28,3.27,3.26,3.26,3.28,3.21,3.25,3.27,3.26,3.27,3.23,3.29,3.28,3.28,3.27,3.3,3.19,0.0,1.0,2.0,0.0,0.0,19665600
1765915845634,0.0,0.0,1.0,10.0,0.0,0.0,0.0,0.0,0.0,0.0,0.0,0.0,0.0,0.0,0.0,0.0,0.0,0.0,-0.044164,-0.059047999999999996,1.018578,0.6300000000000001,-0.35000000000000003,0.0,28.24609375,3.24,3.29,3.19,3.22,3.26,3.24,3.26,3.3,3.27,3.28,3.27,3.26,3.26,3.28,3.21,3.25,3.27,3.26,3.27,3.23,3.29,3.28,3.28,3.27,3.3,3.19,0.0,1.0,2.0,0.0,0.0,19665616
1765915845651,0.0,0.0,1.0,10.0,0.0,0.0,0.0,0.0,0.0,0.0,0.0,0.0,0.0,0.0,0.0,0.0,0.0,0.0,-0.044164,-0.059047999999999996,1.018578,0.6300000000000001,-0.35000000000000003,0.0,28.24609375,3.24,3.29,3.19,3.22,3.26,3.24,3.26,3.3,3.27,3.28,3.27,3.26,3.26,3.28,3.21,3.25,3.27,3.26,3.27,3.23,3.29,3.28,3.28,3.27,3.3,3.19,0.0,1.0,2.0,0.0,0.0,19665633
1765915845668,0.0,0.0,1.0,10.0,0.0,0.0,0.0,0.0,0.0,0.0,0.0,0.0,0.0,0.0,0.0,0.0,0.0,0.0,-0.044164,-0.059047999999999996,1.018578,0.6300000000000001,-0.35000000000000003,0.0,28.24609375,3.24,3.29,3.19,3.22,3.26,3.24,3.26,3.3,3.27,3.28,3.27,3.26,3.26,3.28,3.21,3.25,3.27,3.26,3.27,3.23,3.29,3.28,3.28,3.27,3.3,3.19,0.0,1.0,2.0,0.0,0.0,19665650
1765915845685,0.0,0.0,1.0,10.0,0.0,0.0,0.0,0.0,0.0,0.0,0.0,0.0,0.0,0.0,0.0,0.0,0.0,0.0,-0.049776,-0.052948,1.006866,0.6300000000000001,-0.35000000000000003,0.0,28.24609375,3.24,3.29,3.19,3.22,3.26,3.24,3.26,3.3,3.27,3.28,3.27,3.26,3.26,3.28,3.21,3.25,3.27,3.26,3.27,3.23,3.29,3.28,3.28,3.27,3.3,3.19,0.0,1.0,2.0,0.0,0.0,19665667
1765915845701,0.0,0.0,1.0,10.0,0.0,0.0,0.0,0.0,0.0,0.0,0.0,0.0,0.0,0.0,0.0,0.0,0.0,0.0,-0.049776,-0.052948,1.006866,0.6300000000000001,-0.35000000000000003,0.0,28.24609375,3.24,3.29,3.19,3.22,3.26,3.24,3.26,3.3,3.27,3.28,3.27,3.26,3.26,3.28,3.21,3.25,3.27,3.26,3.27,3.23,3.29,3.28,3.28,3.27,3.3,3.19,0.0,1.0,2.0,0.0,0.0,19665683
1765915845734,0.0,0.0,1.0,10.0,0.0,0.0,0.0,0.0,0.0,0.0,0.0,0.0,0.0,0.0,0.0,0.0,0.0,0.0,-0.049776,-0.052948,1.006866,0.7000000000000001,-0.21000000000000002,0.14,28.24609375,3.24,3.29,3.19,3.22,3.26,3.24,3.26,3.3,3.27,3.28,3.27,3.26,3.26,3.28,3.21,3.25,3.27,3.26,3.27,3.23,3.29,3.28,3.28,3.27,3.3,3.19,0.0,1.0,2.0,0.0,0.0,19665716
1765915845768,0.0,0.0,1.0,10.0,0.0,0.0,0.0,0.0,0.0,0.0,0.0,0.0,0.0,0.0,0.0,0.0,0.0,0.0,-0.049776,-0.052948,1.006866,0.7000000000000001,-0.21000000000000002,0.14,28.24609375,3.24,3.29,3.19,3.22,3.26,3.24,3.26,3.3,3.27,3.28,3.27,3.26,3.26,3.28,3.21,3.25,3.27,3.26,3.27,3.23,3.29,3.28,3.28,3.27,3.3,3.19,0.0,1.0,2.0,0.0,0.0,19665750
1765915845801,0.0,0.0,1.0,10.0,0.0,0.0,0.0,0.0,0.0,0.0,0.0,0.0,0.0,0.0,0.0,0.0,0.0,0.0,-0.049776,-0.052948,1.006866,0.7000000000000001,-0.21000000000000002,0.14,28.2890625,3.24,3.29,3.19,3.22,3.26,3.24,3.26,3.3,3.27,3.28,3.27,3.26,3.26,3.28,3.21,3.25,3.27,3.26,3.27,3.23,3.29,3.28,3.28,3.27,3.3,3.19,0.0,1.0,2.0,0.0,0.0,19665783
1765915845852,0.0,0.0,1.0,10.0,0.0,0.0,0.0,0.0,0.0,0.0,0.0,0.0,0.0,0.0,0.0,0.0,0.0,0.0,-0.056852,-0.052948,1.014552,0.7000000000000001,-0.21000000000000002,0.14,28.2890625,3.24,3.29,3.19,3.22,3.26,3.24,3.26,3.3,3.27,3.28,3.27,3.26,3.26,3.28,3.21,3.25,3.27,3.26,3.27,3.23,3.29,3.28,3.28,3.27,3.3,3.19,0.0,1.0,2.0,0.0,0.0,19665834
1765915845868,0.0,0.0,1.0,10.0,0.0,0.0,0.0,0.0,0.0,0.0,0.0,0.0,0.0,0.0,0.0,0.0,0.0,0.0,-0.056852,-0.052948,1.014552,0.56,-0.49000000000000005,0.21000000000000002,28.2890625,3.24,3.29,3.19,3.22,3.26,3.24,3.26,3.3,3.27,3.28,3.27,3.26,3.26,3.28,3.21,3.25,3.27,3.26,3.27,3.23,3.29,3.28,3.28,3.27,3.3,3.19,0.0,1.0,2.0,0.0,0.0,19665850
1765915845885,0.0,0.0,1.0,10.0,0.0,0.0,0.0,0.0,0.0,0.0,0.0,0.0,0.0,0.0,0.0,0.0,0.0,0.0,-0.056852,-0.052948,1.014552,0.56,-0.49000000000000005,0.21000000000000002,28.26953125,3.24,3.29,3.19,3.22,3.26,3.24,3.26,3.3,3.27,3.28,3.27,3.26,3.26,3.28,3.21,3.25,3.27,3.26,3.27,3.23,3.29,3.28,3.28,3.27,3.3,3.19,0.0,1.0,2.0,0.0,0.0,19665867
1765915845918,0.0,0.0,1.0,10.0,0.0,0.0,0.0,0.0,0.0,0.0,0.0,0.0,0.0,0.0,0.0,0.0,0.0,0.0,-0.056852,-0.052948,1.014552,0.56,-0.49000000000000005,0.21000000000000002,28.26953125,3.24,3.29,3.19,3.22,3.26,3.24,3.26,3.3,3.27,3.28,3.27,3.26,3.26,3.28,3.21,3.25,3.27,3.26,3.27,3.23,3.29,3.28,3.28,3.27,3.3,3.19,0.0,1.0,2.0,0.0,0.0,19665900
1765915845934,0.0,0.0,1.0,10.0,0.0,0.0,0.0,0.0,0.0,0.0,0.0,0.0,0.0,0.0,0.0,0.0,0.0,0.0,-0.056852,-0.052948,1.014552,0.56,-0.49000000000000005,0.21000000000000002,28.26953125,3.24,3.29,3.19,3.22,3.26,3.24,3.26,3.3,3.27,3.28,3.27,3.26,3.26,3.28,3.21,3.25,3.27,3.26,3.27,3.23,3.29,3.28,3.28,3.27,3.3,3.19,0.0,1.0,2.0,0.0,0.0,19665916
1765915845952,0.0,0.0,1.0,10.0,0.0,0.0,0.0,0.0,0.0,0.0,0.0,0.0,0.0,0.0,0.0,0.0,0.0,0.0,-0.056852,-0.052948,1.014552,0.56,-0.49000000000000005,0.21000000000000002,28.26953125,3.24,3.29,3.19,3.22,3.26,3.24,3.26,3.3,3.27,3.28,3.27,3.26,3.26,3.28,3.21,3.25,3.27,3.26,3.27,3.23,3.29,3.28,3.28,3.27,3.3,3.19,0.0,1.0,2.0,0.0,0.0,19665934
1765915845985,0.0,0.0,1.0,10.0,0.0,0.0,0.0,0.0,0.0,0.0,0.0,0.0,0.0,0.0,0.0,0.0,0.0,0.0,-0.056852,-0.052948,1.014552,0.56,-0.49000000000000005,0.21000000000000002,28.26953125,3.24,3.29,3.19,3.22,3.26,3.24,3.26,3.3,3.27,3.28,3.27,3.26,3.26,3.28,3.21,3.25,3.27,3.26,3.27,3.23,3.29,3.28,3.28,3.27,3.3,3.19,0.0,1.0,2.0,0.0,0.0,19665967
1765915846018,0.0,0.0,1.0,10.0,0.0,0.0,0.0,0.0,0.0,0.0,0.0,0.0,0.0,0.0,0.0,0.0,0.0,0.0,-0.055265999999999996,-0.055876,1.015894,0.56,-0.49000000000000005,0.21000000000000002,28.26953125,3.24,3.29,3.19,3.22,3.26,3.24,3.26,3.3,3.27,3.28,3.27,3.26,3.26,3.28,3.21,3.25,3.27,3.26,3.27,3.23,3.29,3.28,3.28,3.27,3.3,3.19,0.0,1.0,2.0,0.0,0.0,19666000
1765915846052,0.0,0.0,1.0,10.0,0.0,0.0,0.0,0.0,0.0,0.0,0.0,0.0,0.0,0.0,0.0,0.0,0.0,0.0,-0.055265999999999996,-0.055876,1.015894,0.56,-0.49000000000000005,0.21000000000000002,28.26953125,3.24,3.29,3.19,3.22,3.26,3.24,3.26,3.3,3.27,3.28,3.27,3.26,3.26,3.28,3.21,3.25,3.27,3.26,3.27,3.23,3.29,3.28,3.28,3.27,3.3,3.19,0.0,1.0,2.0,0.0,0.0,19666034
1765915846084,0.0,0.0,1.0,10.0,0.0,0.0,0.0,0.0,0.0,0.0,0.0,0.0,0.0,0.0,0.0,0.0,0.0,0.0,-0.055265999999999996,-0.055876,1.015894,0.6300000000000001,-0.42000000000000004,0.0,28.26953125,3.24,3.29,3.19,3.22,3.26,3.24,3.26,3.3,3.27,3.28,3.27,3.26,3.26,3.28,3.21,3.25,3.27,3.26,3.27,3.23,3.29,3.28,3.28,3.27,3.3,3.19,0.0,1.0,2.0,0.0,0.0,19666066
1765915846118,0.0,0.0,1.0,10.0,0.0,0.0,0.0,0.0,0.0,0.0,0.0,0.0,0.0,0.0,0.0,0.0,0.0,0.0,-0.055265999999999996,-0.055876,1.015894,0.6300000000000001,-0.42000000000000004,0.0,28.2109375,3.24,3.29,3.19,3.22,3.26,3.24,3.26,3.3,3.27,3.28,3.27,3.26,3.26,3.28,3.21,3.25,3.27,3.26,3.27,3.23,3.29,3.28,3.28,3.27,3.3,3.19,0.0,1.0,2.0,0.0,0.0,19666100
1765915846151,0.0,0.0,1.0,10.0,0.0,0.0,0.0,0.0,0.0,0.0,0.0,0.0,0.0,0.0,0.0,0.0,0.0,0.0,-0.05795,-0.057096,1.00467,0.6300000000000001,-0.42000000000000004,0.0,28.2109375,3.24,3.29,3.19,3.22,3.26,3.24,3.26,3.3,3.27,3.28,3.27,3.26,3.26,3.28,3.21,3.25,3.27,3.26,3.27,3.23,3.29,3.28,3.28,3.27,3.3,3.19,0.0,1.0,2.0,0.0,0.0,19666133
1765915846185,0.0,0.0,1.0,10.0,0.0,0.0,0.0,0.0,0.0,0.0,0.0,0.0,0.0,0.0,0.0,0.0,0.0,0.0,-0.04026,-0.056242,1.016748,0.6300000000000001,-0.42000000000000004,0.0,28.2109375,3.24,3.29,3.19,3.22,3.26,3.24,3.26,3.3,3.27,3.28,3.27,3.26,3.26,3.28,3.21,3.25,3.27,3.26,3.27,3.23,3.29,3.28,3.28,3.27,3.3,3.19,0.0,1.0,2.0,0.0,0.0,19666167
1765915846203,0.0,0.0,1.0,10.0,0.0,0.0,0.0,0.0,0.0,0.0,0.0,0.0,0.0,0.0,0.0,0.0,0.0,0.0,-0.04026,-0.056242,1.016748,0.56,-0.35000000000000003,0.14,28.2109375,3.24,3.29,3.19,3.22,3.26,3.24,3.26,3.3,3.27,3.28,3.27,3.26,3.26,3.28,3.21,3.25,3.27,3.26,3.27,3.23,3.29,3.28,3.28,3.27,3.3,3.19,0.0,1.0,2.0,0.0,0.0,19666185
1765915846218,0.0,0.0,1.0,10.0,0.0,0.0,0.0,0.0,0.0,0.0,0.0,0.0,0.0,0.0,0.0,0.0,0.0,0.0,-0.04026,-0.056242,1.016748,0.56,-0.35000000000000003,0.14,28.3046875,3.24,3.29,3.19,3.22,3.26,3.24,3.26,3.3,3.27,3.28,3.27,3.26,3.26,3.28,3.21,3.25,3.27,3.26,3.27,3.23,3.29,3.28,3.28,3.27,3.3,3.19,0.0,1.0,2.0,0.0,0.0,19666200
1765915846235,0.0,0.0,1.0,10.0,0.0,0.0,0.0,0.0,0.0,0.0,0.0,0.0,0.0,0.0,0.0,0.0,0.0,0.0,-0.04026,-0.056242,1.016748,0.56,-0.35000000000000003,0.14,28.3046875,3.24,3.29,3.19,3.22,3.26,3.24,3.26,3.3,3.27,3.28,3.27,3.26,3.26,3.28,3.21,3.25,3.27,3.26,3.27,3.23,3.29,3.28,3.28,3.27,3.3,3.19,0.0,1.0,2.0,0.0,0.0,19666217
1765915846251,0.0,0.0,1.0,10.0,0.0,0.0,0.0,0.0,0.0,0.0,0.0,0.0,0.0,0.0,0.0,0.0,0.0,0.0,-0.04026,-0.056242,1.016748,0.56,-0.35000000000000003,0.14,28.3046875,3.24,3.29,3.19,3.22,3.26,3.24,3.26,3.3,3.27,3.28,3.27,3.26,3.26,3.28,3.21,3.25,3.27,3.26,3.27,3.23,3.29,3.28,3.28,3.27,3.3,3.19,0.0,1.0,2.0,0.0,0.0,19666233
1765915846268,0.0,0.0,1.0,10.0,0.0,0.0,0.0,0.0,0.0,0.0,0.0,0.0,0.0,0.0,0.0,0.0,0.0,0.0,-0.04026,-0.056242,1.016748,0.56,-0.35000000000000003,0.14,28.3046875,3.24,3.29,3.19,3.22,3.26,3.24,3.26,3.3,3.27,3.28,3.27,3.26,3.26,3.28,3.21,3.25,3.27,3.26,3.27,3.23,3.29,3.28,3.28,3.27,3.3,3.19,0.0,1.0,2.0,0.0,0.0,19666250
1765915846284,0.0,0.0,1.0,10.0,0.0,0.0,0.0,0.0,0.0,0.0,0.0,0.0,0.0,0.0,0.0,0.0,0.0,0.0,-0.04026,-0.056242,1.016748,0.56,-0.35000000000000003,0.14,28.3046875,3.24,3.29,3.19,3.22,3.26,3.24,3.26,3.3,3.27,3.28,3.27,3.26,3.26,3.28,3.21,3.25,3.27,3.26,3.27,3.23,3.29,3.28,3.28,3.27,3.3,3.19,0.0,1.0,2.0,0.0,0.0,19666266
1765915846301,0.0,0.0,1.0,10.0,0.0,0.0,0.0,0.0,0.0,0.0,0.0,0.0,0.0,0.0,0.0,0.0,0.0,0.0,-0.04026,-0.056242,1.016748,0.56,-0.35000000000000003,0.14,28.3046875,3.24,3.29,3.19,3.22,3.26,3.24,3.26,3.3,3.27,3.28,3.27,3.26,3.26,3.28,3.21,3.25,3.27,3.26,3.27,3.23,3.29,3.28,3.28,3.27,3.3,3.19,0.0,1.0,2.0,0.0,0.0,19666283
1765915846368,0.0,0.0,1.0,10.0,0.0,0.0,0.0,0.0,0.0,0.0,0.0,0.0,0.0,0.0,0.0,0.0,0.0,0.0,-0.05368,-0.055754,1.005158,0.56,-0.35000000000000003,0.14,28.3046875,3.24,3.29,3.19,3.22,3.26,3.24,3.26,3.3,3.27,3.28,3.27,3.26,3.26,3.28,3.21,3.25,3.27,3.26,3.27,3.23,3.29,3.28,3.28,3.27,3.3,3.19,0.0,1.0,2.0,0.0,0.0,19666350
1765915846419,0.0,0.0,1.0,10.0,0.0,0.0,0.0,0.0,0.0,0.0,0.0,0.0,0.0,0.0,0.0,0.0,0.0,0.0,-0.05368,-0.055754,1.005158,0.6300000000000001,-0.35000000000000003,0.14,28.3046875,3.24,3.29,3.19,3.22,3.26,3.24,3.26,3.3,3.27,3.28,3.27,3.26,3.26,3.28,3.21,3.25,3.27,3.26,3.27,3.23,3.29,3.28,3.28,3.27,3.3,3.19,0.0,1.0,2.0,0.0,0.0,19666401
1765915846451,0.0,0.0,1.0,10.0,0.0,0.0,0.0,0.0,0.0,0.0,0.0,0.0,0.0,0.0,0.0,0.0,0.0,0.0,-0.05368,-0.055754,1.005158,0.6300000000000001,-0.35000000000000003,0.14,28.23828125,3.24,3.29,3.19,3.22,3.26,3.24,3.26,3.3,3.27,3.28,3.27,3.26,3.26,3.28,3.21,3.25,3.27,3.26,3.27,3.23,3.29,3.28,3.28,3.27,3.3,3.19,0.0,1.0,2.0,0.0,0.0,19666433
1765915846485,0.0,0.0,1.0,10.0,0.0,0.0,0.0,0.0,0.0,0.0,0.0,0.0,0.0,0.0,0.0,0.0,0.0,0.0,-0.056608,-0.055144,1.014308,0.56,-0.42000000000000004,0.14,28.23828125,3.24,3.29,3.19,3.22,3.26,3.24,3.26,3.3,3.27,3.28,3.27,3.26,3.26,3.28,3.21,3.25,3.27,3.26,3.27,3.23,3.29,3.28,3.28,3.27,3.3,3.19,0.0,1.0,2.0,0.0,0.0,19666467
1765915846518,0.0,0.0,1.0,10.0,0.0,0.0,0.0,0.0,0.0,0.0,0.0,0.0,0.0,0.0,0.0,0.0,0.0,0.0,-0.056608,-0.055144,1.014308,0.56,-0.42000000000000004,0.14,28.23828125,3.24,3.29,3.19,3.22,3.26,3.24,3.26,3.3,3.27,3.28,3.27,3.26,3.26,3.28,3.21,3.25,3.27,3.26,3.27,3.23,3.29,3.28,3.28,3.27,3.3,3.19,0.0,1.0,2.0,0.0,0.0,19666500
1765915846535,0.0,0.0,1.0,10.0,0.0,0.0,0.0,0.0,0.0,0.0,0.0,0.0,0.0,0.0,0.0,0.0,0.0,0.0,-0.056608,-0.055144,1.014308,0.56,-0.42000000000000004,0.14,28.23828125,3.24,3.29,3.19,3.22,3.26,3.24,3.26,3.3,3.27,3.28,3.27,3.26,3.26,3.28,3.21,3.25,3.27,3.26,3.27,3.23,3.29,3.28,3.28,3.27,3.3,3.19,0.0,1.0,2.0,0.0,0.0,19666517
1765915846551,0.0,0.0,1.0,10.0,0.0,0.0,0.0,0.0,0.0,0.0,0.0,0.0,0.0,0.0,0.0,0.0,0.0,0.0,-0.056608,-0.055144,1.014308,0.56,-0.42000000000000004,0.14,28.2890625,3.24,3.29,3.19,3.22,3.26,3.24,3.26,3.3,3.27,3.28,3.27,3.26,3.26,3.28,3.21,3.25,3.27,3.26,3.27,3.23,3.29,3.28,3.28,3.27,3.3,3.19,0.0,1.0,2.0,0.0,0.0,19666533
1765915846567,0.0,0.0,1.0,10.0,0.0,0.0,0.0,0.0,0.0,0.0,0.0,0.0,0.0,0.0,0.0,0.0,0.0,0.0,-0.056608,-0.055144,1.014308,0.56,-0.42000000000000004,0.14,28.2890625,3.24,3.29,3.19,3.22,3.26,3.24,3.26,3.3,3.27,3.28,3.27,3.26,3.26,3.28,3.21,3.25,3.27,3.26,3.27,3.23,3.29,3.28,3.28,3.27,3.3,3.19,0.0,1.0,2.0,0.0,0.0,19666549
1765915846601,0.0,0.0,1.0,10.0,0.0,0.0,0.0,0.0,0.0,0.0,0.0,0.0,0.0,0.0,0.0,0.0,0.0,0.0,-0.056608,-0.055144,1.014308,0.56,-0.42000000000000004,0.14,28.2890625,3.24,3.29,3.19,3.22,3.26,3.24,3.26,3.3,3.27,3.28,3.27,3.26,3.26,3.28,3.21,3.25,3.27,3.26,3.27,3.23,3.29,3.28,3.28,3.27,3.3,3.19,0.0,1.0,2.0,0.0,0.0,19666583
1765915846651,0.0,0.0,1.0,10.0,0.0,0.0,0.0,0.0,0.0,0.0,0.0,0.0,0.0,0.0,0.0,0.0,0.0,0.0,-0.056608,-0.055144,1.014308,0.56,-0.42000000000000004,0.14,28.2890625,3.24,3.29,3.19,3.22,3.26,3.24,3.26,3.3,3.27,3.28,3.27,3.26,3.26,3.28,3.21,3.25,3.27,3.26,3.27,3.23,3.29,3.28,3.28,3.27,3.3,3.19,0.0,1.0,2.0,0.0,0.0,19666633
1765915846702,0.0,0.0,1.0,10.0,0.0,0.0,0.0,0.0,0.0,0.0,0.0,0.0,0.0,0.0,0.0,0.0,0.0,0.0,-0.056974,-0.054778,1.0065,0.56,-0.42000000000000004,0.14,28.2890625,3.24,3.29,3.19,3.22,3.26,3.24,3.26,3.3,3.27,3.28,3.27,3.26,3.26,3.28,3.21,3.25,3.27,3.26,3.27,3.23,3.29,3.28,3.28,3.27,3.3,3.19,0.0,1.0,2.0,0.0,0.0,19666684
1765915846735,0.0,0.0,1.0,10.0,0.0,0.0,0.0,0.0,0.0,0.0,0.0,0.0,0.0,0.0,0.0,0.0,0.0,0.0,-0.056974,-0.054778,1.0065,0.7000000000000001,-0.28,0.14,28.296875,3.24,3.29,3.19,3.22,3.26,3.24,3.26,3.3,3.27,3.28,3.27,3.26,3.26,3.28,3.21,3.25,3.27,3.26,3.27,3.23,3.29,3.28,3.28,3.27,3.3,3.19,0.0,1.0,2.0,0.0,0.0,19666717
1765915846784,0.0,0.0,1.0,10.0,0.0,0.0,0.0,0.0,0.0,0.0,0.0,0.0,0.0,0.0,0.0,0.0,0.0,0.0,-0.066246,-0.05856,1.009916,0.7000000000000001,-0.28,0.14,28.296875,3.24,3.29,3.19,3.22,3.26,3.24,3.26,3.3,3.27,3.28,3.27,3.26,3.26,3.28,3.21,3.25,3.27,3.26,3.27,3.23,3.29,3.28,3.28,3.27,3.3,3.19,0.0,1.0,2.0,0.0,0.0,19666766
1765915846801,0.0,0.0,1.0,10.0,0.0,0.0,0.0,0.0,0.0,0.0,0.0,0.0,0.0,0.0,0.0,0.0,0.0,0.0,-0.066246,-0.05856,1.009916,0.7000000000000001,-0.28,0.14,28.296875,3.24,3.29,3.19,3.22,3.26,3.24,3.26,3.3,3.27,3.28,3.27,3.26,3.26,3.28,3.21,3.25,3.27,3.26,3.27,3.23,3.29,3.28,3.28,3.27,3.3,3.19,0.0,1.0,2.0,0.0,0.0,19666783
1765915846835,0.0,0.0,1.0,10.0,0.0,0.0,0.0,0.0,0.0,0.0,0.0,0.0,0.0,0.0,0.0,0.0,0.0,0.0,-0.066246,-0.05856,1.009916,0.56,-0.42000000000000004,0.14,28.296875,3.24,3.29,3.19,3.22,3.26,3.24,3.26,3.3,3.27,3.28,3.27,3.26,3.26,3.28,3.21,3.25,3.27,3.26,3.27,3.23,3.29,3.28,3.28,3.27,3.3,3.19,0.0,1.0,2.0,0.0,0.0,19666817
1765915846852,0.0,0.0,1.0,10.0,0.0,0.0,0.0,0.0,0.0,0.0,0.0,0.0,0.0,0.0,0.0,0.0,0.0,0.0,-0.066246,-0.05856,1.009916,0.56,-0.42000000000000004,0.14,28.296875,3.24,3.29,3.19,3.22,3.26,3.24,3.26,3.3,3.27,3.28,3.27,3.26,3.26,3.28,3.21,3.25,3.27,3.26,3.27,3.23,3.29,3.28,3.28,3.27,3.3,3.19,0.0,1.0,2.0,0.0,0.0,19666834
1765915846869,0.0,0.0,1.0,10.0,0.0,0.0,0.0,0.0,0.0,0.0,0.0,0.0,0.0,0.0,0.0,0.0,0.0,0.0,-0.066246,-0.05856,1.009916,0.56,-0.42000000000000004,0.14,28.296875,3.24,3.29,3.19,3.22,3.26,3.24,3.26,3.3,3.27,3.28,3.27,3.26,3.26,3.28,3.21,3.25,3.27,3.26,3.27,3.23,3.29,3.28,3.28,3.27,3.3,3.19,0.0,1.0,2.0,0.0,0.0,19666851
1765915846885,0.0,0.0,1.0,10.0,0.0,0.0,0.0,0.0,0.0,0.0,0.0,0.0,0.0,0.0,0.0,0.0,0.0,0.0,-0.066246,-0.05856,1.009916,0.56,-0.42000000000000004,0.14,28.23828125,3.24,3.29,3.19,3.22,3.26,3.24,3.26,3.3,3.27,3.28,3.27,3.26,3.26,3.28,3.21,3.25,3.27,3.26,3.27,3.23,3.29,3.28,3.28,3.27,3.3,3.19,0.0,1.0,2.0,0.0,0.0,19666867
1765915846901,0.0,0.0,1.0,10.0,0.0,0.0,0.0,0.0,0.0,0.0,0.0,0.0,0.0,0.0,0.0,0.0,0.0,0.0,-0.066246,-0.05856,1.009916,0.56,-0.42000000000000004,0.14,28.23828125,3.24,3.29,3.19,3.22,3.26,3.24,3.26,3.3,3.27,3.28,3.27,3.26,3.26,3.28,3.21,3.25,3.27,3.26,3.27,3.23,3.29,3.28,3.28,3.27,3.3,3.19,0.0,1.0,2.0,0.0,0.0,19666883
1765915846918,0.0,0.0,1.0,10.0,0.0,0.0,0.0,0.0,0.0,0.0,0.0,0.0,0.0,0.0,0.0,0.0,0.0,0.0,-0.066246,-0.05856,1.009916,0.56,-0.42000000000000004,0.14,28.23828125,3.24,3.29,3.19,3.22,3.26,3.24,3.26,3.3,3.27,3.28,3.27,3.26,3.26,3.28,3.21,3.25,3.27,3.26,3.27,3.23,3.29,3.28,3.28,3.27,3.3,3.19,0.0,1.0,2.0,0.0,0.0,19666900
1765915846968,0.0,0.0,1.0,10.0,0.0,0.0,0.0,0.0,0.0,0.0,0.0,0.0,0.0,0.0,0.0,0.0,0.0,0.0,-0.066246,-0.05856,1.009916,0.56,-0.42000000000000004,0.14,28.23828125,3.24,3.29,3.19,3.22,3.26,3.24,3.26,3.3,3.27,3.28,3.27,3.26,3.26,3.28,3.21,3.25,3.27,3.26,3.27,3.23,3.29,3.28,3.28,3.27,3.3,3.19,0.0,1.0,2.0,0.0,0.0,19666950
1765915847034,0.0,0.0,1.0,10.0,0.0,0.0,0.0,0.0,0.0,0.0,0.0,0.0,0.0,0.0,0.0,0.0,0.0,0.0,-0.067832,-0.054534,0.999668,0.56,-0.42000000000000004,0.14,28.23828125,3.24,3.29,3.19,3.22,3.26,3.24,3.26,3.3,3.27,3.28,3.27,3.26,3.26,3.28,3.21,3.25,3.27,3.26,3.27,3.23,3.29,3.28,3.28,3.27,3.3,3.19,0.0,1.0,2.0,0.0,0.0,19667016
1765915847052,0.0,0.0,1.0,10.0,0.0,0.0,0.0,0.0,0.0,0.0,0.0,0.0,0.0,0.0,0.0,0.0,0.0,0.0,-0.067832,-0.054534,0.999668,0.35000000000000003,-0.7000000000000001,0.14,28.23828125,3.24,3.29,3.19,3.22,3.26,3.24,3.26,3.3,3.27,3.28,3.27,3.26,3.26,3.28,3.21,3.25,3.27,3.26,3.27,3.23,3.29,3.28,3.28,3.27,3.3,3.19,0.0,1.0,2.0,0.0,0.0,19667034
1765915847068,0.0,0.0,1.0,10.0,0.0,0.0,0.0,0.0,0.0,0.0,0.0,0.0,0.0,0.0,0.0,0.0,0.0,0.0,-0.067832,-0.054534,0.999668,0.35000000000000003,-0.7000000000000001,0.14,28.296875,3.24,3.29,3.19,3.22,3.26,3.24,3.26,3.3,3.27,3.28,3.27,3.26,3.26,3.28,3.21,3.25,3.27,3.26,3.27,3.23,3.29,3.28,3.28,3.27,3.3,3.19,0.0,1.0,2.0,0.0,0.0,19667050
1765915847101,0.0,0.0,1.0,10.0,0.0,0.0,0.0,0.0,0.0,0.0,0.0,0.0,0.0,0.0,0.0,0.0,0.0,0.0,-0.069662,-0.051118,0.987834,0.35000000000000003,-0.7000000000000001,0.14,28.296875,3.24,3.29,3.19,3.22,3.26,3.24,3.26,3.3,3.27,3.28,3.27,3.26,3.26,3.28,3.21,3.25,3.27,3.26,3.27,3.23,3.29,3.28,3.28,3.27,3.3,3.19,0.0,1.0,2.0,0.0,0.0,19667083
1765915847118,0.0,0.0,1.0,10.0,0.0,0.0,0.0,0.0,0.0,0.0,0.0,0.0,0.0,0.0,0.0,0.0,0.0,0.0,-0.069662,-0.051118,0.987834,0.35000000000000003,-0.7000000000000001,0.14,28.296875,3.24,3.29,3.19,3.22,3.26,3.24,3.26,3.3,3.27,3.28,3.27,3.26,3.26,3.28,3.21,3.25,3.27,3.26,3.27,3.23,3.29,3.28,3.28,3.27,3.3,3.19,0.0,1.0,2.0,0.0,0.0,19667100
1765915847135,0.0,0.0,1.0,10.0,0.0,0.0,0.0,0.0,0.0,0.0,0.0,0.0,0.0,0.0,0.0,0.0,0.0,0.0,-0.069662,-0.051118,0.987834,0.35000000000000003,-0.7000000000000001,0.14,28.296875,3.24,3.29,3.19,3.22,3.26,3.24,3.26,3.3,3.27,3.28,3.27,3.26,3.26,3.28,3.21,3.25,3.27,3.26,3.27,3.23,3.29,3.28,3.28,3.27,3.3,3.19,0.0,1.0,2.0,0.0,0.0,19667117
1765915847152,0.0,0.0,1.0,10.0,0.0,0.0,0.0,0.0,0.0,0.0,0.0,0.0,0.0,0.0,0.0,0.0,0.0,0.0,-0.069662,-0.051118,0.987834,0.35000000000000003,-0.7000000000000001,0.14,28.296875,3.24,3.29,3.19,3.22,3.26,3.24,3.26,3.3,3.27,3.28,3.27,3.26,3.26,3.28,3.21,3.25,3.27,3.26,3.27,3.23,3.29,3.28,3.28,3.27,3.3,3.19,0.0,1.0,2.0,0.0,0.0,19667134
1765915847168,0.0,0.0,1.0,10.0,0.0,0.0,0.0,0.0,0.0,0.0,0.0,0.0,0.0,0.0,0.0,0.0,0.0,0.0,-0.069662,-0.051118,0.987834,0.7000000000000001,-0.56,0.07,28.296875,3.24,3.29,3.19,3.22,3.26,3.24,3.26,3.3,3.27,3.28,3.27,3.26,3.26,3.28,3.21,3.25,3.27,3.26,3.27,3.23,3.29,3.28,3.28,3.27,3.3,3.19,0.0,1.0,2.0,0.0,0.0,19667150
1765915847185,0.0,0.0,1.0,10.0,0.0,0.0,0.0,0.0,0.0,0.0,0.0,0.0,0.0,0.0,0.0,0.0,0.0,0.0,-0.069662,-0.051118,0.987834,0.7000000000000001,-0.56,0.07,28.296875,3.24,3.29,3.19,3.22,3.26,3.24,3.26,3.3,3.27,3.28,3.27,3.26,3.26,3.28,3.21,3.25,3.27,3.26,3.27,3.23,3.29,3.28,3.28,3.27,3.3,3.19,0.0,1.0,2.0,0.0,0.0,19667167
1765915847235,0.0,0.0,1.0,10.0,0.0,0.0,0.0,0.0,0.0,0.0,0.0,0.0,0.0,0.0,0.0,0.0,0.0,0.0,-0.069662,-0.051118,0.987834,0.7000000000000001,-0.56,0.07,28.23046875,3.24,3.29,3.19,3.22,3.26,3.24,3.26,3.3,3.27,3.28,3.27,3.26,3.26,3.28,3.21,3.25,3.27,3.26,3.27,3.23,3.29,3.28,3.28,3.27,3.3,3.19,0.0,1.0,2.0,0.0,0.0,19667217
1765915847252,0.0,0.0,1.0,10.0,0.0,0.0,0.0,0.0,0.0,0.0,0.0,0.0,0.0,0.0,0.0,0.0,0.0,0.0,-0.069662,-0.051118,0.987834,0.7000000000000001,-0.56,0.07,28.23046875,3.24,3.29,3.19,3.22,3.26,3.24,3.26,3.3,3.27,3.28,3.27,3.26,3.26,3.28,3.21,3.25,3.27,3.26,3.27,3.23,3.29,3.28,3.28,3.27,3.3,3.19,0.0,1.0,2.0,0.0,0.0,19667234
1765915847334,0.0,0.0,1.0,10.0,0.0,0.0,0.0,0.0,0.0,0.0,0.0,0.0,0.0,0.0,0.0,0.0,0.0,0.0,-0.07015,-0.059292,1.023824,0.7000000000000001,-0.56,0.07,28.23046875,3.24,3.29,3.19,3.22,3.26,3.24,3.26,3.3,3.27,3.28,3.27,3.26,3.26,3.28,3.21,3.25,3.27,3.26,3.27,3.23,3.29,3.28,3.28,3.27,3.3,3.19,0.0,1.0,2.0,0.0,0.0,19667316
1765915847351,0.0,0.0,1.0,10.0,0.0,0.0,0.0,0.0,0.0,0.0,0.0,0.0,0.0,0.0,0.0,0.0,0.0,0.0,-0.07015,-0.059292,1.023824,0.9100000000000001,-0.28,-0.07,28.23046875,3.24,3.29,3.19,3.22,3.26,3.24,3.26,3.3,3.27,3.28,3.27,3.26,3.26,3.28,3.21,3.25,3.27,3.26,3.27,3.23,3.29,3.28,3.28,3.27,3.3,3.19,0.0,1.0,2.0,0.0,0.0,19667333
1765915847368,0.0,0.0,1.0,10.0,0.0,0.0,0.0,0.0,0.0,0.0,0.0,0.0,0.0,0.0,0.0,0.0,0.0,0.0,-0.07015,-0.059292,1.023824,0.9100000000000001,-0.28,-0.07,28.25390625,3.24,3.29,3.19,3.22,3.26,3.24,3.26,3.3,3.27,3.28,3.27,3.26,3.26,3.28,3.21,3.25,3.27,3.26,3.27,3.23,3.29,3.28,3.28,3.27,3.3,3.19,0.0,1.0,2.0,0.0,0.0,19667350
1765915847402,0.0,0.0,1.0,10.0,0.0,0.0,0.0,0.0,0.0,0.0,0.0,0.0,0.0,0.0,0.0,0.0,0.0,0.0,-0.07015,-0.059292,1.023824,0.9100000000000001,-0.28,-0.07,28.25390625,3.24,3.29,3.19,3.22,3.26,3.24,3.26,3.3,3.27,3.28,3.27,3.26,3.26,3.28,3.21,3.25,3.27,3.26,3.27,3.23,3.29,3.28,3.28,3.27,3.3,3.19,0.0,1.0,2.0,0.0,0.0,19667384
1765915847416,0.0,0.0,1.0,10.0,0.0,0.0,0.0,0.0,0.0,0.0,0.0,0.0,0.0,0.0,0.0,0.0,0.0,0.0,-0.07015,-0.059292,1.023824,0.9100000000000001,-0.28,-0.07,28.25390625,3.24,3.29,3.19,3.22,3.26,3.24,3.26,3.3,3.27,3.28,3.27,3.26,3.26,3.28,3.21,3.25,3.27,3.26,3.27,3.23,3.29,3.28,3.28,3.27,3.3,3.19,0.0,1.0,2.0,0.0,0.0,19667398
1765915847434,0.0,0.0,1.0,10.0,0.0,0.0,0.0,0.0,0.0,0.0,0.0,0.0,0.0,0.0,0.0,0.0,0.0,0.0,-0.07015,-0.059292,1.023824,0.9100000000000001,-0.28,-0.07,28.25390625,3.24,3.29,3.19,3.22,3.26,3.24,3.26,3.3,3.27,3.28,3.27,3.26,3.26,3.28,3.21,3.25,3.27,3.26,3.27,3.23,3.29,3.28,3.28,3.27,3.3,3.19,0.0,1.0,2.0,0.0,0.0,19667416
1765915847450,0.0,0.0,1.0,10.0,0.0,0.0,0.0,0.0,0.0,0.0,0.0,0.0,0.0,0.0,0.0,0.0,0.0,0.0,-0.057462,-0.063928,0.9916159999999999,0.9100000000000001,-0.28,-0.07,28.25390625,3.24,3.29,3.19,3.22,3.26,3.24,3.26,3.3,3.27,3.28,3.27,3.26,3.26,3.28,3.21,3.25,3.27,3.26,3.27,3.23,3.29,3.28,3.28,3.27,3.3,3.19,0.0,1.0,2.0,0.0,0.0,19667432
1765915847468,0.0,0.0,1.0,10.0,0.0,0.0,0.0,0.0,0.0,0.0,0.0,0.0,0.0,0.0,0.0,0.0,0.0,0.0,-0.057462,-0.063928,0.9916159999999999,0.9100000000000001,-0.28,-0.07,28.25390625,3.24,3.29,3.19,3.22,3.26,3.24,3.26,3.3,3.27,3.28,3.27,3.26,3.26,3.28,3.21,3.25,3.27,3.26,3.27,3.23,3.29,3.28,3.28,3.27,3.3,3.19,0.0,1.0,2.0,0.0,0.0,19667450
1765915847501,0.0,0.0,1.0,10.0,0.0,0.0,0.0,0.0,0.0,0.0,0.0,0.0,0.0,0.0,0.0,0.0,0.0,0.0,-0.057462,-0.063928,0.9916159999999999,0.6300000000000001,-0.42000000000000004,-0.07,28.25390625,3.24,3.29,3.19,3.22,3.26,3.24,3.26,3.3,3.27,3.28,3.27,3.26,3.26,3.28,3.21,3.25,3.27,3.26,3.27,3.23,3.29,3.28,3.28,3.27,3.3,3.19,0.0,1.0,2.0,0.0,0.0,19667483
1765915847535,0.0,0.0,1.0,10.0,0.0,0.0,0.0,0.0,0.0,0.0,0.0,0.0,0.0,0.0,0.0,0.0,0.0,0.0,-0.057462,-0.063928,0.9916159999999999,0.6300000000000001,-0.42000000000000004,-0.07,28.25390625,3.24,3.29,3.19,3.22,3.26,3.24,3.26,3.3,3.27,3.28,3.27,3.26,3.26,3.28,3.21,3.25,3.27,3.26,3.27,3.23,3.29,3.28,3.28,3.27,3.3,3.19,0.0,1.0,2.0,0.0,0.0,19667517
1765915847551,0.0,0.0,1.0,10.0,0.0,0.0,0.0,0.0,0.0,0.0,0.0,0.0,0.0,0.0,0.0,0.0,0.0,0.0,-0.057462,-0.063928,0.9916159999999999,0.6300000000000001,-0.42000000000000004,-0.07,28.26171875,3.24,3.29,3.19,3.22,3.26,3.24,3.26,3.3,3.27,3.28,3.27,3.26,3.26,3.28,3.21,3.25,3.27,3.26,3.27,3.23,3.29,3.28,3.28,3.27,3.3,3.19,0.0,1.0,2.0,0.0,0.0,19667533
1765915847586,0.0,0.0,1.0,10.0,0.0,0.0,0.0,0.0,0.0,0.0,0.0,0.0,0.0,0.0,0.0,0.0,0.0,0.0,-0.057462,-0.063928,0.9916159999999999,0.6300000000000001,-0.42000000000000004,-0.07,28.26171875,3.24,3.29,3.19,3.22,3.26,3.24,3.26,3.3,3.27,3.28,3.27,3.26,3.26,3.28,3.21,3.25,3.27,3.26,3.27,3.23,3.29,3.28,3.28,3.27,3.3,3.19,0.0,1.0,2.0,0.0,0.0,19667568
1765915847651,0.0,0.0,1.0,10.0,0.0,0.0,0.0,0.0,0.0,0.0,0.0,0.0,0.0,0.0,0.0,0.0,0.0,0.0,-0.04697,-0.057096,1.014186,0.6300000000000001,-0.42000000000000004,-0.07,28.26171875,3.24,3.29,3.19,3.22,3.26,3.24,3.26,3.3,3.27,3.28,3.27,3.26,3.26,3.28,3.21,3.25,3.27,3.26,3.27,3.23,3.29,3.28,3.28,3.27,3.3,3.19,0.0,1.0,2.0,0.0,0.0,19667633
1765915847668,0.0,0.0,1.0,10.0,0.0,0.0,0.0,0.0,0.0,0.0,0.0,0.0,0.0,0.0,0.0,0.0,0.0,0.0,-0.04697,-0.057096,1.014186,0.49000000000000005,-0.56,0.0,28.26171875,3.24,3.29,3.19,3.22,3.26,3.24,3.26,3.3,3.27,3.28,3.27,3.26,3.26,3.28,3.21,3.25,3.27,3.26,3.27,3.23,3.29,3.28,3.28,3.27,3.3,3.19,0.0,1.0,2.0,0.0,0.0,19667650
1765915847685,0.0,0.0,1.0,10.0,0.0,0.0,0.0,0.0,0.0,0.0,0.0,0.0,0.0,0.0,0.0,0.0,0.0,0.0,-0.04697,-0.057096,1.014186,0.49000000000000005,-0.56,0.0,28.2890625,3.24,3.29,3.19,3.22,3.26,3.24,3.26,3.3,3.27,3.28,3.27,3.26,3.26,3.28,3.21,3.25,3.27,3.26,3.27,3.23,3.29,3.28,3.28,3.27,3.3,3.19,0.0,1.0,2.0,0.0,0.0,19667667
1765915847719,0.0,0.0,1.0,10.0,0.0,0.0,0.0,0.0,0.0,0.0,0.0,0.0,0.0,0.0,0.0,0.0,0.0,0.0,-0.04697,-0.057096,1.014186,0.49000000000000005,-0.56,0.0,28.2890625,3.24,3.29,3.19,3.22,3.26,3.24,3.26,3.3,3.27,3.28,3.27,3.26,3.26,3.28,3.21,3.25,3.27,3.26,3.27,3.23,3.29,3.28,3.28,3.27,3.3,3.19,0.0,1.0,2.0,0.0,0.0,19667701
1765915847751,0.0,0.0,1.0,10.0,0.0,0.0,0.0,0.0,0.0,0.0,0.0,0.0,0.0,0.0,0.0,0.0,0.0,0.0,-0.04697,-0.057096,1.014186,0.49000000000000005,-0.56,0.0,28.2890625,3.24,3.29,3.19,3.22,3.26,3.24,3.26,3.3,3.27,3.28,3.27,3.26,3.26,3.28,3.21,3.25,3.27,3.26,3.27,3.23,3.29,3.28,3.28,3.27,3.3,3.19,0.0,1.0,2.0,0.0,0.0,19667733
1765915847785,0.0,0.0,1.0,10.0,0.0,0.0,0.0,0.0,0.0,0.0,0.0,0.0,0.0,0.0,0.0,0.0,0.0,0.0,-0.053924,-0.061121999999999996,1.011014,0.49000000000000005,-0.56,0.0,28.2890625,3.24,3.29,3.19,3.22,3.26,3.24,3.26,3.3,3.27,3.28,3.27,3.26,3.26,3.28,3.21,3.25,3.27,3.26,3.27,3.23,3.29,3.28,3.28,3.27,3.3,3.19,0.0,1.0,2.0,0.0,0.0,19667767
1765915847852,0.0,0.0,1.0,10.0,0.0,0.0,0.0,0.0,0.0,0.0,0.0,0.0,0.0,0.0,0.0,0.0,0.0,0.0,-0.053924,-0.061121999999999996,1.011014,0.56,-0.28,0.14,28.2890625,3.24,3.29,3.19,3.22,3.26,3.24,3.26,3.3,3.27,3.28,3.27,3.26,3.26,3.28,3.21,3.25,3.27,3.26,3.27,3.23,3.29,3.28,3.28,3.27,3.3,3.19,0.0,1.0,2.0,0.0,0.0,19667834
1765915847902,0.0,0.0,1.0,10.0,0.0,0.0,0.0,0.0,0.0,0.0,0.0,0.0,0.0,0.0,0.0,0.0,0.0,0.0,-0.053924,-0.061121999999999996,1.011014,0.56,-0.28,0.14,28.2890625,3.24,3.29,3.19,3.22,3.26,3.24,3.26,3.3,3.27,3.28,3.27,3.26,3.26,3.28,3.21,3.25,3.27,3.26,3.27,3.23,3.29,3.28,3.28,3.27,3.3,3.19,0.0,1.0,2.0,0.0,0.0,19667884
1765915847951,0.0,0.0,1.0,10.0,0.0,0.0,0.0,0.0,0.0,0.0,0.0,0.0,0.0,0.0,0.0,0.0,0.0,0.0,-0.059902,-0.054534,1.008086,0.56,-0.28,0.14,28.2890625,3.24,3.29,3.19,3.22,3.26,3.24,3.26,3.3,3.27,3.28,3.27,3.26,3.26,3.28,3.21,3.25,3.27,3.26,3.27,3.23,3.29,3.28,3.28,3.27,3.3,3.19,0.0,1.0,2.0,0.0,0.0,19667933
1765915847968,0.0,0.0,1.0,10.0,0.0,0.0,0.0,0.0,0.0,0.0,0.0,0.0,0.0,0.0,0.0,0.0,0.0,0.0,-0.059902,-0.054534,1.008086,0.56,-0.42000000000000004,0.14,28.25390625,3.24,3.29,3.19,3.22,3.26,3.24,3.26,3.3,3.27,3.28,3.27,3.26,3.26,3.28,3.21,3.25,3.27,3.26,3.27,3.23,3.29,3.28,3.28,3.27,3.3,3.19,0.0,1.0,2.0,0.0,0.0,19667950
1765915848002,0.0,0.0,1.0,10.0,0.0,0.0,0.0,0.0,0.0,0.0,0.0,0.0,0.0,0.0,0.0,0.0,0.0,0.0,-0.059902,-0.054534,1.008086,0.56,-0.42000000000000004,0.14,28.25390625,3.24,3.29,3.19,3.22,3.26,3.24,3.26,3.3,3.27,3.28,3.27,3.26,3.26,3.28,3.21,3.25,3.27,3.26,3.27,3.23,3.29,3.28,3.28,3.27,3.3,3.19,0.0,1.0,2.0,0.0,0.0,19667984
1765915848018,0.0,0.0,1.0,10.0,0.0,0.0,0.0,0.0,0.0,0.0,0.0,0.0,0.0,0.0,0.0,0.0,0.0,0.0,-0.059902,-0.054534,1.008086,0.56,-0.42000000000000004,0.14,28.25390625,3.24,3.29,3.19,3.22,3.26,3.24,3.26,3.3,3.27,3.28,3.27,3.26,3.26,3.28,3.21,3.25,3.27,3.26,3.27,3.23,3.29,3.28,3.28,3.27,3.3,3.19,0.0,1.0,2.0,0.0,0.0,19668000
1765915848035,0.0,0.0,1.0,10.0,0.0,0.0,0.0,0.0,0.0,0.0,0.0,0.0,0.0,0.0,0.0,0.0,0.0,0.0,-0.059902,-0.054534,1.008086,0.56,-0.42000000000000004,0.14,28.25390625,3.24,3.29,3.19,3.22,3.26,3.24,3.26,3.3,3.27,3.28,3.27,3.26,3.26,3.28,3.21,3.25,3.27,3.26,3.27,3.23,3.29,3.28,3.28,3.27,3.3,3.19,0.0,1.0,2.0,0.0,0.0,19668017
1765915848068,0.0,0.0,1.0,10.0,0.0,0.0,0.0,0.0,0.0,0.0,0.0,0.0,0.0,0.0,0.0,0.0,0.0,0.0,-0.059902,-0.054534,1.008086,0.56,-0.42000000000000004,0.14,28.25390625,3.24,3.29,3.19,3.22,3.26,3.24,3.26,3.3,3.27,3.28,3.27,3.26,3.26,3.28,3.21,3.25,3.27,3.26,3.27,3.23,3.29,3.28,3.28,3.27,3.3,3.19,0.0,1.0,2.0,0.0,0.0,19668050
1765915848118,0.0,0.0,1.0,10.0,0.0,0.0,0.0,0.0,0.0,0.0,0.0,0.0,0.0,0.0,0.0,0.0,0.0,0.0,-0.056486,-0.051118,1.013576,0.56,-0.42000000000000004,0.14,28.25390625,3.24,3.29,3.19,3.22,3.26,3.24,3.26,3.3,3.27,3.28,3.27,3.26,3.26,3.28,3.21,3.25,3.27,3.26,3.27,3.23,3.29,3.28,3.28,3.27,3.3,3.19,0.0,1.0,2.0,0.0,0.0,19668100
1765915848135,0.0,0.0,1.0,10.0,0.0,0.0,0.0,0.0,0.0,0.0,0.0,0.0,0.0,0.0,0.0,0.0,0.0,0.0,-0.056486,-0.051118,1.013576,0.56,-0.42000000000000004,0.14,28.25390625,3.24,3.29,3.19,3.22,3.26,3.24,3.26,3.3,3.27,3.28,3.27,3.26,3.26,3.28,3.21,3.25,3.27,3.26,3.27,3.23,3.29,3.28,3.28,3.27,3.3,3.19,0.0,1.0,2.0,0.0,0.0,19668117
1765915848184,0.0,0.0,1.0,10.0,0.0,0.0,0.0,0.0,0.0,0.0,0.0,0.0,0.0,0.0,0.0,0.0,0.0,0.0,-0.056486,-0.051118,1.013576,0.6300000000000001,-0.35000000000000003,0.07,28.25390625,3.24,3.29,3.19,3.22,3.26,3.24,3.26,3.3,3.27,3.28,3.27,3.26,3.26,3.28,3.21,3.25,3.27,3.26,3.27,3.23,3.29,3.28,3.28,3.27,3.3,3.19,0.0,1.0,2.0,0.0,0.0,19668166
1765915848218,0.0,0.0,1.0,10.0,0.0,0.0,0.0,0.0,0.0,0.0,0.0,0.0,0.0,0.0,0.0,0.0,0.0,0.0,-0.056486,-0.051118,1.013576,0.6300000000000001,-0.35000000000000003,0.07,28.23828125,3.24,3.29,3.19,3.22,3.26,3.24,3.26,3.3,3.27,3.28,3.27,3.26,3.26,3.28,3.21,3.25,3.27,3.26,3.27,3.23,3.29,3.28,3.28,3.27,3.3,3.19,0.0,1.0,2.0,0.0,0.0,19668200
1765915848235,0.0,0.0,1.0,10.0,0.0,0.0,0.0,0.0,0.0,0.0,0.0,0.0,0.0,0.0,0.0,0.0,0.0,0.0,-0.053436,-0.058682,1.010038,0.6300000000000001,-0.35000000000000003,0.07,28.23828125,3.24,3.29,3.19,3.22,3.26,3.24,3.26,3.3,3.27,3.28,3.27,3.26,3.26,3.28,3.21,3.25,3.27,3.26,3.27,3.23,3.29,3.28,3.28,3.27,3.3,3.19,0.0,1.0,2.0,0.0,0.0,19668217
1765915848267,0.0,0.0,1.0,10.0,0.0,0.0,0.0,0.0,0.0,0.0,0.0,0.0,0.0,0.0,0.0,0.0,0.0,0.0,-0.053436,-0.058682,1.010038,0.7000000000000001,-0.42000000000000004,0.07,28.23828125,3.24,3.29,3.19,3.22,3.26,3.24,3.26,3.3,3.27,3.28,3.27,3.26,3.26,3.28,3.21,3.25,3.27,3.26,3.27,3.23,3.29,3.28,3.28,3.27,3.3,3.19,0.0,1.0,2.0,0.0,0.0,19668249
1765915848284,0.0,0.0,1.0,10.0,0.0,0.0,0.0,0.0,0.0,0.0,0.0,0.0,0.0,0.0,0.0,0.0,0.0,0.0,-0.053436,-0.058682,1.010038,0.7000000000000001,-0.42000000000000004,0.07,28.23828125,3.24,3.29,3.19,3.22,3.26,3.24,3.26,3.3,3.27,3.28,3.27,3.26,3.26,3.28,3.21,3.25,3.27,3.26,3.27,3.23,3.29,3.28,3.28,3.27,3.3,3.19,0.0,1.0,2.0,0.0,0.0,19668266
1765915848318,0.0,0.0,1.0,10.0,0.0,0.0,0.0,0.0,0.0,0.0,0.0,0.0,0.0,0.0,0.0,0.0,0.0,0.0,-0.053436,-0.058682,1.010038,0.7000000000000001,-0.42000000000000004,0.07,28.23828125,3.24,3.29,3.19,3.22,3.26,3.24,3.26,3.3,3.27,3.28,3.27,3.26,3.26,3.28,3.21,3.25,3.27,3.26,3.27,3.23,3.29,3.28,3.28,3.27,3.3,3.19,0.0,1.0,2.0,0.0,0.0,19668300
1765915848334,0.0,0.0,1.0,10.0,0.0,0.0,0.0,0.0,0.0,0.0,0.0,0.0,0.0,0.0,0.0,0.0,0.0,0.0,-0.053436,-0.058682,1.010038,0.7000000000000001,-0.42000000000000004,0.07,28.23828125,3.24,3.29,3.19,3.22,3.26,3.24,3.26,3.3,3.27,3.28,3.27,3.26,3.26,3.28,3.21,3.25,3.27,3.26,3.27,3.23,3.29,3.28,3.28,3.27,3.3,3.19,0.0,1.0,2.0,0.0,0.0,19668316
1765915848351,0.0,0.0,1.0,10.0,0.0,0.0,0.0,0.0,0.0,0.0,0.0,0.0,0.0,0.0,0.0,0.0,0.0,0.0,-0.053436,-0.058682,1.010038,0.7000000000000001,-0.42000000000000004,0.07,28.23828125,3.24,3.29,3.19,3.22,3.26,3.24,3.26,3.3,3.27,3.28,3.27,3.26,3.26,3.28,3.21,3.25,3.27,3.26,3.27,3.23,3.29,3.28,3.28,3.27,3.3,3.19,0.0,1.0,2.0,0.0,0.0,19668333
1765915848367,0.0,0.0,1.0,10.0,0.0,0.0,0.0,0.0,0.0,0.0,0.0,0.0,0.0,0.0,0.0,0.0,0.0,0.0,-0.053436,-0.058682,1.010038,0.7000000000000001,-0.42000000000000004,0.07,28.23828125,3.24,3.29,3.19,3.22,3.26,3.24,3.26,3.3,3.27,3.28,3.27,3.26,3.26,3.28,3.21,3.25,3.27,3.26,3.27,3.23,3.29,3.28,3.28,3.27,3.3,3.19,0.0,1.0,2.0,0.0,0.0,19668349
1765915848385,0.0,0.0,1.0,10.0,0.0,0.0,0.0,0.0,0.0,0.0,0.0,0.0,0.0,0.0,0.0,0.0,0.0,0.0,-0.053436,-0.058682,1.010038,0.7000000000000001,-0.42000000000000004,0.07,28.23828125,3.24,3.29,3.19,3.22,3.26,3.24,3.26,3.3,3.27,3.28,3.27,3.26,3.26,3.28,3.21,3.25,3.27,3.26,3.27,3.23,3.29,3.28,3.28,3.27,3.3,3.19,0.0,1.0,2.0,0.0,0.0,19668367
1765915848451,0.0,0.0,1.0,10.0,0.0,0.0,0.0,0.0,0.0,0.0,0.0,0.0,0.0,0.0,0.0,0.0,0.0,0.0,-0.044286,-0.055265999999999996,1.014308,0.7000000000000001,-0.42000000000000004,0.07,28.23828125,3.24,3.29,3.19,3.22,3.26,3.24,3.26,3.3,3.27,3.28,3.27,3.26,3.26,3.28,3.21,3.25,3.27,3.26,3.27,3.23,3.29,3.28,3.28,3.27,3.3,3.19,0.0,1.0,2.0,0.0,0.0,19668433
1765915848501,0.0,0.0,1.0,10.0,0.0,0.0,0.0,0.0,0.0,0.0,0.0,0.0,0.0,0.0,0.0,0.0,0.0,0.0,-0.044286,-0.055265999999999996,1.014308,0.77,-0.49000000000000005,0.14,28.23828125,3.24,3.29,3.19,3.22,3.26,3.24,3.26,3.3,3.27,3.28,3.27,3.26,3.26,3.28,3.21,3.25,3.27,3.26,3.27,3.23,3.29,3.28,3.28,3.27,3.3,3.19,0.0,1.0,2.0,0.0,0.0,19668483
1765915848534,0.0,0.0,1.0,10.0,0.0,0.0,0.0,0.0,0.0,0.0,0.0,0.0,0.0,0.0,0.0,0.0,0.0,0.0,-0.044286,-0.055265999999999996,1.014308,0.77,-0.49000000000000005,0.14,28.26953125,3.24,3.29,3.19,3.22,3.26,3.24,3.26,3.3,3.27,3.28,3.27,3.26,3.26,3.28,3.21,3.25,3.27,3.26,3.27,3.23,3.29,3.28,3.28,3.27,3.3,3.19,0.0,1.0,2.0,0.0,0.0,19668516
1765915848568,0.0,0.0,1.0,10.0,0.0,0.0,0.0,0.0,0.0,0.0,0.0,0.0,0.0,0.0,0.0,0.0,0.0,0.0,-0.056486,-0.055754,1.017968,0.77,-0.49000000000000005,0.14,28.26953125,3.24,3.29,3.19,3.22,3.26,3.24,3.26,3.3,3.27,3.28,3.27,3.26,3.26,3.28,3.21,3.25,3.27,3.26,3.27,3.23,3.29,3.28,3.28,3.27,3.3,3.19,0.0,1.0,2.0,0.0,0.0,19668550
1765915848586,0.0,0.0,1.0,10.0,0.0,0.0,0.0,0.0,0.0,0.0,0.0,0.0,0.0,0.0,0.0,0.0,0.0,0.0,-0.056486,-0.055754,1.017968,0.49000000000000005,-0.42000000000000004,0.14,28.26953125,3.24,3.29,3.19,3.22,3.26,3.24,3.26,3.3,3.27,3.28,3.27,3.26,3.26,3.28,3.21,3.25,3.27,3.26,3.27,3.23,3.29,3.28,3.28,3.27,3.3,3.19,0.0,1.0,2.0,0.0,0.0,19668568
1765915848601,0.0,0.0,1.0,10.0,0.0,0.0,0.0,0.0,0.0,0.0,0.0,0.0,0.0,0.0,0.0,0.0,0.0,0.0,-0.056486,-0.055754,1.017968,0.49000000000000005,-0.42000000000000004,0.14,28.26953125,3.24,3.29,3.19,3.22,3.26,3.24,3.26,3.3,3.27,3.28,3.27,3.26,3.26,3.28,3.21,3.25,3.27,3.26,3.27,3.23,3.29,3.28,3.28,3.27,3.3,3.19,0.0,1.0,2.0,0.0,0.0,19668583
1765915848618,0.0,0.0,1.0,10.0,0.0,0.0,0.0,0.0,0.0,0.0,0.0,0.0,0.0,0.0,0.0,0.0,0.0,0.0,-0.056486,-0.055754,1.017968,0.49000000000000005,-0.42000000000000004,0.14,28.26953125,3.24,3.29,3.19,3.22,3.26,3.24,3.26,3.3,3.27,3.28,3.27,3.26,3.26,3.28,3.21,3.25,3.27,3.26,3.27,3.23,3.29,3.28,3.28,3.27,3.3,3.19,0.0,1.0,2.0,0.0,0.0,19668600
1765915848635,0.0,0.0,1.0,10.0,0.0,0.0,0.0,0.0,0.0,0.0,0.0,0.0,0.0,0.0,0.0,0.0,0.0,0.0,-0.056486,-0.055754,1.017968,0.49000000000000005,-0.42000000000000004,0.14,28.24609375,3.24,3.29,3.19,3.22,3.26,3.24,3.26,3.3,3.27,3.28,3.27,3.26,3.26,3.28,3.21,3.25,3.27,3.26,3.27,3.23,3.29,3.28,3.28,3.27,3.3,3.19,0.0,1.0,2.0,0.0,0.0,19668617
1765915848651,0.0,0.0,1.0,10.0,0.0,0.0,0.0,0.0,0.0,0.0,0.0,0.0,0.0,0.0,0.0,0.0,0.0,0.0,-0.056486,-0.055754,1.017968,0.49000000000000005,-0.42000000000000004,0.14,28.24609375,3.24,3.29,3.19,3.22,3.26,3.24,3.26,3.3,3.27,3.28,3.27,3.26,3.26,3.28,3.21,3.25,3.27,3.26,3.27,3.23,3.29,3.28,3.28,3.27,3.3,3.19,0.0,1.0,2.0,0.0,0.0,19668633
1765915848668,0.0,0.0,1.0,10.0,0.0,0.0,0.0,0.0,0.0,0.0,0.0,0.0,0.0,0.0,0.0,0.0,0.0,0.0,-0.056486,-0.055754,1.017968,0.49000000000000005,-0.42000000000000004,0.14,28.24609375,3.24,3.29,3.19,3.22,3.26,3.24,3.26,3.3,3.27,3.28,3.27,3.26,3.26,3.28,3.21,3.25,3.27,3.26,3.27,3.23,3.29,3.28,3.28,3.27,3.3,3.19,0.0,1.0,2.0,0.0,0.0,19668650
1765915848735,0.0,0.0,1.0,10.0,0.0,0.0,0.0,0.0,0.0,0.0,0.0,0.0,0.0,0.0,0.0,0.0,0.0,0.0,-0.056486,-0.055754,1.017968,0.49000000000000005,-0.42000000000000004,0.14,28.24609375,3.24,3.29,3.19,3.22,3.26,3.24,3.26,3.3,3.27,3.28,3.27,3.26,3.26,3.28,3.21,3.25,3.27,3.26,3.27,3.23,3.29,3.28,3.28,3.27,3.3,3.19,0.0,1.0,2.0,0.0,0.0,19668717
1765915848802,0.0,0.0,1.0,10.0,0.0,0.0,0.0,0.0,0.0,0.0,0.0,0.0,0.0,0.0,0.0,0.0,0.0,0.0,-0.055144,-0.057218,1.000766,0.49000000000000005,-0.42000000000000004,0.14,28.24609375,3.24,3.29,3.19,3.22,3.26,3.24,3.26,3.3,3.27,3.28,3.27,3.26,3.26,3.28,3.21,3.25,3.27,3.26,3.27,3.23,3.29,3.28,3.28,3.27,3.3,3.19,0.0,1.0,2.0,0.0,0.0,19668784
1765915848818,0.0,0.0,1.0,10.0,0.0,0.0,0.0,0.0,0.0,0.0,0.0,0.0,0.0,0.0,0.0,0.0,0.0,0.0,-0.055144,-0.057218,1.000766,0.6300000000000001,-0.35000000000000003,0.07,28.24609375,3.24,3.29,3.19,3.22,3.26,3.24,3.26,3.3,3.27,3.28,3.27,3.26,3.26,3.28,3.21,3.25,3.27,3.26,3.27,3.23,3.29,3.28,3.28,3.27,3.3,3.19,0.0,1.0,2.0,0.0,0.0,19668800
1765915848835,0.0,0.0,1.0,10.0,0.0,0.0,0.0,0.0,0.0,0.0,0.0,0.0,0.0,0.0,0.0,0.0,0.0,0.0,-0.055144,-0.057218,1.000766,0.6300000000000001,-0.35000000000000003,0.07,28.25390625,3.24,3.29,3.19,3.22,3.26,3.24,3.26,3.3,3.27,3.28,3.27,3.26,3.26,3.28,3.21,3.25,3.27,3.26,3.27,3.23,3.29,3.28,3.28,3.27,3.3,3.19,0.0,1.0,2.0,0.0,0.0,19668817
1765915848868,0.0,0.0,1.0,10.0,0.0,0.0,0.0,0.0,0.0,0.0,0.0,0.0,0.0,0.0,0.0,0.0,0.0,0.0,-0.054412,-0.05185,1.011746,0.6300000000000001,-0.35000000000000003,0.07,28.25390625,3.24,3.29,3.19,3.22,3.26,3.24,3.26,3.3,3.27,3.28,3.27,3.26,3.26,3.28,3.21,3.25,3.27,3.26,3.27,3.23,3.29,3.28,3.28,3.27,3.3,3.19,0.0,1.0,2.0,0.0,0.0,19668850
1765915848885,0.0,0.0,1.0,10.0,0.0,0.0,0.0,0.0,0.0,0.0,0.0,0.0,0.0,0.0,0.0,0.0,0.0,0.0,-0.054412,-0.05185,1.011746,0.6300000000000001,-0.35000000000000003,0.07,28.25390625,3.24,3.29,3.19,3.22,3.26,3.24,3.26,3.3,3.27,3.28,3.27,3.26,3.26,3.28,3.21,3.25,3.27,3.26,3.27,3.23,3.29,3.28,3.28,3.27,3.3,3.19,0.0,1.0,2.0,0.0,0.0,19668867
1765915848901,0.0,0.0,1.0,10.0,0.0,0.0,0.0,0.0,0.0,0.0,0.0,0.0,0.0,0.0,0.0,0.0,0.0,0.0,-0.054412,-0.05185,1.011746,0.6300000000000001,-0.35000000000000003,0.07,28.25390625,3.24,3.29,3.19,3.22,3.26,3.24,3.26,3.3,3.27,3.28,3.27,3.26,3.26,3.28,3.21,3.25,3.27,3.26,3.27,3.23,3.29,3.28,3.28,3.27,3.3,3.19,0.0,1.0,2.0,0.0,0.0,19668883
1765915848918,0.0,0.0,1.0,10.0,0.0,0.0,0.0,0.0,0.0,0.0,0.0,0.0,0.0,0.0,0.0,0.0,0.0,0.0,-0.054412,-0.05185,1.011746,0.7000000000000001,-0.35000000000000003,0.14,28.25390625,3.24,3.29,3.19,3.22,3.26,3.24,3.26,3.3,3.27,3.28,3.27,3.26,3.26,3.28,3.21,3.25,3.27,3.26,3.27,3.23,3.29,3.28,3.28,3.27,3.3,3.19,0.0,1.0,2.0,0.0,0.0,19668900
1765915848934,0.0,0.0,1.0,10.0,0.0,0.0,0.0,0.0,0.0,0.0,0.0,0.0,0.0,0.0,0.0,0.0,0.0,0.0,-0.054412,-0.05185,1.011746,0.7000000000000001,-0.35000000000000003,0.14,28.25390625,3.24,3.29,3.19,3.22,3.26,3.24,3.26,3.3,3.27,3.28,3.27,3.26,3.26,3.28,3.21,3.25,3.27,3.26,3.27,3.23,3.29,3.28,3.28,3.27,3.3,3.19,0.0,1.0,2.0,0.0,0.0,19668916
1765915848952,0.0,0.0,1.0,10.0,0.0,0.0,0.0,0.0,0.0,0.0,0.0,0.0,0.0,0.0,0.0,0.0,0.0,0.0,-0.054412,-0.05185,1.011746,0.7000000000000001,-0.35000000000000003,0.14,28.25390625,3.24,3.29,3.19,3.22,3.26,3.24,3.26,3.3,3.27,3.28,3.27,3.26,3.26,3.28,3.21,3.25,3.27,3.26,3.27,3.23,3.29,3.28,3.28,3.27,3.3,3.19,0.0,1.0,2.0,0.0,0.0,19668934
1765915848985,0.0,0.0,1.0,10.0,0.0,0.0,0.0,0.0,0.0,0.0,0.0,0.0,0.0,0.0,0.0,0.0,0.0,0.0,-0.054412,-0.05185,1.011746,0.7000000000000001,-0.35000000000000003,0.14,28.25390625,3.24,3.29,3.19,3.22,3.26,3.24,3.26,3.3,3.27,3.28,3.27,3.26,3.26,3.28,3.21,3.25,3.27,3.26,3.27,3.23,3.29,3.28,3.28,3.27,3.3,3.19,0.0,1.0,2.0,0.0,0.0,19668967
1765915849001,0.0,0.0,1.0,10.0,0.0,0.0,0.0,0.0,0.0,0.0,0.0,0.0,0.0,0.0,0.0,0.0,0.0,0.0,-0.054412,-0.05185,1.011746,0.7000000000000001,-0.35000000000000003,0.14,28.2890625,3.24,3.29,3.19,3.22,3.26,3.24,3.26,3.3,3.27,3.28,3.27,3.26,3.26,3.28,3.21,3.25,3.27,3.26,3.27,3.23,3.29,3.28,3.28,3.27,3.3,3.19,0.0,1.0,2.0,0.0,0.0,19668983
1765915849052,0.0,0.0,1.0,10.0,0.0,0.0,0.0,0.0,0.0,0.0,0.0,0.0,0.0,0.0,0.0,0.0,0.0,0.0,-0.054412,-0.05185,1.011746,0.7000000000000001,-0.35000000000000003,0.14,28.2890625,3.24,3.29,3.19,3.22,3.26,3.24,3.26,3.3,3.27,3.28,3.27,3.26,3.26,3.28,3.21,3.25,3.27,3.26,3.27,3.23,3.29,3.28,3.28,3.27,3.3,3.19,0.0,1.0,2.0,0.0,0.0,19669034
1765915849116,0.0,0.0,1.0,10.0,0.0,0.0,0.0,0.0,0.0,0.0,0.0,0.0,0.0,0.0,0.0,0.0,0.0,0.0,-0.045506,-0.055388,1.003084,0.7000000000000001,-0.35000000000000003,0.14,28.2890625,3.24,3.29,3.19,3.22,3.26,3.24,3.26,3.3,3.27,3.28,3.27,3.26,3.26,3.28,3.21,3.25,3.27,3.26,3.27,3.23,3.29,3.28,3.28,3.27,3.3,3.19,0.0,1.0,2.0,0.0,0.0,19669098
1765915849134,0.0,0.0,1.0,10.0,0.0,0.0,0.0,0.0,0.0,0.0,0.0,0.0,0.0,0.0,0.0,0.0,0.0,0.0,-0.045506,-0.055388,1.003084,0.7000000000000001,-0.49000000000000005,0.07,28.2890625,3.24,3.29,3.19,3.22,3.26,3.24,3.26,3.3,3.27,3.28,3.27,3.26,3.26,3.28,3.21,3.25,3.27,3.26,3.27,3.23,3.29,3.28,3.28,3.27,3.3,3.19,0.0,1.0,2.0,0.0,0.0,19669116
1765915849151,0.0,0.0,1.0,10.0,0.0,0.0,0.0,0.0,0.0,0.0,0.0,0.0,0.0,0.0,0.0,0.0,0.0,0.0,-0.045506,-0.055388,1.003084,0.7000000000000001,-0.49000000000000005,0.07,28.25390625,3.24,3.29,3.19,3.22,3.26,3.24,3.26,3.3,3.27,3.28,3.27,3.26,3.26,3.28,3.21,3.25,3.27,3.26,3.27,3.23,3.29,3.28,3.28,3.27,3.3,3.19,0.0,1.0,2.0,0.0,0.0,19669133
1765915849185,0.0,0.0,1.0,10.0,0.0,0.0,0.0,0.0,0.0,0.0,0.0,0.0,0.0,0.0,0.0,0.0,0.0,0.0,-0.045506,-0.055388,1.003084,0.7000000000000001,-0.49000000000000005,0.07,28.25390625,3.24,3.29,3.19,3.22,3.26,3.24,3.26,3.3,3.27,3.28,3.27,3.26,3.26,3.28,3.21,3.25,3.27,3.26,3.27,3.23,3.29,3.28,3.28,3.27,3.3,3.19,0.0,1.0,2.0,0.0,0.0,19669167
1765915849201,0.0,0.0,1.0,10.0,0.0,0.0,0.0,0.0,0.0,0.0,0.0,0.0,0.0,0.0,0.0,0.0,0.0,0.0,-0.045506,-0.055388,1.003084,0.7000000000000001,-0.49000000000000005,0.07,28.25390625,3.24,3.29,3.19,3.22,3.26,3.24,3.26,3.3,3.27,3.28,3.27,3.26,3.26,3.28,3.21,3.25,3.27,3.26,3.27,3.23,3.29,3.28,3.28,3.27,3.3,3.19,0.0,1.0,2.0,0.0,0.0,19669183
1765915849218,0.0,0.0,1.0,10.0,0.0,0.0,0.0,0.0,0.0,0.0,0.0,0.0,0.0,0.0,0.0,0.0,0.0,0.0,-0.045506,-0.055388,1.003084,0.7000000000000001,-0.49000000000000005,0.07,28.25390625,3.24,3.29,3.19,3.22,3.26,3.24,3.26,3.3,3.27,3.28,3.27,3.26,3.26,3.28,3.21,3.25,3.27,3.26,3.27,3.23,3.29,3.28,3.28,3.27,3.3,3.19,0.0,1.0,2.0,0.0,0.0,19669200
1765915849233,0.0,0.0,1.0,10.0,0.0,0.0,0.0,0.0,0.0,0.0,0.0,0.0,0.0,0.0,0.0,0.0,0.0,0.0,-0.045384,-0.056608,1.02785,0.7000000000000001,-0.49000000000000005,0.07,28.25390625,3.24,3.29,3.19,3.22,3.26,3.24,3.26,3.3,3.27,3.28,3.27,3.26,3.26,3.28,3.21,3.25,3.27,3.26,3.27,3.23,3.29,3.28,3.28,3.27,3.3,3.19,0.0,1.0,2.0,0.0,0.0,19669215
1765915849250,0.0,0.0,1.0,10.0,0.0,0.0,0.0,0.0,0.0,0.0,0.0,0.0,0.0,0.0,0.0,0.0,0.0,0.0,-0.045384,-0.056608,1.02785,0.7000000000000001,-0.49000000000000005,0.07,28.25390625,3.24,3.29,3.19,3.22,3.26,3.24,3.26,3.3,3.27,3.28,3.27,3.26,3.26,3.28,3.21,3.25,3.27,3.26,3.27,3.23,3.29,3.28,3.28,3.27,3.3,3.19,0.0,1.0,2.0,0.0,0.0,19669232
1765915849268,0.0,0.0,1.0,10.0,0.0,0.0,0.0,0.0,0.0,0.0,0.0,0.0,0.0,0.0,0.0,0.0,0.0,0.0,-0.045384,-0.056608,1.02785,0.7000000000000001,-0.49000000000000005,0.07,28.25390625,3.24,3.29,3.19,3.22,3.26,3.24,3.26,3.3,3.27,3.28,3.27,3.26,3.26,3.28,3.21,3.25,3.27,3.26,3.27,3.23,3.29,3.28,3.28,3.27,3.3,3.19,0.0,1.0,2.0,0.0,0.0,19669250
1765915849285,0.0,0.0,1.0,10.0,0.0,0.0,0.0,0.0,0.0,0.0,0.0,0.0,0.0,0.0,0.0,0.0,0.0,0.0,-0.045384,-0.056608,1.02785,0.6300000000000001,-0.35000000000000003,0.07,28.25390625,3.24,3.29,3.19,3.22,3.26,3.24,3.26,3.3,3.27,3.28,3.27,3.26,3.26,3.28,3.21,3.25,3.27,3.26,3.27,3.23,3.29,3.28,3.28,3.27,3.3,3.19,0.0,1.0,2.0,0.0,0.0,19669267
1765915849335,0.0,0.0,1.0,10.0,0.0,0.0,0.0,0.0,0.0,0.0,0.0,0.0,0.0,0.0,0.0,0.0,0.0,0.0,-0.045384,-0.056608,1.02785,0.6300000000000001,-0.35000000000000003,0.07,28.26171875,3.24,3.29,3.19,3.22,3.26,3.24,3.26,3.3,3.27,3.28,3.27,3.26,3.26,3.28,3.21,3.25,3.27,3.26,3.27,3.23,3.29,3.28,3.28,3.27,3.3,3.19,0.0,1.0,2.0,0.0,0.0,19669317
1765915849418,0.0,0.0,1.0,10.0,0.0,0.0,0.0,0.0,0.0,0.0,0.0,0.0,0.0,0.0,0.0,0.0,0.0,0.0,-0.044042,-0.058682,1.00345,0.6300000000000001,-0.35000000000000003,0.07,28.26171875,3.24,3.29,3.19,3.22,3.26,3.24,3.26,3.3,3.27,3.28,3.27,3.26,3.26,3.28,3.21,3.25,3.27,3.26,3.27,3.23,3.29,3.28,3.28,3.27,3.3,3.19,0.0,1.0,2.0,0.0,0.0,19669400
1765915849435,0.0,0.0,1.0,10.0,0.0,0.0,0.0,0.0,0.0,0.0,0.0,0.0,0.0,0.0,0.0,0.0,0.0,0.0,-0.044042,-0.058682,1.00345,0.77,-0.35000000000000003,0.14,28.26171875,3.24,3.29,3.19,3.22,3.26,3.24,3.26,3.3,3.27,3.28,3.27,3.26,3.26,3.28,3.21,3.25,3.27,3.26,3.27,3.23,3.29,3.28,3.28,3.27,3.3,3.19,0.0,1.0,2.0,0.0,0.0,19669417
1765915849451,0.0,0.0,1.0,10.0,0.0,0.0,0.0,0.0,0.0,0.0,0.0,0.0,0.0,0.0,0.0,0.0,0.0,0.0,-0.044042,-0.058682,1.00345,0.77,-0.35000000000000003,0.14,28.25390625,3.24,3.29,3.19,3.22,3.26,3.24,3.26,3.3,3.27,3.28,3.27,3.26,3.26,3.28,3.21,3.25,3.27,3.26,3.27,3.23,3.29,3.28,3.28,3.27,3.3,3.19,0.0,1.0,2.0,0.0,0.0,19669433
1765915849485,0.0,0.0,1.0,10.0,0.0,0.0,0.0,0.0,0.0,0.0,0.0,0.0,0.0,0.0,0.0,0.0,0.0,0.0,-0.044042,-0.058682,1.00345,0.77,-0.35000000000000003,0.14,28.25390625,3.24,3.29,3.19,3.22,3.26,3.24,3.26,3.3,3.27,3.28,3.27,3.26,3.26,3.28,3.21,3.25,3.27,3.26,3.27,3.23,3.29,3.28,3.28,3.27,3.3,3.19,0.0,1.0,2.0,0.0,0.0,19669467
1765915849501,0.0,0.0,1.0,10.0,0.0,0.0,0.0,0.0,0.0,0.0,0.0,0.0,0.0,0.0,0.0,0.0,0.0,0.0,-0.044042,-0.058682,1.00345,0.77,-0.35000000000000003,0.14,28.25390625,3.24,3.29,3.19,3.22,3.26,3.24,3.26,3.3,3.27,3.28,3.27,3.26,3.26,3.28,3.21,3.25,3.27,3.26,3.27,3.23,3.29,3.28,3.28,3.27,3.3,3.19,0.0,1.0,2.0,0.0,0.0,19669483
1765915849518,0.0,0.0,1.0,10.0,0.0,0.0,0.0,0.0,0.0,0.0,0.0,0.0,0.0,0.0,0.0,0.0,0.0,0.0,-0.044042,-0.058682,1.00345,0.77,-0.35000000000000003,0.14,28.25390625,3.24,3.29,3.19,3.22,3.26,3.24,3.26,3.3,3.27,3.28,3.27,3.26,3.26,3.28,3.21,3.25,3.27,3.26,3.27,3.23,3.29,3.28,3.28,3.27,3.3,3.19,0.0,1.0,2.0,0.0,0.0,19669500
1765915849552,0.0,0.0,1.0,10.0,0.0,0.0,0.0,0.0,0.0,0.0,0.0,0.0,0.0,0.0,0.0,0.0,0.0,0.0,-0.044042,-0.058682,1.00345,0.77,-0.35000000000000003,0.14,28.25390625,3.24,3.29,3.19,3.22,3.26,3.24,3.26,3.3,3.27,3.28,3.27,3.26,3.26,3.28,3.21,3.25,3.27,3.26,3.27,3.23,3.29,3.28,3.28,3.27,3.3,3.19,0.0,1.0,2.0,0.0,0.0,19669534
1765915849568,0.0,0.0,1.0,10.0,0.0,0.0,0.0,0.0,0.0,0.0,0.0,0.0,0.0,0.0,0.0,0.0,0.0,0.0,-0.04758,-0.055265999999999996,1.010404,0.77,-0.35000000000000003,0.14,28.25390625,3.24,3.29,3.19,3.22,3.26,3.24,3.26,3.3,3.27,3.28,3.27,3.26,3.26,3.28,3.21,3.25,3.27,3.26,3.27,3.23,3.29,3.28,3.28,3.27,3.3,3.19,0.0,1.0,2.0,0.0,0.0,19669550
1765915849601,0.0,0.0,1.0,10.0,0.0,0.0,0.0,0.0,0.0,0.0,0.0,0.0,0.0,0.0,0.0,0.0,0.0,0.0,-0.04758,-0.055265999999999996,1.010404,0.77,-0.35000000000000003,0.14,28.25390625,3.24,3.29,3.19,3.22,3.26,3.24,3.26,3.3,3.27,3.28,3.27,3.26,3.26,3.28,3.21,3.25,3.27,3.26,3.27,3.23,3.29,3.28,3.28,3.27,3.3,3.19,0.0,1.0,2.0,0.0,0.0,19669583
1765915849634,0.0,0.0,1.0,10.0,0.0,0.0,0.0,0.0,0.0,0.0,0.0,0.0,0.0,0.0,0.0,0.0,0.0,0.0,-0.04758,-0.055265999999999996,1.010404,0.56,-0.28,0.21000000000000002,28.25390625,3.24,3.29,3.19,3.22,3.26,3.24,3.26,3.3,3.27,3.28,3.27,3.26,3.26,3.28,3.21,3.25,3.27,3.26,3.27,3.23,3.29,3.28,3.28,3.27,3.3,3.19,0.0,1.0,2.0,0.0,0.0,19669616
1765915849701,0.0,0.0,1.0,10.0,0.0,0.0,0.0,0.0,0.0,0.0,0.0,0.0,0.0,0.0,0.0,0.0,0.0,0.0,-0.04758,-0.055265999999999996,1.010404,0.56,-0.28,0.21000000000000002,28.26953125,3.24,3.29,3.19,3.22,3.26,3.24,3.26,3.3,3.27,3.28,3.27,3.26,3.26,3.28,3.21,3.25,3.27,3.26,3.27,3.23,3.29,3.28,3.28,3.27,3.3,3.19,0.0,1.0,2.0,0.0,0.0,19669683
1765915849751,0.0,0.0,1.0,10.0,0.0,0.0,0.0,0.0,0.0,0.0,0.0,0.0,0.0,0.0,0.0,0.0,0.0,0.0,-0.047092,-0.053924,1.019432,0.56,-0.49000000000000005,0.14,28.26953125,3.24,3.29,3.19,3.22,3.26,3.24,3.26,3.3,3.27,3.28,3.27,3.26,3.26,3.28,3.21,3.25,3.27,3.26,3.27,3.23,3.29,3.28,3.28,3.27,3.3,3.19,0.0,1.0,2.0,0.0,0.0,19669733
1765915849783,0.0,0.0,1.0,10.0,0.0,0.0,0.0,0.0,0.0,0.0,0.0,0.0,0.0,0.0,0.0,0.0,0.0,0.0,-0.047092,-0.053924,1.019432,0.56,-0.49000000000000005,0.14,28.25390625,3.24,3.29,3.19,3.22,3.26,3.24,3.26,3.3,3.27,3.28,3.27,3.26,3.26,3.28,3.21,3.25,3.27,3.26,3.27,3.23,3.29,3.28,3.28,3.27,3.3,3.19,0.0,1.0,2.0,0.0,0.0,19669765
1765915849801,0.0,0.0,1.0,10.0,0.0,0.0,0.0,0.0,0.0,0.0,0.0,0.0,0.0,0.0,0.0,0.0,0.0,0.0,-0.047092,-0.053924,1.019432,0.56,-0.49000000000000005,0.14,28.25390625,3.24,3.29,3.19,3.22,3.26,3.24,3.26,3.3,3.27,3.28,3.27,3.26,3.26,3.28,3.21,3.25,3.27,3.26,3.27,3.23,3.29,3.28,3.28,3.27,3.3,3.19,0.0,1.0,2.0,0.0,0.0,19669783
1765915849818,0.0,0.0,1.0,10.0,0.0,0.0,0.0,0.0,0.0,0.0,0.0,0.0,0.0,0.0,0.0,0.0,0.0,0.0,-0.047092,-0.053924,1.019432,0.56,-0.49000000000000005,0.14,28.25390625,3.24,3.29,3.19,3.22,3.26,3.24,3.26,3.3,3.27,3.28,3.27,3.26,3.26,3.28,3.21,3.25,3.27,3.26,3.27,3.23,3.29,3.28,3.28,3.27,3.3,3.19,0.0,1.0,2.0,0.0,0.0,19669800
1765915849851,0.0,0.0,1.0,10.0,0.0,0.0,0.0,0.0,0.0,0.0,0.0,0.0,0.0,0.0,0.0,0.0,0.0,0.0,-0.047092,-0.053924,1.019432,0.56,-0.49000000000000005,0.14,28.25390625,3.24,3.29,3.19,3.22,3.26,3.24,3.26,3.3,3.27,3.28,3.27,3.26,3.26,3.28,3.21,3.25,3.27,3.26,3.27,3.23,3.29,3.28,3.28,3.27,3.3,3.19,0.0,1.0,2.0,0.0,0.0,19669833
1765915849868,0.0,0.0,1.0,10.0,0.0,0.0,0.0,0.0,0.0,0.0,0.0,0.0,0.0,0.0,0.0,0.0,0.0,0.0,-0.047092,-0.053924,1.019432,0.56,-0.49000000000000005,0.14,28.25390625,3.24,3.29,3.19,3.22,3.26,3.24,3.26,3.3,3.27,3.28,3.27,3.26,3.26,3.28,3.21,3.25,3.27,3.26,3.27,3.23,3.29,3.28,3.28,3.27,3.3,3.19,0.0,1.0,2.0,0.0,0.0,19669850
1765915849918,0.0,0.0,1.0,10.0,0.0,0.0,0.0,0.0,0.0,0.0,0.0,0.0,0.0,0.0,0.0,0.0,0.0,0.0,-0.042456,-0.050996,0.99796,0.56,-0.49000000000000005,0.14,28.25390625,3.24,3.29,3.19,3.22,3.26,3.24,3.26,3.3,3.27,3.28,3.27,3.26,3.26,3.28,3.21,3.25,3.27,3.26,3.27,3.23,3.29,3.28,3.28,3.27,3.3,3.19,0.0,1.0,2.0,0.0,0.0,19669900
1765915849935,0.0,0.0,1.0,10.0,0.0,0.0,0.0,0.0,0.0,0.0,0.0,0.0,0.0,0.0,0.0,0.0,0.0,0.0,-0.042456,-0.050996,0.99796,0.56,-0.49000000000000005,0.14,28.25390625,3.24,3.29,3.19,3.22,3.26,3.24,3.26,3.3,3.27,3.28,3.27,3.26,3.26,3.28,3.21,3.25,3.27,3.26,3.27,3.23,3.29,3.28,3.28,3.27,3.3,3.19,0.0,1.0,2.0,0.0,0.0,19669917
1765915849967,0.0,0.0,1.0,10.0,0.0,0.0,0.0,0.0,0.0,0.0,0.0,0.0,0.0,0.0,0.0,0.0,0.0,0.0,-0.042456,-0.050996,0.99796,0.7000000000000001,-0.21000000000000002,0.21000000000000002,28.25390625,3.24,3.29,3.19,3.22,3.26,3.24,3.26,3.3,3.27,3.28,3.27,3.26,3.26,3.28,3.21,3.25,3.27,3.26,3.27,3.23,3.29,3.28,3.28,3.27,3.3,3.19,0.0,1.0,2.0,0.0,0.0,19669949
1765915850001,0.0,0.0,1.0,10.0,0.0,0.0,0.0,0.0,0.0,0.0,0.0,0.0,0.0,0.0,0.0,0.0,0.0,0.0,-0.042456,-0.050996,0.99796,0.7000000000000001,-0.21000000000000002,0.21000000000000002,28.27734375,3.24,3.29,3.19,3.22,3.26,3.24,3.26,3.3,3.27,3.28,3.27,3.26,3.26,3.28,3.21,3.25,3.27,3.26,3.27,3.23,3.29,3.28,3.28,3.27,3.3,3.19,0.0,1.0,2.0,0.0,0.0,19669983
1765915850051,0.0,0.0,1.0,10.0,0.0,0.0,0.0,0.0,0.0,0.0,0.0,0.0,0.0,0.0,0.0,0.0,0.0,0.0,-0.045262,-0.058804,1.013942,0.56,-0.49000000000000005,0.07,28.27734375,3.24,3.29,3.19,3.22,3.26,3.24,3.26,3.3,3.27,3.28,3.27,3.26,3.26,3.28,3.21,3.25,3.27,3.26,3.27,3.23,3.29,3.28,3.28,3.27,3.3,3.19,0.0,1.0,2.0,0.0,0.0,19670033
1765915850068,0.0,0.0,1.0,10.0,0.0,0.0,0.0,0.0,0.0,0.0,0.0,0.0,0.0,0.0,0.0,0.0,0.0,0.0,-0.045262,-0.058804,1.013942,0.56,-0.49000000000000005,0.07,28.27734375,3.24,3.29,3.19,3.22,3.26,3.24,3.26,3.3,3.27,3.28,3.27,3.26,3.26,3.28,3.21,3.25,3.27,3.26,3.27,3.23,3.29,3.28,3.28,3.27,3.3,3.19,0.0,1.0,2.0,0.0,0.0,19670050
1765915850102,0.0,0.0,1.0,10.0,0.0,0.0,0.0,0.0,0.0,0.0,0.0,0.0,0.0,0.0,0.0,0.0,0.0,0.0,-0.045262,-0.058804,1.013942,0.56,-0.49000000000000005,0.07,28.24609375,3.24,3.29,3.19,3.22,3.26,3.24,3.26,3.3,3.27,3.28,3.27,3.26,3.26,3.28,3.21,3.25,3.27,3.26,3.27,3.23,3.29,3.28,3.28,3.27,3.3,3.19,0.0,1.0,2.0,0.0,0.0,19670084
1765915850118,0.0,0.0,1.0,10.0,0.0,0.0,0.0,0.0,0.0,0.0,0.0,0.0,0.0,0.0,0.0,0.0,0.0,0.0,-0.045262,-0.058804,1.013942,0.56,-0.49000000000000005,0.07,28.24609375,3.24,3.29,3.19,3.22,3.26,3.24,3.26,3.3,3.27,3.28,3.27,3.26,3.26,3.28,3.21,3.25,3.27,3.26,3.27,3.23,3.29,3.28,3.28,3.27,3.3,3.19,0.0,1.0,2.0,0.0,0.0,19670100
1765915850134,0.0,0.0,1.0,10.0,0.0,0.0,0.0,0.0,0.0,0.0,0.0,0.0,0.0,0.0,0.0,0.0,0.0,0.0,-0.045262,-0.058804,1.013942,0.56,-0.49000000000000005,0.07,28.24609375,3.24,3.29,3.19,3.22,3.26,3.24,3.26,3.3,3.27,3.28,3.27,3.26,3.26,3.28,3.21,3.25,3.27,3.26,3.27,3.23,3.29,3.28,3.28,3.27,3.3,3.19,0.0,1.0,2.0,0.0,0.0,19670116
1765915850151,0.0,0.0,1.0,10.0,0.0,0.0,0.0,0.0,0.0,0.0,0.0,0.0,0.0,0.0,0.0,0.0,0.0,0.0,-0.045262,-0.058804,1.013942,0.56,-0.49000000000000005,0.07,28.24609375,3.24,3.29,3.19,3.22,3.26,3.24,3.26,3.3,3.27,3.28,3.27,3.26,3.26,3.28,3.21,3.25,3.27,3.26,3.27,3.23,3.29,3.28,3.28,3.27,3.3,3.19,0.0,1.0,2.0,0.0,0.0,19670133
1765915850202,0.0,0.0,1.0,10.0,0.0,0.0,0.0,0.0,0.0,0.0,0.0,0.0,0.0,0.0,0.0,0.0,0.0,0.0,-0.045262,-0.058804,1.013942,0.56,-0.49000000000000005,0.07,28.24609375,3.24,3.29,3.19,3.22,3.26,3.24,3.26,3.3,3.27,3.28,3.27,3.26,3.26,3.28,3.21,3.25,3.27,3.26,3.27,3.23,3.29,3.28,3.28,3.27,3.3,3.19,0.0,1.0,2.0,0.0,0.0,19670184
