timestamp,THROTTLE,BRAKE,ECU_MODE_ID,TORQUE_GAIN,TORQUE_REF_LEFT_MOTOR,TORQUE_REF_RIGHT_MOTOR,LEFT_MOTOR_SPEED,LEFT_MOTOR_TORQUE,LEFT_MOTOR_POWER,LEFT_MOTOR_CURRENT,RIGHT_MOTOR_SPEED,RIGHT_MOTOR_TORQUE,RIGHT_MOTOR_POWER,RIGHT_MOTOR_CURRENT,REAR_LEFT_WHEEL_SPEED,REAR_RIGHT_WHEEL_SPEED,FRONT_LEFT_WHEEL_SPEED,FRONT_RIGHT_WHEEL_SPEED,ACCEL_LONGITUDINAL,ACCEL_LATERAL,ACCEL_NORMAL,VEL_ANGULAR_YAW,VEL_ANGULAR_PITCH,VEL_ANGULAR_ROLL,ELETROBUILD_TEMPERATURE,STACK_1_CELL_1,STACK_1_CELL_2,STACK_1_CELL_3,STACK_1_CELL_4,STACK_2_CELL_1,STACK_2_CELL_2,STACK_2_CELL_3,STACK_2_CELL_4,STACK_3_CELL_1,STACK_3_CELL_2,STACK_3_CELL_3,STACK_3_CELL_4,STACK_4_CELL_1,STACK_4_CELL_2,STACK_4_CELL_3,STACK_4_CELL_4,STACK_5_CELL_1,STACK_5_CELL_2,STACK_5_CELL_3,STACK_5_CELL_4,STACK_6_CELL_1,STACK_6_CELL_2,STACK_6_CELL_3,STACK_6_CELL_4,MAX_VOLTAGE,MIN_VOLTAGE,SHUNT_CURRENT,BMS_MODE_ID,BMS_ERROR_ID,AIR_P,AIR_N,t
1765915410008,0.0,0.0,0.0,0.0,0.0,0.0,43.994912357142866,1010.0,0.0,1342.0,43.36562502857143,1042.0,55.0,1340.0,43.994912357142866,43.36562502857143,0.0,0.0,-0.05795,-0.044774,1.013332,0.7000000000000001,-0.28,0.14,27.2109375,3.24,3.29,3.19,3.22,3.26,3.24,3.26,3.3,3.27,3.28,3.27,3.26,3.26,3.28,3.21,3.25,3.27,3.26,3.27,3.23,3.29,3.28,3.28,3.27,3.3,3.19,0.0,1.0,2.0,0.0,0.0,19229990
1765915410040,0.0,0.0,0.0,0.0,0.0,0.0,43.994912357142866,1010.0,0.0,1342.0,43.36562502857143,1042.0,55.0,1340.0,43.994912357142866,43.36562502857143,0.0,0.0,-0.05795,-0.044774,1.013332,0.7000000000000001,-0.28,0.14,27.6171875,3.24,3.29,3.19,3.22,3.26,3.24,3.26,3.3,3.27,3.28,3.27,3.26,3.26,3.28,3.21,3.25,3.27,3.26,3.27,3.23,3.29,3.28,3.28,3.27,3.3,3.19,0.0,1.0,2.0,0.0,0.0,19230022
1765915410057,0.0,0.0,0.0,0.0,0.0,0.0,43.994912357142866,1010.0,0.0,1342.0,43.36562502857143,1042.0,55.0,1340.0,43.994912357142866,43.36562502857143,0.0,0.0,-0.059047999999999996,-0.040748,1.011136,0.7000000000000001,-0.28,0.14,27.6171875,3.24,3.29,3.19,3.22,3.26,3.24,3.26,3.3,3.27,3.28,3.27,3.26,3.26,3.28,3.21,3.25,3.27,3.26,3.27,3.23,3.29,3.28,3.28,3.27,3.3,3.19,0.0,1.0,2.0,0.0,0.0,19230039
1765915410074,0.0,0.0,0.0,0.0,0.0,0.0,43.994912357142866,1010.0,0.0,1342.0,43.36562502857143,1042.0,55.0,1340.0,43.994912357142866,43.36562502857143,0.0,0.0,-0.059047999999999996,-0.040748,1.011136,0.7000000000000001,-0.28,0.14,27.6171875,3.24,3.29,3.19,3.22,3.26,3.24,3.26,3.3,3.27,3.28,3.27,3.26,3.26,3.28,3.21,3.25,3.27,3.26,3.27,3.23,3.29,3.28,3.28,3.27,3.3,3.19,0.0,1.0,2.0,0.0,0.0,19230056
1765915410090,0.0,0.0,1.0,10.0,0.0,0.0,43.994912357142866,1010.0,0.0,1342.0,43.36562502857143,1042.0,55.0,1340.0,43.994912357142866,43.36562502857143,0.0,0.0,-0.059047999999999996,-0.040748,1.011136,0.7000000000000001,-0.28,0.14,27.6171875,3.24,3.29,3.19,3.22,3.26,3.24,3.26,3.3,3.27,3.28,3.27,3.26,3.26,3.28,3.21,3.25,3.27,3.26,3.27,3.23,3.29,3.28,3.28,3.27,3.3,3.19,0.0,1.0,2.0,0.0,0.0,19230072
1765915410107,0.0,0.0,1.0,10.0,0.0,0.0,43.994912357142866,1010.0,0.0,1342.0,43.36562502857143,1042.0,55.0,1340.0,43.994912357142866,43.36562502857143,0.0,0.0,-0.059047999999999996,-0.040748,1.011136,0.7000000000000001,-0.28,0.14,27.6171875,3.24,3.29,3.19,3.22,3.26,3.24,3.26,3.3,3.27,3.28,3.27,3.26,3.26,3.28,3.21,3.25,3.27,3.26,3.27,3.23,3.29,3.28,3.28,3.27,3.3,3.19,0.0,1.0,2.0,0.0,0.0,19230089
1765915410124,0.0,0.0,1.0,10.0,0.0,0.0,43.994912357142866,1010.0,0.0,1342.0,43.36562502857143,1042.0,55.0,1340.0,43.994912357142866,43.36562502857143,0.0,0.0,-0.059047999999999996,-0.040748,1.011136,0.6300000000000001,-0.49000000000000005,0.14,27.6171875,3.24,3.29,3.19,3.22,3.26,3.24,3.26,3.3,3.27,3.28,3.27,3.26,3.26,3.28,3.21,3.25,3.27,3.26,3.27,3.23,3.29,3.28,3.28,3.27,3.3,3.19,0.0,1.0,2.0,0.0,0.0,19230106
1765915410140,0.0,0.0,1.0,10.0,0.0,0.0,43.994912357142866,1010.0,0.0,1342.0,43.36562502857143,1042.0,55.0,1340.0,0.0,0.0,0.0,0.0,-0.059047999999999996,-0.040748,1.011136,0.6300000000000001,-0.49000000000000005,0.14,27.6171875,3.24,3.29,3.19,3.22,3.26,3.24,3.26,3.3,3.27,3.28,3.27,3.26,3.26,3.28,3.21,3.25,3.27,3.26,3.27,3.23,3.29,3.28,3.28,3.27,3.3,3.19,0.0,1.0,2.0,0.0,0.0,19230122
1765915410157,0.0,0.0,1.0,10.0,0.0,0.0,43.994912357142866,1010.0,0.0,1342.0,43.36562502857143,1042.0,55.0,1340.0,0.0,0.0,0.0,0.0,-0.059047999999999996,-0.040748,1.011136,0.6300000000000001,-0.49000000000000005,0.14,27.59375,3.24,3.29,3.19,3.22,3.26,3.24,3.26,3.3,3.27,3.28,3.27,3.26,3.26,3.28,3.21,3.25,3.27,3.26,3.27,3.23,3.29,3.28,3.28,3.27,3.3,3.19,0.0,1.0,2.0,0.0,0.0,19230139
1765915410174,0.0,0.0,1.0,10.0,0.0,0.0,0.0,0.0,0.0,0.0,43.36562502857143,1042.0,55.0,1340.0,0.0,0.0,0.0,0.0,-0.059047999999999996,-0.040748,1.011136,0.6300000000000001,-0.49000000000000005,0.14,27.59375,3.24,3.29,3.19,3.22,3.26,3.24,3.26,3.3,3.27,3.28,3.27,3.26,3.26,3.28,3.21,3.25,3.27,3.26,3.27,3.23,3.29,3.28,3.28,3.27,3.3,3.19,0.0,1.0,2.0,0.0,0.0,19230156
1765915410224,0.0,0.0,1.0,10.0,0.0,0.0,0.0,0.0,0.0,0.0,0.0,0.0,0.0,0.0,0.0,0.0,0.0,0.0,-0.059047999999999996,-0.040748,1.011136,0.6300000000000001,-0.49000000000000005,0.14,27.59375,3.24,3.29,3.19,3.22,3.26,3.24,3.26,3.3,3.27,3.28,3.27,3.26,3.26,3.28,3.21,3.25,3.27,3.26,3.27,3.23,3.29,3.28,3.28,3.27,3.3,3.19,0.0,1.0,2.0,0.0,0.0,19230206
1765915410291,0.0,0.0,1.0,10.0,0.0,0.0,0.0,0.0,0.0,0.0,0.0,0.0,0.0,0.0,0.0,0.0,0.0,0.0,-0.059047999999999996,-0.040748,1.011136,0.6300000000000001,-0.49000000000000005,0.14,27.59375,3.24,3.29,3.19,3.22,3.26,3.24,3.26,3.3,3.27,3.28,3.27,3.26,3.26,3.28,3.21,3.25,3.27,3.26,3.27,3.23,3.29,3.28,3.28,3.27,3.3,3.19,0.0,1.0,2.0,0.0,0.0,19230273
1765915410358,0.0,0.0,1.0,10.0,0.0,0.0,0.0,0.0,0.0,0.0,0.0,0.0,0.0,0.0,0.0,0.0,0.0,0.0,-0.055632,-0.041602,1.01382,0.7000000000000001,-0.35000000000000003,0.07,27.59375,3.24,3.29,3.19,3.22,3.26,3.24,3.26,3.3,3.27,3.28,3.27,3.26,3.26,3.28,3.21,3.25,3.27,3.26,3.27,3.23,3.29,3.28,3.28,3.27,3.3,3.19,0.0,1.0,2.0,0.0,0.0,19230340
1765915410390,0.0,0.0,1.0,10.0,0.0,0.0,0.0,0.0,0.0,0.0,0.0,0.0,0.0,0.0,0.0,0.0,0.0,0.0,-0.055632,-0.041602,1.01382,0.7000000000000001,-0.35000000000000003,0.07,27.6015625,3.24,3.29,3.19,3.22,3.26,3.24,3.26,3.3,3.27,3.28,3.27,3.26,3.26,3.28,3.21,3.25,3.27,3.26,3.27,3.23,3.29,3.28,3.28,3.27,3.3,3.19,0.0,1.0,2.0,0.0,0.0,19230372
1765915410424,0.0,0.0,1.0,10.0,0.0,0.0,0.0,0.0,0.0,0.0,0.0,0.0,0.0,0.0,0.0,0.0,0.0,0.0,-0.055632,-0.041602,1.01382,0.7000000000000001,-0.35000000000000003,0.07,27.6015625,3.24,3.29,3.19,3.22,3.26,3.24,3.26,3.3,3.27,3.28,3.27,3.26,3.26,3.28,3.21,3.25,3.27,3.26,3.27,3.23,3.29,3.28,3.28,3.27,3.3,3.19,0.0,1.0,2.0,0.0,0.0,19230406
1765915410440,0.0,0.0,1.0,10.0,0.0,0.0,0.0,0.0,0.0,0.0,0.0,0.0,0.0,0.0,0.0,0.0,0.0,0.0,-0.054778,-0.040015999999999996,1.012234,0.7000000000000001,-0.35000000000000003,0.07,27.6015625,3.24,3.29,3.19,3.22,3.26,3.24,3.26,3.3,3.27,3.28,3.27,3.26,3.26,3.28,3.21,3.25,3.27,3.26,3.27,3.23,3.29,3.28,3.28,3.27,3.3,3.19,0.0,1.0,2.0,0.0,0.0,19230422
1765915410457,0.0,0.0,1.0,10.0,0.0,0.0,0.0,0.0,0.0,0.0,0.0,0.0,0.0,0.0,0.0,0.0,0.0,0.0,-0.054778,-0.040015999999999996,1.012234,0.7000000000000001,-0.35000000000000003,0.07,27.6015625,3.24,3.29,3.19,3.22,3.26,3.24,3.26,3.3,3.27,3.28,3.27,3.26,3.26,3.28,3.21,3.25,3.27,3.26,3.27,3.23,3.29,3.28,3.28,3.27,3.3,3.19,0.0,1.0,2.0,0.0,0.0,19230439
1765915410473,0.0,0.0,1.0,10.0,0.0,0.0,0.0,0.0,0.0,0.0,0.0,0.0,0.0,0.0,0.0,0.0,0.0,0.0,-0.054778,-0.040015999999999996,1.012234,0.6300000000000001,-0.56,0.14,27.6015625,3.24,3.29,3.19,3.22,3.26,3.24,3.26,3.3,3.27,3.28,3.27,3.26,3.26,3.28,3.21,3.25,3.27,3.26,3.27,3.23,3.29,3.28,3.28,3.27,3.3,3.19,0.0,1.0,2.0,0.0,0.0,19230455
1765915410490,0.0,0.0,1.0,10.0,0.0,0.0,0.0,0.0,0.0,0.0,0.0,0.0,0.0,0.0,0.0,0.0,0.0,0.0,-0.054778,-0.040015999999999996,1.012234,0.6300000000000001,-0.56,0.14,27.6015625,3.24,3.29,3.19,3.22,3.26,3.24,3.26,3.3,3.27,3.28,3.27,3.26,3.26,3.28,3.21,3.25,3.27,3.26,3.27,3.23,3.29,3.28,3.28,3.27,3.3,3.19,0.0,1.0,2.0,0.0,0.0,19230472
1765915410524,0.0,0.0,1.0,10.0,0.0,0.0,0.0,0.0,0.0,0.0,0.0,0.0,0.0,0.0,0.0,0.0,0.0,0.0,-0.054778,-0.040015999999999996,1.012234,0.6300000000000001,-0.56,0.14,27.6328125,3.24,3.29,3.19,3.22,3.26,3.24,3.26,3.3,3.27,3.28,3.27,3.26,3.26,3.28,3.21,3.25,3.27,3.26,3.27,3.23,3.29,3.28,3.28,3.27,3.3,3.19,0.0,1.0,2.0,0.0,0.0,19230506
1765915410574,0.0,0.0,1.0,10.0,0.0,0.0,0.0,0.0,0.0,0.0,0.0,0.0,0.0,0.0,0.0,0.0,0.0,0.0,-0.054778,-0.040015999999999996,1.012234,0.6300000000000001,-0.56,0.14,27.6328125,3.24,3.29,3.19,3.22,3.26,3.24,3.26,3.3,3.27,3.28,3.27,3.26,3.26,3.28,3.21,3.25,3.27,3.26,3.27,3.23,3.29,3.28,3.28,3.27,3.3,3.19,0.0,1.0,2.0,0.0,0.0,19230556
1765915410640,0.0,0.0,1.0,10.0,0.0,0.0,0.0,0.0,0.0,0.0,0.0,0.0,0.0,0.0,0.0,0.0,0.0,0.0,-0.056608,-0.043432,1.008696,0.6300000000000001,-0.56,0.14,27.6328125,3.24,3.29,3.19,3.22,3.26,3.24,3.26,3.3,3.27,3.28,3.27,3.26,3.26,3.28,3.21,3.25,3.27,3.26,3.27,3.23,3.29,3.28,3.28,3.27,3.3,3.19,0.0,1.0,2.0,0.0,0.0,19230622
1765915410657,0.0,0.0,1.0,10.0,0.0,0.0,0.0,0.0,0.0,0.0,0.0,0.0,0.0,0.0,0.0,0.0,0.0,0.0,-0.056608,-0.043432,1.008696,0.6300000000000001,-0.35000000000000003,0.14,27.6328125,3.24,3.29,3.19,3.22,3.26,3.24,3.26,3.3,3.27,3.28,3.27,3.26,3.26,3.28,3.21,3.25,3.27,3.26,3.27,3.23,3.29,3.28,3.28,3.27,3.3,3.19,0.0,1.0,2.0,0.0,0.0,19230639
1765915410674,0.0,0.0,1.0,10.0,0.0,0.0,0.0,0.0,0.0,0.0,0.0,0.0,0.0,0.0,0.0,0.0,0.0,0.0,-0.056608,-0.043432,1.008696,0.6300000000000001,-0.35000000000000003,0.14,27.6171875,3.24,3.29,3.19,3.22,3.26,3.24,3.26,3.3,3.27,3.28,3.27,3.26,3.26,3.28,3.21,3.25,3.27,3.26,3.27,3.23,3.29,3.28,3.28,3.27,3.3,3.19,0.0,1.0,2.0,0.0,0.0,19230656
1765915410708,0.0,0.0,1.0,10.0,0.0,0.0,0.0,0.0,0.0,0.0,0.0,0.0,0.0,0.0,0.0,0.0,0.0,0.0,-0.056119999999999996,-0.04392,1.01382,0.6300000000000001,-0.35000000000000003,0.14,27.6171875,3.24,3.29,3.19,3.22,3.26,3.24,3.26,3.3,3.27,3.28,3.27,3.26,3.26,3.28,3.21,3.25,3.27,3.26,3.27,3.23,3.29,3.28,3.28,3.27,3.3,3.19,0.0,1.0,2.0,0.0,0.0,19230690
1765915410723,0.0,0.0,1.0,10.0,0.0,0.0,0.0,0.0,0.0,0.0,0.0,0.0,0.0,0.0,0.0,0.0,0.0,0.0,-0.056119999999999996,-0.04392,1.01382,0.6300000000000001,-0.35000000000000003,0.14,27.6171875,3.24,3.29,3.19,3.22,3.26,3.24,3.26,3.3,3.27,3.28,3.27,3.26,3.26,3.28,3.21,3.25,3.27,3.26,3.27,3.23,3.29,3.28,3.28,3.27,3.3,3.19,0.0,1.0,2.0,0.0,0.0,19230705
1765915410740,0.0,0.0,1.0,10.0,0.0,0.0,0.0,0.0,0.0,0.0,0.0,0.0,0.0,0.0,0.0,0.0,0.0,0.0,-0.056119999999999996,-0.04392,1.01382,0.6300000000000001,-0.35000000000000003,0.14,27.6171875,3.24,3.29,3.19,3.22,3.26,3.24,3.26,3.3,3.27,3.28,3.27,3.26,3.26,3.28,3.21,3.25,3.27,3.26,3.27,3.23,3.29,3.28,3.28,3.27,3.3,3.19,0.0,1.0,2.0,0.0,0.0,19230722
1765915410774,0.0,0.0,1.0,10.0,0.0,0.0,0.0,0.0,0.0,0.0,0.0,0.0,0.0,0.0,0.0,0.0,0.0,0.0,-0.056119999999999996,-0.04392,1.01382,0.56,-0.49000000000000005,0.07,27.6171875,3.24,3.29,3.19,3.22,3.26,3.24,3.26,3.3,3.27,3.28,3.27,3.26,3.26,3.28,3.21,3.25,3.27,3.26,3.27,3.23,3.29,3.28,3.28,3.27,3.3,3.19,0.0,1.0,2.0,0.0,0.0,19230756
1765915410807,0.0,0.0,1.0,10.0,0.0,0.0,0.0,0.0,0.0,0.0,0.0,0.0,0.0,0.0,0.0,0.0,0.0,0.0,-0.056119999999999996,-0.04392,1.01382,0.56,-0.49000000000000005,0.07,27.62109375,3.24,3.29,3.19,3.22,3.26,3.24,3.26,3.3,3.27,3.28,3.27,3.26,3.26,3.28,3.21,3.25,3.27,3.26,3.27,3.23,3.29,3.28,3.28,3.27,3.3,3.19,0.0,1.0,2.0,0.0,0.0,19230789
1765915410873,0.0,0.0,1.0,10.0,0.0,0.0,0.0,0.0,0.0,0.0,0.0,0.0,0.0,0.0,0.0,0.0,0.0,0.0,-0.056119999999999996,-0.04392,1.01382,0.56,-0.49000000000000005,0.07,27.62109375,3.24,3.29,3.19,3.22,3.26,3.24,3.26,3.3,3.27,3.28,3.27,3.26,3.26,3.28,3.21,3.25,3.27,3.26,3.27,3.23,3.29,3.28,3.28,3.27,3.3,3.19,0.0,1.0,2.0,0.0,0.0,19230855
1765915410924,0.0,0.0,1.0,10.0,0.0,0.0,0.0,0.0,0.0,0.0,0.0,0.0,0.0,0.0,0.0,0.0,0.0,0.0,-0.056119999999999996,-0.04392,1.01382,0.56,-0.49000000000000005,0.07,27.62109375,3.24,3.29,3.19,3.22,3.26,3.24,3.26,3.3,3.27,3.28,3.27,3.26,3.26,3.28,3.21,3.25,3.27,3.26,3.27,3.23,3.29,3.28,3.28,3.27,3.3,3.19,0.0,1.0,2.0,0.0,0.0,19230906
1765915410991,0.0,0.0,1.0,10.0,0.0,0.0,0.0,0.0,0.0,0.0,0.0,0.0,0.0,0.0,0.0,0.0,0.0,0.0,-0.05124,-0.041968,1.012112,0.56,-0.49000000000000005,0.07,27.62109375,3.24,3.29,3.19,3.22,3.26,3.24,3.26,3.3,3.27,3.28,3.27,3.26,3.26,3.28,3.21,3.25,3.27,3.26,3.27,3.23,3.29,3.28,3.28,3.27,3.3,3.19,0.0,1.0,2.0,0.0,0.0,19230973
1765915411024,0.0,0.0,1.0,10.0,0.0,0.0,0.0,0.0,0.0,0.0,0.0,0.0,0.0,0.0,0.0,0.0,0.0,0.0,-0.05124,-0.041968,1.012112,0.6300000000000001,-0.42000000000000004,0.07,27.59375,3.24,3.29,3.19,3.22,3.26,3.24,3.26,3.3,3.27,3.28,3.27,3.26,3.26,3.28,3.21,3.25,3.27,3.26,3.27,3.23,3.29,3.28,3.28,3.27,3.3,3.19,0.0,1.0,2.0,0.0,0.0,19231006
1765915411157,0.0,0.0,1.0,10.0,0.0,0.0,0.0,2304.0,0.0,0.0,0.0,0.0,0.0,0.0,0.0,0.0,0.0,0.0,-0.05124,-0.041968,1.012112,0.6300000000000001,-0.42000000000000004,0.07,27.59375,3.24,3.29,3.19,3.22,3.26,3.24,3.26,3.3,3.27,3.28,3.27,3.26,3.26,3.28,3.21,3.25,3.27,3.26,3.27,3.23,3.29,3.28,3.28,3.27,3.3,3.19,0.0,1.0,2.0,0.0,0.0,19231139
1765915411323,0.0,0.0,1.0,10.0,0.0,0.0,0.0,2304.0,0.0,0.0,0.0,0.0,0.0,0.0,0.0,0.0,0.0,0.0,-0.05124,-0.041968,1.012112,0.6300000000000001,-0.42000000000000004,0.07,27.59375,3.24,3.29,3.19,3.22,3.26,3.24,3.26,3.3,3.27,3.28,3.27,3.26,3.26,3.28,3.21,3.25,3.27,3.26,3.27,3.23,3.29,3.28,3.28,3.27,3.3,3.19,0.0,1.0,2.0,0.0,0.0,19231305
1765915411390,0.0,0.0,1.0,10.0,0.0,0.0,0.0,2304.0,0.0,0.0,0.0,0.0,0.0,0.0,0.0,0.0,0.0,0.0,-0.05124,-0.041968,1.012112,0.6300000000000001,-0.42000000000000004,0.07,27.59375,3.24,3.29,3.19,3.22,3.26,3.24,3.26,3.3,3.27,3.28,3.27,3.26,3.26,3.28,3.21,3.25,3.27,3.26,3.27,3.23,3.29,3.28,3.28,3.27,3.3,3.19,0.0,1.0,2.0,0.0,0.0,19231372
1765915411407,0.0,0.0,1.0,10.0,0.0,0.0,0.0,2304.0,0.0,0.0,0.0,0.0,0.0,0.0,0.0,0.0,0.0,0.0,-0.05124,-0.041968,1.012112,0.6300000000000001,-0.42000000000000004,0.07,27.59375,3.24,3.29,3.19,3.22,3.26,3.24,3.26,3.3,3.27,3.28,3.27,3.26,3.26,3.28,3.21,3.25,3.27,3.26,3.27,3.23,3.29,3.28,3.28,3.27,3.3,3.19,0.0,1.0,2.0,0.0,0.0,19231389
1765915411473,0.0,0.0,1.0,10.0,0.0,0.0,0.0,2304.0,0.0,0.0,0.0,0.0,0.0,0.0,0.0,0.0,0.0,0.0,-0.05124,-0.041968,1.012112,0.6300000000000001,-0.42000000000000004,0.07,27.6015625,3.24,3.29,3.19,3.22,3.26,3.24,3.26,3.3,3.27,3.28,3.27,3.26,3.26,3.28,3.21,3.25,3.27,3.26,3.27,3.23,3.29,3.28,3.28,3.27,3.3,3.19,0.0,1.0,2.0,0.0,0.0,19231455
1765915411657,0.0,0.0,1.0,10.0,0.0,0.0,0.0,2304.0,0.0,0.0,0.0,0.0,0.0,0.0,0.0,0.0,0.0,0.0,-0.05124,-0.041968,1.012112,0.7000000000000001,-0.35000000000000003,0.07,27.6015625,3.24,3.29,3.19,3.22,3.26,3.24,3.26,3.3,3.27,3.28,3.27,3.26,3.26,3.28,3.21,3.25,3.27,3.26,3.27,3.23,3.29,3.28,3.28,3.27,3.3,3.19,0.0,1.0,2.0,0.0,0.0,19231639
1765915411673,0.0,0.0,1.0,10.0,0.0,0.0,0.0,2304.0,0.0,0.0,0.0,0.0,0.0,0.0,0.0,0.0,0.0,0.0,-0.05124,-0.041968,1.012112,0.7000000000000001,-0.35000000000000003,0.07,27.62109375,3.24,3.29,3.19,3.22,3.26,3.24,3.26,3.3,3.27,3.28,3.27,3.26,3.26,3.28,3.21,3.25,3.27,3.26,3.27,3.23,3.29,3.28,3.28,3.27,3.3,3.19,0.0,1.0,2.0,0.0,0.0,19231655
1765915411724,0.0,0.0,1.0,10.0,0.0,0.0,0.0,2304.0,0.0,0.0,0.0,0.0,0.0,0.0,0.0,0.0,0.0,0.0,-0.05124,-0.041968,1.012112,0.7000000000000001,-0.35000000000000003,0.07,27.62109375,3.24,3.29,3.19,3.22,3.26,3.24,3.26,3.3,3.27,3.28,3.27,3.26,3.26,3.28,3.21,3.25,3.27,3.26,3.27,3.23,3.29,3.28,3.28,3.27,3.3,3.19,0.0,1.0,2.0,0.0,0.0,19231706
1765915411757,0.0,0.0,1.0,10.0,0.0,0.0,0.0,2304.0,0.0,0.0,0.0,0.0,0.0,0.0,0.0,0.0,0.0,0.0,-0.056119999999999996,-0.042212,1.01138,0.7000000000000001,-0.35000000000000003,0.07,27.62109375,3.24,3.29,3.19,3.22,3.26,3.24,3.26,3.3,3.27,3.28,3.27,3.26,3.26,3.28,3.21,3.25,3.27,3.26,3.27,3.23,3.29,3.28,3.28,3.27,3.3,3.19,0.0,1.0,2.0,0.0,0.0,19231739
1765915411790,0.0,0.0,1.0,10.0,0.0,0.0,0.0,0.0,0.0,0.0,0.0,0.0,0.0,0.0,0.0,0.0,0.0,0.0,-0.056119999999999996,-0.042212,1.01138,0.7000000000000001,-0.35000000000000003,0.07,27.62109375,3.24,3.29,3.19,3.22,3.26,3.24,3.26,3.3,3.27,3.28,3.27,3.26,3.26,3.28,3.21,3.25,3.27,3.26,3.27,3.23,3.29,3.28,3.28,3.27,3.3,3.19,0.0,1.0,2.0,0.0,0.0,19231772
1765915411807,0.0,0.0,1.0,10.0,0.0,0.0,0.0,0.0,0.0,0.0,0.0,0.0,0.0,0.0,0.0,0.0,0.0,0.0,-0.056119999999999996,-0.042212,1.01138,0.6300000000000001,-0.42000000000000004,0.14,27.62109375,3.24,3.29,3.19,3.22,3.26,3.24,3.26,3.3,3.27,3.28,3.27,3.26,3.26,3.28,3.21,3.25,3.27,3.26,3.27,3.23,3.29,3.28,3.28,3.27,3.3,3.19,0.0,1.0,2.0,0.0,0.0,19231789
1765915411857,0.0,0.0,1.0,10.0,0.0,0.0,0.0,0.0,0.0,0.0,0.0,0.0,0.0,0.0,0.0,0.0,0.0,0.0,-0.056119999999999996,-0.042212,1.01138,0.6300000000000001,-0.42000000000000004,0.14,27.66015625,3.24,3.29,3.19,3.22,3.26,3.24,3.26,3.3,3.27,3.28,3.27,3.26,3.26,3.28,3.21,3.25,3.27,3.26,3.27,3.23,3.29,3.28,3.28,3.27,3.3,3.19,0.0,1.0,2.0,0.0,0.0,19231839
1765915411940,0.0,0.0,1.0,10.0,0.0,0.0,0.0,0.0,0.0,0.0,0.0,0.0,0.0,0.0,0.0,0.0,0.0,0.0,-0.055998,-0.041968,1.01016,0.6300000000000001,-0.21000000000000002,0.14,27.66015625,3.24,3.29,3.19,3.22,3.26,3.24,3.26,3.3,3.27,3.28,3.27,3.26,3.26,3.28,3.21,3.25,3.27,3.26,3.27,3.23,3.29,3.28,3.28,3.27,3.3,3.19,0.0,1.0,2.0,0.0,0.0,19231922
1765915411974,0.0,0.0,1.0,10.0,0.0,0.0,0.0,0.0,0.0,0.0,0.0,0.0,0.0,0.0,0.0,0.0,0.0,0.0,-0.055998,-0.041968,1.01016,0.6300000000000001,-0.21000000000000002,0.14,27.609375,3.24,3.29,3.19,3.22,3.26,3.24,3.26,3.3,3.27,3.28,3.27,3.26,3.26,3.28,3.21,3.25,3.27,3.26,3.27,3.23,3.29,3.28,3.28,3.27,3.3,3.19,0.0,1.0,2.0,0.0,0.0,19231956
1765915412007,0.0,0.0,1.0,10.0,0.0,0.0,0.0,0.0,0.0,0.0,0.0,0.0,0.0,0.0,0.0,0.0,0.0,0.0,-0.055998,-0.041968,1.01016,0.6300000000000001,-0.21000000000000002,0.14,27.609375,3.24,3.29,3.19,3.22,3.26,3.24,3.26,3.3,3.27,3.28,3.27,3.26,3.26,3.28,3.21,3.25,3.27,3.26,3.27,3.23,3.29,3.28,3.28,3.27,3.3,3.19,0.0,1.0,2.0,0.0,0.0,19231989
1765915412024,0.0,0.0,1.0,10.0,0.0,0.0,0.0,0.0,0.0,0.0,0.0,0.0,0.0,0.0,0.0,0.0,0.0,0.0,-0.055998,-0.041968,1.01016,0.6300000000000001,-0.21000000000000002,0.14,27.609375,3.24,3.29,3.19,3.22,3.26,3.24,3.26,3.3,3.27,3.28,3.27,3.26,3.26,3.28,3.21,3.25,3.27,3.26,3.27,3.23,3.29,3.28,3.28,3.27,3.3,3.19,0.0,1.0,2.0,0.0,0.0,19232006
1765915412041,0.0,0.0,1.0,10.0,0.0,0.0,0.0,0.0,0.0,0.0,0.0,0.0,0.0,0.0,0.0,0.0,0.0,0.0,-0.055998,-0.041968,1.01016,0.6300000000000001,-0.21000000000000002,0.14,27.609375,3.24,3.29,3.19,3.22,3.26,3.24,3.26,3.3,3.27,3.28,3.27,3.26,3.26,3.28,3.21,3.25,3.27,3.26,3.27,3.23,3.29,3.28,3.28,3.27,3.3,3.19,0.0,1.0,2.0,0.0,0.0,19232023
1765915412057,0.0,0.0,1.0,10.0,0.0,0.0,0.0,0.0,0.0,0.0,0.0,0.0,0.0,0.0,0.0,0.0,0.0,0.0,-0.055265999999999996,-0.040504,1.014064,0.6300000000000001,-0.21000000000000002,0.14,27.609375,3.24,3.29,3.19,3.22,3.26,3.24,3.26,3.3,3.27,3.28,3.27,3.26,3.26,3.28,3.21,3.25,3.27,3.26,3.27,3.23,3.29,3.28,3.28,3.27,3.3,3.19,0.0,1.0,2.0,0.0,0.0,19232039
1765915412073,0.0,0.0,1.0,10.0,0.0,0.0,0.0,0.0,0.0,0.0,0.0,0.0,0.0,0.0,0.0,0.0,0.0,0.0,-0.055265999999999996,-0.040504,1.014064,0.6300000000000001,-0.21000000000000002,0.14,27.609375,3.24,3.29,3.19,3.22,3.26,3.24,3.26,3.3,3.27,3.28,3.27,3.26,3.26,3.28,3.21,3.25,3.27,3.26,3.27,3.23,3.29,3.28,3.28,3.27,3.3,3.19,0.0,1.0,2.0,0.0,0.0,19232055
1765915412107,0.0,0.0,1.0,10.0,0.0,0.0,0.0,0.0,0.0,0.0,0.0,0.0,0.0,0.0,0.0,0.0,0.0,0.0,-0.055265999999999996,-0.040504,1.014064,0.6300000000000001,-0.35000000000000003,0.0,27.609375,3.24,3.29,3.19,3.22,3.26,3.24,3.26,3.3,3.27,3.28,3.27,3.26,3.26,3.28,3.21,3.25,3.27,3.26,3.27,3.23,3.29,3.28,3.28,3.27,3.3,3.19,0.0,1.0,2.0,0.0,0.0,19232089
1765915412140,0.0,0.0,1.0,10.0,0.0,0.0,0.0,0.0,0.0,0.0,0.0,0.0,0.0,0.0,0.0,0.0,0.0,0.0,-0.055265999999999996,-0.040504,1.014064,0.6300000000000001,-0.35000000000000003,0.0,27.6171875,3.24,3.29,3.19,3.22,3.26,3.24,3.26,3.3,3.27,3.28,3.27,3.26,3.26,3.28,3.21,3.25,3.27,3.26,3.27,3.23,3.29,3.28,3.28,3.27,3.3,3.19,0.0,1.0,2.0,0.0,0.0,19232122
1765915412223,0.0,0.0,1.0,10.0,0.0,0.0,0.0,0.0,0.0,0.0,0.0,0.0,0.0,0.0,0.0,0.0,0.0,0.0,-0.049409999999999996,-0.043798,1.012112,0.6300000000000001,-0.35000000000000003,0.0,27.6171875,3.24,3.29,3.19,3.22,3.26,3.24,3.26,3.3,3.27,3.28,3.27,3.26,3.26,3.28,3.21,3.25,3.27,3.26,3.27,3.23,3.29,3.28,3.28,3.27,3.3,3.19,0.0,1.0,2.0,0.0,0.0,19232205
1765915412238,0.0,0.0,1.0,10.0,0.0,0.0,0.0,0.0,0.0,0.0,0.0,0.0,0.0,0.0,0.0,0.0,0.0,0.0,-0.049409999999999996,-0.043798,1.012112,0.6300000000000001,-0.35000000000000003,0.0,27.6171875,3.24,3.29,3.19,3.22,3.26,3.24,3.26,3.3,3.27,3.28,3.27,3.26,3.26,3.28,3.21,3.25,3.27,3.26,3.27,3.23,3.29,3.28,3.28,3.27,3.3,3.19,0.0,1.0,2.0,0.0,0.0,19232220
1765915412255,0.0,0.0,1.0,10.0,0.0,0.0,0.0,0.0,0.0,0.0,0.0,0.0,0.0,0.0,0.0,0.0,0.0,0.0,-0.049409999999999996,-0.043798,1.012112,0.6300000000000001,-0.35000000000000003,0.0,-100.3984375,3.24,3.29,3.19,3.22,3.26,3.24,3.26,3.3,3.27,3.28,3.27,3.26,3.26,3.28,3.21,3.25,3.27,3.26,3.27,3.23,3.29,3.28,3.28,3.27,3.3,3.19,0.0,1.0,2.0,0.0,0.0,19232237
1765915412289,0.0,0.0,1.0,10.0,0.0,0.0,0.0,0.0,0.0,0.0,0.0,0.0,0.0,0.0,0.0,0.0,0.0,0.0,-0.049409999999999996,-0.043798,1.012112,0.6300000000000001,-0.35000000000000003,0.0,27.609375,3.24,3.29,3.19,3.22,3.26,3.24,3.26,3.3,3.27,3.28,3.27,3.26,3.26,3.28,3.21,3.25,3.27,3.26,3.27,3.23,3.29,3.28,3.28,3.27,3.3,3.19,0.0,1.0,2.0,0.0,0.0,19232271
1765915412339,0.0,0.0,1.0,10.0,0.0,0.0,0.0,0.0,0.0,0.0,0.0,0.0,0.0,0.0,0.0,0.0,0.0,0.0,-0.049409999999999996,-0.043798,1.012112,0.6300000000000001,-0.35000000000000003,0.0,27.609375,3.24,3.29,3.19,3.22,3.26,3.24,3.26,3.3,3.27,3.28,3.27,3.26,3.26,3.28,3.21,3.25,3.27,3.26,3.27,3.23,3.29,3.28,3.28,3.27,3.3,3.19,0.0,1.0,2.0,0.0,0.0,19232321
1765915412357,0.0,0.0,1.0,10.0,0.0,0.0,0.0,0.0,0.0,0.0,0.0,0.0,0.0,0.0,0.0,0.0,0.0,0.0,-0.049409999999999996,-0.043798,1.012112,0.6300000000000001,-0.35000000000000003,0.0,27.609375,3.24,3.29,3.19,3.22,3.26,3.24,3.26,3.3,3.27,3.28,3.27,3.26,3.26,3.28,3.21,3.25,3.27,3.26,3.27,3.23,3.29,3.28,3.28,3.27,3.3,3.19,0.0,1.0,2.0,0.0,0.0,19232339
1765915412374,0.0,0.0,1.0,10.0,0.0,0.0,0.0,0.0,0.0,0.0,0.0,0.0,0.0,0.0,0.0,0.0,0.0,0.0,-0.054778,-0.042212,1.01138,0.6300000000000001,-0.35000000000000003,0.0,27.609375,3.24,3.29,3.19,3.22,3.26,3.24,3.26,3.3,3.27,3.28,3.27,3.26,3.26,3.28,3.21,3.25,3.27,3.26,3.27,3.23,3.29,3.28,3.28,3.27,3.3,3.19,0.0,1.0,2.0,0.0,0.0,19232356
1765915412407,0.0,0.0,1.0,10.0,0.0,0.0,0.0,0.0,0.0,0.0,0.0,0.0,0.0,0.0,0.0,0.0,0.0,0.0,-0.054778,-0.042212,1.01138,0.6300000000000001,-0.35000000000000003,0.0,27.609375,3.24,3.29,3.19,3.22,3.26,3.24,3.26,3.3,3.27,3.28,3.27,3.26,3.26,3.28,3.21,3.25,3.27,3.26,3.27,3.23,3.29,3.28,3.28,3.27,3.3,3.19,0.0,1.0,2.0,0.0,0.0,19232389
1765915412424,0.0,0.0,1.0,10.0,0.0,0.0,0.0,0.0,0.0,0.0,0.0,0.0,0.0,0.0,0.0,0.0,0.0,0.0,-0.054778,-0.042212,1.01138,0.6300000000000001,-0.35000000000000003,0.14,27.609375,3.24,3.29,3.19,3.22,3.26,3.24,3.26,3.3,3.27,3.28,3.27,3.26,3.26,3.28,3.21,3.25,3.27,3.26,3.27,3.23,3.29,3.28,3.28,3.27,3.3,3.19,0.0,1.0,2.0,0.0,0.0,19232406
1765915412457,0.0,0.0,1.0,10.0,0.0,0.0,0.0,0.0,0.0,0.0,0.0,0.0,0.0,0.0,0.0,0.0,0.0,0.0,-0.054778,-0.042212,1.01138,0.6300000000000001,-0.35000000000000003,0.14,27.59375,3.24,3.29,3.19,3.22,3.26,3.24,3.26,3.3,3.27,3.28,3.27,3.26,3.26,3.28,3.21,3.25,3.27,3.26,3.27,3.23,3.29,3.28,3.28,3.27,3.3,3.19,0.0,1.0,2.0,0.0,0.0,19232439
1765915412491,0.0,0.0,1.0,10.0,0.0,0.0,0.0,0.0,0.0,0.0,0.0,0.0,0.0,0.0,0.0,0.0,0.0,0.0,-0.054778,-0.042212,1.01138,0.6300000000000001,-0.35000000000000003,0.14,27.59375,3.24,3.29,3.19,3.22,3.26,3.24,3.26,3.3,3.27,3.28,3.27,3.26,3.26,3.28,3.21,3.25,3.27,3.26,3.27,3.23,3.29,3.28,3.28,3.27,3.3,3.19,0.0,1.0,2.0,0.0,0.0,19232473
1765915412557,0.0,0.0,1.0,10.0,0.0,0.0,0.0,0.0,0.0,0.0,0.0,0.0,0.0,0.0,0.0,0.0,0.0,0.0,-0.05734,-0.043066,1.01138,0.6300000000000001,-0.35000000000000003,0.14,27.59375,3.24,3.29,3.19,3.22,3.26,3.24,3.26,3.3,3.27,3.28,3.27,3.26,3.26,3.28,3.21,3.25,3.27,3.26,3.27,3.23,3.29,3.28,3.28,3.27,3.3,3.19,0.0,1.0,2.0,0.0,0.0,19232539
1765915412574,0.0,0.0,1.0,10.0,0.0,0.0,0.0,0.0,0.0,0.0,0.0,0.0,0.0,0.0,0.0,0.0,0.0,0.0,-0.05734,-0.043066,1.01138,0.7000000000000001,-0.42000000000000004,0.07,27.625,3.24,3.29,3.19,3.22,3.26,3.24,3.26,3.3,3.27,3.28,3.27,3.26,3.26,3.28,3.21,3.25,3.27,3.26,3.27,3.23,3.29,3.28,3.28,3.27,3.3,3.19,0.0,1.0,2.0,0.0,0.0,19232556
1765915412622,0.0,0.0,1.0,10.0,0.0,0.0,0.0,0.0,0.0,0.0,0.0,0.0,0.0,0.0,0.0,0.0,0.0,0.0,-0.05734,-0.043066,1.01138,0.7000000000000001,-0.42000000000000004,0.07,27.625,3.24,3.29,3.19,3.22,3.26,3.24,3.26,3.3,3.27,3.28,3.27,3.26,3.26,3.28,3.21,3.25,3.27,3.26,3.27,3.23,3.29,3.28,3.28,3.27,3.3,3.19,0.0,1.0,2.0,0.0,0.0,19232604
1765915412640,0.0,0.0,1.0,10.0,0.0,0.0,0.0,0.0,0.0,0.0,0.0,0.0,0.0,0.0,0.0,0.0,0.0,0.0,-0.05734,-0.043066,1.01138,0.7000000000000001,-0.42000000000000004,0.07,27.625,3.24,3.29,3.19,3.22,3.26,3.24,3.26,3.3,3.27,3.28,3.27,3.26,3.26,3.28,3.21,3.25,3.27,3.26,3.27,3.23,3.29,3.28,3.28,3.27,3.3,3.19,0.0,1.0,2.0,0.0,0.0,19232622
1765915412657,0.0,0.0,1.0,10.0,0.0,0.0,0.0,0.0,0.0,0.0,0.0,0.0,0.0,0.0,0.0,0.0,0.0,0.0,-0.057828,-0.041968,1.011014,0.7000000000000001,-0.42000000000000004,0.07,27.625,3.24,3.29,3.19,3.22,3.26,3.24,3.26,3.3,3.27,3.28,3.27,3.26,3.26,3.28,3.21,3.25,3.27,3.26,3.27,3.23,3.29,3.28,3.28,3.27,3.3,3.19,0.0,1.0,2.0,0.0,0.0,19232639
1765915412690,0.0,0.0,1.0,10.0,0.0,0.0,0.0,0.0,0.0,0.0,0.0,0.0,0.0,0.0,0.0,0.0,0.0,0.0,-0.057828,-0.041968,1.011014,0.7000000000000001,-0.42000000000000004,0.07,27.625,3.24,3.29,3.19,3.22,3.26,3.24,3.26,3.3,3.27,3.28,3.27,3.26,3.26,3.28,3.21,3.25,3.27,3.26,3.27,3.23,3.29,3.28,3.28,3.27,3.3,3.19,0.0,1.0,2.0,0.0,0.0,19232672
1765915412707,0.0,0.0,1.0,10.0,0.0,0.0,0.0,0.0,0.0,0.0,0.0,0.0,0.0,0.0,0.0,0.0,0.0,0.0,-0.057828,-0.041968,1.011014,0.6300000000000001,-0.35000000000000003,0.14,27.625,3.24,3.29,3.19,3.22,3.26,3.24,3.26,3.3,3.27,3.28,3.27,3.26,3.26,3.28,3.21,3.25,3.27,3.26,3.27,3.23,3.29,3.28,3.28,3.27,3.3,3.19,0.0,1.0,2.0,0.0,0.0,19232689
1765915412756,0.0,0.0,1.0,10.0,0.0,0.0,0.0,0.0,0.0,0.0,0.0,0.0,0.0,0.0,0.0,0.0,0.0,0.0,-0.057828,-0.041968,1.011014,0.6300000000000001,-0.35000000000000003,0.14,27.59375,3.24,3.29,3.19,3.22,3.26,3.24,3.26,3.3,3.27,3.28,3.27,3.26,3.26,3.28,3.21,3.25,3.27,3.26,3.27,3.23,3.29,3.28,3.28,3.27,3.3,3.19,0.0,1.0,2.0,0.0,0.0,19232738
1765915412774,0.0,0.0,1.0,10.0,0.0,0.0,0.0,0.0,0.0,0.0,0.0,0.0,0.0,0.0,0.0,0.0,0.0,0.0,-0.057828,-0.041968,1.011014,0.6300000000000001,-0.35000000000000003,0.14,27.59375,3.24,3.29,3.19,3.22,3.26,3.24,3.26,3.3,3.27,3.28,3.27,3.26,3.26,3.28,3.21,3.25,3.27,3.26,3.27,3.23,3.29,3.28,3.28,3.27,3.3,3.19,0.0,1.0,2.0,0.0,0.0,19232756
1765915412842,0.0,0.0,1.0,10.0,0.0,0.0,0.0,0.0,0.0,0.0,0.0,0.0,0.0,0.0,0.0,0.0,0.0,0.0,-0.051484,-0.042578,1.0126,0.6300000000000001,-0.35000000000000003,0.14,27.59375,3.24,3.29,3.19,3.22,3.26,3.24,3.26,3.3,3.27,3.28,3.27,3.26,3.26,3.28,3.21,3.25,3.27,3.26,3.27,3.23,3.29,3.28,3.28,3.27,3.3,3.19,0.0,1.0,2.0,0.0,0.0,19232824
1765915412857,0.0,0.0,1.0,10.0,0.0,0.0,0.0,0.0,0.0,0.0,0.0,0.0,0.0,0.0,0.0,0.0,0.0,0.0,-0.051484,-0.042578,1.0126,0.7000000000000001,-0.49000000000000005,0.07,27.59375,3.24,3.29,3.19,3.22,3.26,3.24,3.26,3.3,3.27,3.28,3.27,3.26,3.26,3.28,3.21,3.25,3.27,3.26,3.27,3.23,3.29,3.28,3.28,3.27,3.3,3.19,0.0,1.0,2.0,0.0,0.0,19232839
1765915412874,0.0,0.0,1.0,10.0,0.0,0.0,0.0,0.0,0.0,0.0,0.0,0.0,0.0,0.0,0.0,0.0,0.0,0.0,-0.051484,-0.042578,1.0126,0.7000000000000001,-0.49000000000000005,0.07,27.6328125,3.24,3.29,3.19,3.22,3.26,3.24,3.26,3.3,3.27,3.28,3.27,3.26,3.26,3.28,3.21,3.25,3.27,3.26,3.27,3.23,3.29,3.28,3.28,3.27,3.3,3.19,0.0,1.0,2.0,0.0,0.0,19232856
1765915412908,0.0,0.0,1.0,10.0,0.0,0.0,0.0,0.0,0.0,0.0,0.0,0.0,0.0,0.0,0.0,0.0,0.0,0.0,-0.051484,-0.042578,1.0126,0.7000000000000001,-0.49000000000000005,0.07,27.6328125,3.24,3.29,3.19,3.22,3.26,3.24,3.26,3.3,3.27,3.28,3.27,3.26,3.26,3.28,3.21,3.25,3.27,3.26,3.27,3.23,3.29,3.28,3.28,3.27,3.3,3.19,0.0,1.0,2.0,0.0,0.0,19232890
1765915412922,0.0,0.0,1.0,10.0,0.0,0.0,0.0,0.0,0.0,0.0,0.0,0.0,0.0,0.0,0.0,0.0,0.0,0.0,-0.051484,-0.042578,1.0126,0.7000000000000001,-0.49000000000000005,0.07,27.6328125,3.24,3.29,3.19,3.22,3.26,3.24,3.26,3.3,3.27,3.28,3.27,3.26,3.26,3.28,3.21,3.25,3.27,3.26,3.27,3.23,3.29,3.28,3.28,3.27,3.3,3.19,0.0,1.0,2.0,0.0,0.0,19232904
1765915412940,0.0,0.0,1.0,10.0,0.0,0.0,0.0,0.0,0.0,0.0,0.0,0.0,0.0,0.0,0.0,0.0,0.0,0.0,-0.050508,-0.042943999999999996,1.012844,0.7000000000000001,-0.49000000000000005,0.07,27.6328125,3.24,3.29,3.19,3.22,3.26,3.24,3.26,3.3,3.27,3.28,3.27,3.26,3.26,3.28,3.21,3.25,3.27,3.26,3.27,3.23,3.29,3.28,3.28,3.27,3.3,3.19,0.0,1.0,2.0,0.0,0.0,19232922
1765915412956,0.0,0.0,1.0,10.0,0.0,0.0,0.0,0.0,0.0,0.0,0.0,0.0,0.0,0.0,0.0,0.0,0.0,0.0,-0.050508,-0.042943999999999996,1.012844,0.7000000000000001,-0.49000000000000005,0.07,27.6328125,3.24,3.29,3.19,3.22,3.26,3.24,3.26,3.3,3.27,3.28,3.27,3.26,3.26,3.28,3.21,3.25,3.27,3.26,3.27,3.23,3.29,3.28,3.28,3.27,3.3,3.19,0.0,1.0,2.0,0.0,0.0,19232938
1765915413007,0.0,0.0,1.0,10.0,0.0,0.0,0.0,0.0,0.0,0.0,0.0,0.0,0.0,0.0,0.0,0.0,0.0,0.0,-0.050508,-0.042943999999999996,1.012844,0.7000000000000001,-0.49000000000000005,0.07,27.6328125,3.24,3.29,3.19,3.22,3.26,3.24,3.26,3.3,3.27,3.28,3.27,3.26,3.26,3.28,3.21,3.25,3.27,3.26,3.27,3.23,3.29,3.28,3.28,3.27,3.3,3.19,0.0,1.0,2.0,0.0,0.0,19232989
1765915413023,0.0,0.0,1.0,10.0,0.0,0.0,0.0,0.0,0.0,0.0,0.0,0.0,0.0,0.0,0.0,0.0,0.0,0.0,-0.050508,-0.042943999999999996,1.012844,0.7000000000000001,-0.49000000000000005,0.07,27.6328125,3.24,3.29,3.19,3.22,3.26,3.24,3.26,3.3,3.27,3.28,3.27,3.26,3.26,3.28,3.21,3.25,3.27,3.26,3.27,3.23,3.29,3.28,3.28,3.27,3.3,3.19,0.0,1.0,2.0,0.0,0.0,19233005
1765915413024,0.0,0.0,1.0,10.0,0.0,0.0,0.0,0.0,0.0,0.0,0.0,0.0,0.0,0.0,0.0,0.0,0.0,0.0,-0.050508,-0.042943999999999996,1.012844,0.6300000000000001,-0.42000000000000004,0.14,27.6328125,3.24,3.29,3.19,3.22,3.26,3.24,3.26,3.3,3.27,3.28,3.27,3.26,3.26,3.28,3.21,3.25,3.27,3.26,3.27,3.23,3.29,3.28,3.28,3.27,3.3,3.19,0.0,1.0,2.0,0.0,0.0,19233006
1765915413057,0.0,0.0,1.0,10.0,0.0,0.0,0.0,0.0,0.0,0.0,0.0,0.0,0.0,0.0,0.0,0.0,0.0,0.0,-0.050508,-0.042943999999999996,1.012844,0.6300000000000001,-0.42000000000000004,0.14,27.6328125,3.24,3.29,3.19,3.22,3.26,3.24,3.26,3.3,3.27,3.28,3.27,3.26,3.26,3.28,3.21,3.25,3.27,3.26,3.27,3.23,3.29,3.28,3.28,3.27,3.3,3.19,0.0,1.0,2.0,0.0,0.0,19233039
1765915413090,0.0,0.0,1.0,10.0,0.0,0.0,0.0,0.0,0.0,0.0,0.0,0.0,0.0,0.0,0.0,0.0,0.0,0.0,-0.050508,-0.042943999999999996,1.012844,0.6300000000000001,-0.42000000000000004,0.14,27.58984375,3.24,3.29,3.19,3.22,3.26,3.24,3.26,3.3,3.27,3.28,3.27,3.26,3.26,3.28,3.21,3.25,3.27,3.26,3.27,3.23,3.29,3.28,3.28,3.27,3.3,3.19,0.0,1.0,2.0,0.0,0.0,19233072
1765915413124,0.0,0.0,1.0,10.0,0.0,0.0,0.0,0.0,0.0,0.0,0.0,0.0,0.0,0.0,0.0,0.0,0.0,0.0,-0.050508,-0.042943999999999996,1.012844,0.6300000000000001,-0.42000000000000004,0.14,27.58984375,3.24,3.29,3.19,3.22,3.26,3.24,3.26,3.3,3.27,3.28,3.27,3.26,3.26,3.28,3.21,3.25,3.27,3.26,3.27,3.23,3.29,3.28,3.28,3.27,3.3,3.19,0.0,1.0,2.0,0.0,0.0,19233106
1765915413191,0.0,0.0,1.0,10.0,0.0,0.0,0.0,0.0,0.0,0.0,0.0,0.0,0.0,0.0,0.0,0.0,0.0,0.0,-0.053801999999999996,-0.044652,1.013332,0.6300000000000001,-0.42000000000000004,0.14,27.58984375,3.24,3.29,3.19,3.22,3.26,3.24,3.26,3.3,3.27,3.28,3.27,3.26,3.26,3.28,3.21,3.25,3.27,3.26,3.27,3.23,3.29,3.28,3.28,3.27,3.3,3.19,0.0,1.0,2.0,0.0,0.0,19233173
1765915413207,0.0,0.0,1.0,10.0,0.0,0.0,0.0,0.0,0.0,0.0,0.0,0.0,0.0,0.0,0.0,0.0,0.0,0.0,-0.053801999999999996,-0.044652,1.013332,0.6300000000000001,-0.35000000000000003,0.07,27.58984375,3.24,3.29,3.19,3.22,3.26,3.24,3.26,3.3,3.27,3.28,3.27,3.26,3.26,3.28,3.21,3.25,3.27,3.26,3.27,3.23,3.29,3.28,3.28,3.27,3.3,3.19,0.0,1.0,2.0,0.0,0.0,19233189
1765915413224,0.0,0.0,1.0,10.0,0.0,0.0,0.0,0.0,0.0,0.0,0.0,0.0,0.0,0.0,0.0,0.0,0.0,0.0,-0.053801999999999996,-0.044652,1.013332,0.6300000000000001,-0.35000000000000003,0.07,27.6015625,3.24,3.29,3.19,3.22,3.26,3.24,3.26,3.3,3.27,3.28,3.27,3.26,3.26,3.28,3.21,3.25,3.27,3.26,3.27,3.23,3.29,3.28,3.28,3.27,3.3,3.19,0.0,1.0,2.0,0.0,0.0,19233206
1765915413257,0.0,0.0,1.0,10.0,0.0,0.0,0.0,0.0,0.0,0.0,0.0,0.0,0.0,0.0,0.0,0.0,0.0,0.0,-0.053801999999999996,-0.044652,1.013332,0.6300000000000001,-0.35000000000000003,0.07,27.6015625,3.24,3.29,3.19,3.22,3.26,3.24,3.26,3.3,3.27,3.28,3.27,3.26,3.26,3.28,3.21,3.25,3.27,3.26,3.27,3.23,3.29,3.28,3.28,3.27,3.3,3.19,0.0,1.0,2.0,0.0,0.0,19233239
1765915413274,0.0,0.0,1.0,10.0,0.0,0.0,0.0,0.0,0.0,0.0,0.0,0.0,0.0,0.0,0.0,0.0,0.0,0.0,-0.053801999999999996,-0.044652,1.013332,0.6300000000000001,-0.35000000000000003,0.07,27.6015625,3.24,3.29,3.19,3.22,3.26,3.24,3.26,3.3,3.27,3.28,3.27,3.26,3.26,3.28,3.21,3.25,3.27,3.26,3.27,3.23,3.29,3.28,3.28,3.27,3.3,3.19,0.0,1.0,2.0,0.0,0.0,19233256
1765915413290,0.0,0.0,1.0,10.0,0.0,0.0,0.0,0.0,0.0,0.0,0.0,0.0,0.0,0.0,0.0,0.0,0.0,0.0,-0.05307,-0.040626,1.012112,0.6300000000000001,-0.35000000000000003,0.07,27.6015625,3.24,3.29,3.19,3.22,3.26,3.24,3.26,3.3,3.27,3.28,3.27,3.26,3.26,3.28,3.21,3.25,3.27,3.26,3.27,3.23,3.29,3.28,3.28,3.27,3.3,3.19,0.0,1.0,2.0,0.0,0.0,19233272
1765915413307,0.0,0.0,1.0,10.0,0.0,0.0,0.0,0.0,0.0,0.0,0.0,0.0,0.0,0.0,0.0,0.0,0.0,0.0,-0.05307,-0.040626,1.012112,0.6300000000000001,-0.35000000000000003,0.07,27.6015625,3.24,3.29,3.19,3.22,3.26,3.24,3.26,3.3,3.27,3.28,3.27,3.26,3.26,3.28,3.21,3.25,3.27,3.26,3.27,3.23,3.29,3.28,3.28,3.27,3.3,3.19,0.0,1.0,2.0,0.0,0.0,19233289
1765915413341,0.0,0.0,1.0,10.0,0.0,0.0,0.0,0.0,0.0,0.0,0.0,0.0,0.0,0.0,0.0,0.0,0.0,0.0,-0.05307,-0.040626,1.012112,0.7000000000000001,-0.49000000000000005,0.07,27.6015625,3.24,3.29,3.19,3.22,3.26,3.24,3.26,3.3,3.27,3.28,3.27,3.26,3.26,3.28,3.21,3.25,3.27,3.26,3.27,3.23,3.29,3.28,3.28,3.27,3.3,3.19,0.0,1.0,2.0,0.0,0.0,19233323
1765915413374,0.0,0.0,1.0,10.0,0.0,0.0,0.0,0.0,0.0,0.0,0.0,0.0,0.0,0.0,0.0,0.0,0.0,0.0,-0.05307,-0.040626,1.012112,0.7000000000000001,-0.49000000000000005,0.07,27.609375,3.24,3.29,3.19,3.22,3.26,3.24,3.26,3.3,3.27,3.28,3.27,3.26,3.26,3.28,3.21,3.25,3.27,3.26,3.27,3.23,3.29,3.28,3.28,3.27,3.3,3.19,0.0,1.0,2.0,0.0,0.0,19233356
1765915413407,0.0,0.0,1.0,10.0,0.0,0.0,0.0,0.0,0.0,0.0,0.0,0.0,0.0,0.0,0.0,0.0,0.0,0.0,-0.05307,-0.040626,1.012112,0.7000000000000001,-0.49000000000000005,0.07,27.609375,3.24,3.29,3.19,3.22,3.26,3.24,3.26,3.3,3.27,3.28,3.27,3.26,3.26,3.28,3.21,3.25,3.27,3.26,3.27,3.23,3.29,3.28,3.28,3.27,3.3,3.19,0.0,1.0,2.0,0.0,0.0,19233389
1765915413474,0.0,0.0,1.0,10.0,0.0,0.0,0.0,0.0,0.0,0.0,0.0,0.0,0.0,0.0,0.0,0.0,0.0,0.0,-0.054412,-0.041358,1.011502,0.7000000000000001,-0.49000000000000005,0.07,27.609375,3.24,3.29,3.19,3.22,3.26,3.24,3.26,3.3,3.27,3.28,3.27,3.26,3.26,3.28,3.21,3.25,3.27,3.26,3.27,3.23,3.29,3.28,3.28,3.27,3.3,3.19,0.0,1.0,2.0,0.0,0.0,19233456
1765915413507,0.0,0.0,1.0,10.0,0.0,0.0,0.0,0.0,0.0,0.0,0.0,0.0,0.0,0.0,0.0,0.0,0.0,0.0,-0.054412,-0.041358,1.011502,0.6300000000000001,-0.35000000000000003,0.07,27.64453125,3.24,3.29,3.19,3.22,3.26,3.24,3.26,3.3,3.27,3.28,3.27,3.26,3.26,3.28,3.21,3.25,3.27,3.26,3.27,3.23,3.29,3.28,3.28,3.27,3.3,3.19,0.0,1.0,2.0,0.0,0.0,19233489
1765915413540,0.0,0.0,1.0,10.0,0.0,0.0,0.0,0.0,0.0,0.0,0.0,0.0,0.0,0.0,0.0,0.0,0.0,0.0,-0.054412,-0.041358,1.011502,0.6300000000000001,-0.35000000000000003,0.07,27.64453125,3.24,3.29,3.19,3.22,3.26,3.24,3.26,3.3,3.27,3.28,3.27,3.26,3.26,3.28,3.21,3.25,3.27,3.26,3.27,3.23,3.29,3.28,3.28,3.27,3.3,3.19,0.0,1.0,2.0,0.0,0.0,19233522
1765915413557,0.0,0.0,1.0,10.0,0.0,0.0,0.0,0.0,0.0,0.0,0.0,0.0,0.0,0.0,0.0,0.0,0.0,0.0,-0.054412,-0.041358,1.011502,0.6300000000000001,-0.35000000000000003,0.07,27.64453125,3.24,3.29,3.19,3.22,3.26,3.24,3.26,3.3,3.27,3.28,3.27,3.26,3.26,3.28,3.21,3.25,3.27,3.26,3.27,3.23,3.29,3.28,3.28,3.27,3.3,3.19,0.0,1.0,2.0,0.0,0.0,19233539
1765915413574,0.0,0.0,1.0,10.0,0.0,0.0,0.0,0.0,0.0,0.0,0.0,0.0,0.0,0.0,0.0,0.0,0.0,0.0,-0.052948,-0.042456,1.012112,0.6300000000000001,-0.35000000000000003,0.07,27.64453125,3.24,3.29,3.19,3.22,3.26,3.24,3.26,3.3,3.27,3.28,3.27,3.26,3.26,3.28,3.21,3.25,3.27,3.26,3.27,3.23,3.29,3.28,3.28,3.27,3.3,3.19,0.0,1.0,2.0,0.0,0.0,19233556
1765915413590,0.0,0.0,1.0,10.0,0.0,0.0,0.0,0.0,0.0,0.0,0.0,0.0,0.0,0.0,0.0,0.0,0.0,0.0,-0.052948,-0.042456,1.012112,0.6300000000000001,-0.35000000000000003,0.07,27.64453125,3.24,3.29,3.19,3.22,3.26,3.24,3.26,3.3,3.27,3.28,3.27,3.26,3.26,3.28,3.21,3.25,3.27,3.26,3.27,3.23,3.29,3.28,3.28,3.27,3.3,3.19,0.0,1.0,2.0,0.0,0.0,19233572
1765915413624,0.0,0.0,1.0,10.0,0.0,0.0,0.0,0.0,0.0,0.0,0.0,0.0,0.0,0.0,0.0,0.0,0.0,0.0,-0.052948,-0.042456,1.012112,0.6300000000000001,-0.28,0.07,27.64453125,3.24,3.29,3.19,3.22,3.26,3.24,3.26,3.3,3.27,3.28,3.27,3.26,3.26,3.28,3.21,3.25,3.27,3.26,3.27,3.23,3.29,3.28,3.28,3.27,3.3,3.19,0.0,1.0,2.0,0.0,0.0,19233606
1765915413640,0.0,0.0,1.0,10.0,0.0,0.0,0.0,0.0,0.0,0.0,0.0,0.0,0.0,0.0,0.0,0.0,0.0,0.0,-0.052948,-0.042456,1.012112,0.6300000000000001,-0.28,0.07,27.64453125,3.24,3.29,3.19,3.22,3.26,3.24,3.26,3.3,3.27,3.28,3.27,3.26,3.26,3.28,3.21,3.25,3.27,3.26,3.27,3.23,3.29,3.28,3.28,3.27,3.3,3.19,0.0,1.0,2.0,0.0,0.0,19233622
1765915413657,0.0,0.0,1.0,10.0,0.0,0.0,0.0,0.0,0.0,0.0,0.0,0.0,0.0,0.0,0.0,0.0,0.0,0.0,-0.052948,-0.042456,1.012112,0.6300000000000001,-0.49000000000000005,0.07,27.64453125,3.24,3.29,3.19,3.22,3.26,3.24,3.26,3.3,3.27,3.28,3.27,3.26,3.26,3.28,3.21,3.25,3.27,3.26,3.27,3.23,3.29,3.28,3.28,3.27,3.3,3.19,0.0,1.0,2.0,0.0,0.0,19233639
1765915413674,0.0,0.0,1.0,10.0,0.0,0.0,0.0,0.0,0.0,0.0,0.0,0.0,0.0,0.0,0.0,0.0,0.0,0.0,-0.052948,-0.042456,1.012112,0.6300000000000001,-0.49000000000000005,0.07,27.64453125,3.24,3.29,3.19,3.22,3.26,3.24,3.26,3.3,3.27,3.28,3.27,3.26,3.26,3.28,3.21,3.25,3.27,3.26,3.27,3.23,3.29,3.28,3.28,3.27,3.3,3.19,0.0,1.0,2.0,0.0,0.0,19233656
1765915413757,0.0,0.0,1.0,10.0,0.0,0.0,0.0,0.0,0.0,0.0,0.0,0.0,0.0,0.0,0.0,0.0,0.0,0.0,-0.052948,-0.042456,1.012112,0.6300000000000001,-0.49000000000000005,0.07,27.64453125,3.24,3.29,3.19,3.22,3.26,3.24,3.26,3.3,3.27,3.28,3.27,3.26,3.26,3.28,3.21,3.25,3.27,3.26,3.27,3.23,3.29,3.28,3.28,3.27,3.3,3.19,0.0,1.0,2.0,0.0,0.0,19233739
1765915413823,0.0,0.0,1.0,10.0,0.0,0.0,0.0,0.0,0.0,0.0,0.0,0.0,0.0,0.0,0.0,0.0,0.0,0.0,-0.05368,-0.041479999999999996,1.011136,0.6300000000000001,-0.49000000000000005,0.07,27.64453125,3.24,3.29,3.19,3.22,3.26,3.24,3.26,3.3,3.27,3.28,3.27,3.26,3.26,3.28,3.21,3.25,3.27,3.26,3.27,3.23,3.29,3.28,3.28,3.27,3.3,3.19,0.0,1.0,2.0,0.0,0.0,19233805
1765915413857,0.0,0.0,1.0,10.0,0.0,0.0,0.0,0.0,0.0,0.0,0.0,0.0,0.0,0.0,0.0,0.0,0.0,0.0,-0.05368,-0.041479999999999996,1.011136,0.6300000000000001,-0.35000000000000003,0.14,27.58203125,3.24,3.29,3.19,3.22,3.26,3.24,3.26,3.3,3.27,3.28,3.27,3.26,3.26,3.28,3.21,3.25,3.27,3.26,3.27,3.23,3.29,3.28,3.28,3.27,3.3,3.19,0.0,1.0,2.0,0.0,0.0,19233839
1765915413906,0.0,0.0,1.0,10.0,0.0,0.0,0.0,0.0,0.0,0.0,0.0,0.0,0.0,0.0,0.0,0.0,0.0,0.0,-0.054534,-0.042212,1.011746,0.6300000000000001,-0.35000000000000003,0.14,27.58203125,3.24,3.29,3.19,3.22,3.26,3.24,3.26,3.3,3.27,3.28,3.27,3.26,3.26,3.28,3.21,3.25,3.27,3.26,3.27,3.23,3.29,3.28,3.28,3.27,3.3,3.19,0.0,1.0,2.0,0.0,0.0,19233888
1765915413923,0.0,0.0,1.0,10.0,0.0,0.0,0.0,0.0,0.0,0.0,0.0,0.0,0.0,0.0,0.0,0.0,0.0,0.0,-0.054534,-0.042212,1.011746,0.6300000000000001,-0.35000000000000003,0.14,27.58203125,3.24,3.29,3.19,3.22,3.26,3.24,3.26,3.3,3.27,3.28,3.27,3.26,3.26,3.28,3.21,3.25,3.27,3.26,3.27,3.23,3.29,3.28,3.28,3.27,3.3,3.19,0.0,1.0,2.0,0.0,0.0,19233905
1765915413940,0.0,0.0,1.0,10.0,0.0,0.0,0.0,0.0,0.0,0.0,0.0,0.0,0.0,0.0,0.0,0.0,0.0,0.0,-0.054534,-0.042212,1.011746,0.6300000000000001,-0.28,0.14,27.58203125,3.24,3.29,3.19,3.22,3.26,3.24,3.26,3.3,3.27,3.28,3.27,3.26,3.26,3.28,3.21,3.25,3.27,3.26,3.27,3.23,3.29,3.28,3.28,3.27,3.3,3.19,0.0,1.0,2.0,0.0,0.0,19233922
1765915413957,0.0,0.0,1.0,10.0,0.0,0.0,0.0,0.0,0.0,0.0,0.0,0.0,0.0,0.0,0.0,0.0,0.0,0.0,-0.054534,-0.042212,1.011746,0.6300000000000001,-0.28,0.14,27.58203125,3.24,3.29,3.19,3.22,3.26,3.24,3.26,3.3,3.27,3.28,3.27,3.26,3.26,3.28,3.21,3.25,3.27,3.26,3.27,3.23,3.29,3.28,3.28,3.27,3.3,3.19,0.0,1.0,2.0,0.0,0.0,19233939
1765915413990,0.0,0.0,1.0,10.0,0.0,0.0,0.0,0.0,0.0,0.0,0.0,0.0,0.0,0.0,0.0,0.0,0.0,0.0,-0.054534,-0.042212,1.011746,0.6300000000000001,-0.28,0.14,27.6015625,3.24,3.29,3.19,3.22,3.26,3.24,3.26,3.3,3.27,3.28,3.27,3.26,3.26,3.28,3.21,3.25,3.27,3.26,3.27,3.23,3.29,3.28,3.28,3.27,3.3,3.19,0.0,1.0,2.0,0.0,0.0,19233972
1765915414006,0.0,0.0,1.0,10.0,0.0,0.0,0.0,0.0,0.0,0.0,0.0,0.0,0.0,0.0,0.0,0.0,0.0,0.0,-0.054534,-0.042212,1.011746,0.6300000000000001,-0.28,0.14,27.6015625,3.24,3.29,3.19,3.22,3.26,3.24,3.26,3.3,3.27,3.28,3.27,3.26,3.26,3.28,3.21,3.25,3.27,3.26,3.27,3.23,3.29,3.28,3.28,3.27,3.3,3.19,0.0,1.0,2.0,0.0,0.0,19233988
1765915414057,0.0,0.0,1.0,10.0,0.0,0.0,0.0,0.0,0.0,0.0,0.0,0.0,0.0,0.0,0.0,0.0,0.0,0.0,-0.054534,-0.042212,1.011746,0.6300000000000001,-0.28,0.14,27.6015625,3.24,3.29,3.19,3.22,3.26,3.24,3.26,3.3,3.27,3.28,3.27,3.26,3.26,3.28,3.21,3.25,3.27,3.26,3.27,3.23,3.29,3.28,3.28,3.27,3.3,3.19,0.0,1.0,2.0,0.0,0.0,19234039
1765915414107,0.0,0.0,1.0,10.0,0.0,0.0,0.0,0.0,0.0,0.0,0.0,0.0,0.0,0.0,0.0,0.0,0.0,0.0,-0.05368,-0.041358,1.01199,0.6300000000000001,-0.28,0.14,27.6015625,3.24,3.29,3.19,3.22,3.26,3.24,3.26,3.3,3.27,3.28,3.27,3.26,3.26,3.28,3.21,3.25,3.27,3.26,3.27,3.23,3.29,3.28,3.28,3.27,3.3,3.19,0.0,1.0,2.0,0.0,0.0,19234089
1765915414141,0.0,0.0,1.0,10.0,0.0,0.0,0.0,0.0,0.0,0.0,0.0,0.0,0.0,0.0,0.0,0.0,0.0,0.0,-0.05368,-0.041358,1.01199,0.6300000000000001,-0.42000000000000004,0.0,27.58984375,3.24,3.29,3.19,3.22,3.26,3.24,3.26,3.3,3.27,3.28,3.27,3.26,3.26,3.28,3.21,3.25,3.27,3.26,3.27,3.23,3.29,3.28,3.28,3.27,3.3,3.19,0.0,1.0,2.0,0.0,0.0,19234123
1765915414174,0.0,0.0,1.0,10.0,0.0,0.0,0.0,0.0,0.0,0.0,0.0,0.0,0.0,0.0,0.0,0.0,0.0,0.0,-0.054168,-0.0427,1.011624,0.6300000000000001,-0.42000000000000004,0.0,27.58984375,3.24,3.29,3.19,3.22,3.26,3.24,3.26,3.3,3.27,3.28,3.27,3.26,3.26,3.28,3.21,3.25,3.27,3.26,3.27,3.23,3.29,3.28,3.28,3.27,3.3,3.19,0.0,1.0,2.0,0.0,0.0,19234156
1765915414207,0.0,0.0,1.0,10.0,0.0,0.0,0.0,0.0,0.0,0.0,0.0,0.0,0.0,0.0,0.0,0.0,0.0,0.0,-0.054168,-0.0427,1.011624,0.6300000000000001,-0.42000000000000004,0.0,27.58984375,3.24,3.29,3.19,3.22,3.26,3.24,3.26,3.3,3.27,3.28,3.27,3.26,3.26,3.28,3.21,3.25,3.27,3.26,3.27,3.23,3.29,3.28,3.28,3.27,3.3,3.19,0.0,1.0,2.0,0.0,0.0,19234189
1765915414223,0.0,0.0,1.0,10.0,0.0,0.0,0.0,0.0,0.0,0.0,0.0,0.0,0.0,0.0,0.0,0.0,0.0,0.0,-0.054168,-0.0427,1.011624,0.6300000000000001,-0.28,0.07,27.58984375,3.24,3.29,3.19,3.22,3.26,3.24,3.26,3.3,3.27,3.28,3.27,3.26,3.26,3.28,3.21,3.25,3.27,3.26,3.27,3.23,3.29,3.28,3.28,3.27,3.3,3.19,0.0,1.0,2.0,0.0,0.0,19234205
1765915414240,0.0,0.0,1.0,10.0,0.0,0.0,0.0,0.0,0.0,0.0,0.0,0.0,0.0,0.0,0.0,0.0,0.0,0.0,-0.054168,-0.0427,1.011624,0.6300000000000001,-0.28,0.07,27.58984375,3.24,3.29,3.19,3.22,3.26,3.24,3.26,3.3,3.27,3.28,3.27,3.26,3.26,3.28,3.21,3.25,3.27,3.26,3.27,3.23,3.29,3.28,3.28,3.27,3.3,3.19,0.0,1.0,2.0,0.0,0.0,19234222
1765915414257,0.0,0.0,1.0,10.0,0.0,0.0,0.0,0.0,0.0,0.0,0.0,0.0,0.0,0.0,0.0,0.0,0.0,0.0,-0.054168,-0.0427,1.011624,0.6300000000000001,-0.28,0.07,27.58984375,3.24,3.29,3.19,3.22,3.26,3.24,3.26,3.3,3.27,3.28,3.27,3.26,3.26,3.28,3.21,3.25,3.27,3.26,3.27,3.23,3.29,3.28,3.28,3.27,3.3,3.19,0.0,1.0,2.0,0.0,0.0,19234239
1765915414273,0.0,0.0,1.0,10.0,0.0,0.0,0.0,0.0,0.0,0.0,0.0,0.0,0.0,0.0,0.0,0.0,0.0,0.0,-0.054168,-0.0427,1.011624,0.6300000000000001,-0.28,0.07,27.59375,3.24,3.29,3.19,3.22,3.26,3.24,3.26,3.3,3.27,3.28,3.27,3.26,3.26,3.28,3.21,3.25,3.27,3.26,3.27,3.23,3.29,3.28,3.28,3.27,3.3,3.19,0.0,1.0,2.0,0.0,0.0,19234255
1765915414324,0.0,0.0,1.0,10.0,0.0,0.0,0.0,0.0,0.0,0.0,0.0,0.0,0.0,0.0,0.0,0.0,0.0,0.0,-0.054168,-0.0427,1.011624,0.6300000000000001,-0.28,0.07,27.59375,3.24,3.29,3.19,3.22,3.26,3.24,3.26,3.3,3.27,3.28,3.27,3.26,3.26,3.28,3.21,3.25,3.27,3.26,3.27,3.23,3.29,3.28,3.28,3.27,3.3,3.19,0.0,1.0,2.0,0.0,0.0,19234306
1765915414340,0.0,0.0,1.0,10.0,0.0,0.0,0.0,0.0,0.0,0.0,0.0,0.0,0.0,0.0,0.0,0.0,0.0,0.0,-0.054168,-0.0427,1.011624,0.6300000000000001,-0.28,0.07,27.6328125,3.24,3.29,3.19,3.22,3.26,3.24,3.26,3.3,3.27,3.28,3.27,3.26,3.26,3.28,3.21,3.25,3.27,3.26,3.27,3.23,3.29,3.28,3.28,3.27,3.3,3.19,0.0,1.0,2.0,0.0,0.0,19234322
1765915414356,0.0,0.0,1.0,10.0,0.0,0.0,0.0,0.0,0.0,0.0,0.0,0.0,0.0,0.0,0.0,0.0,0.0,0.0,-0.054168,-0.0427,1.011624,0.6300000000000001,-0.28,0.07,27.6328125,3.24,3.29,3.19,3.22,3.26,3.24,3.26,3.3,3.27,3.28,3.27,3.26,3.26,3.28,3.21,3.25,3.27,3.26,3.27,3.23,3.29,3.28,3.28,3.27,3.3,3.19,0.0,1.0,2.0,0.0,0.0,19234338
1765915414407,0.0,0.0,1.0,10.0,0.0,0.0,0.0,0.0,0.0,0.0,0.0,0.0,0.0,0.0,0.0,0.0,0.0,0.0,-0.054168,-0.0427,1.011624,0.6300000000000001,-0.28,0.07,27.6328125,3.24,3.29,3.19,3.22,3.26,3.24,3.26,3.3,3.27,3.28,3.27,3.26,3.26,3.28,3.21,3.25,3.27,3.26,3.27,3.23,3.29,3.28,3.28,3.27,3.3,3.19,0.0,1.0,2.0,0.0,0.0,19234389
1765915414473,0.0,0.0,1.0,10.0,0.0,0.0,0.0,0.0,0.0,0.0,0.0,0.0,0.0,0.0,0.0,0.0,0.0,0.0,-0.052216,-0.043554,1.011258,0.6300000000000001,-0.28,0.07,27.6328125,3.24,3.29,3.19,3.22,3.26,3.24,3.26,3.3,3.27,3.28,3.27,3.26,3.26,3.28,3.21,3.25,3.27,3.26,3.27,3.23,3.29,3.28,3.28,3.27,3.3,3.19,0.0,1.0,2.0,0.0,0.0,19234455
1765915414490,0.0,0.0,1.0,10.0,0.0,0.0,0.0,0.0,0.0,0.0,0.0,0.0,0.0,0.0,0.0,0.0,0.0,0.0,-0.052216,-0.043554,1.011258,0.56,-0.42000000000000004,0.0,27.6328125,3.24,3.29,3.19,3.22,3.26,3.24,3.26,3.3,3.27,3.28,3.27,3.26,3.26,3.28,3.21,3.25,3.27,3.26,3.27,3.23,3.29,3.28,3.28,3.27,3.3,3.19,0.0,1.0,2.0,0.0,0.0,19234472
1765915414507,0.0,0.0,1.0,10.0,0.0,0.0,0.0,0.0,0.0,0.0,0.0,0.0,0.0,0.0,0.0,0.0,0.0,0.0,-0.052216,-0.043554,1.011258,0.56,-0.42000000000000004,0.0,27.58984375,3.24,3.29,3.19,3.22,3.26,3.24,3.26,3.3,3.27,3.28,3.27,3.26,3.26,3.28,3.21,3.25,3.27,3.26,3.27,3.23,3.29,3.28,3.28,3.27,3.3,3.19,0.0,1.0,2.0,0.0,0.0,19234489
1765915414541,111.0,0.0,1.0,10.0,0.0,0.0,0.0,0.0,0.0,0.0,0.0,0.0,0.0,0.0,0.0,0.0,0.0,0.0,-0.058072,-0.043676,1.010648,0.56,-0.42000000000000004,0.0,27.58984375,3.24,3.29,3.19,3.22,3.26,3.24,3.26,3.3,3.27,3.28,3.27,3.26,3.26,3.28,3.21,3.25,3.27,3.26,3.27,3.23,3.29,3.28,3.28,3.27,3.3,3.19,0.0,1.0,2.0,0.0,0.0,19234523
1765915414574,111.0,0.0,1.0,10.0,0.0,0.0,0.0,0.0,0.0,0.0,0.0,0.0,0.0,0.0,0.0,0.0,0.0,0.0,-0.058072,-0.043676,1.010648,0.56,-0.42000000000000004,0.0,27.58984375,3.24,3.29,3.19,3.22,3.26,3.24,3.26,3.3,3.27,3.28,3.27,3.26,3.26,3.28,3.21,3.25,3.27,3.26,3.27,3.23,3.29,3.28,3.28,3.27,3.3,3.19,0.0,1.0,2.0,0.0,0.0,19234556
1765915414590,111.0,0.0,1.0,10.0,0.0,0.0,0.0,0.0,0.0,0.0,0.0,0.0,0.0,0.0,0.0,0.0,0.0,0.0,-0.058072,-0.043676,1.010648,0.56,-0.42000000000000004,0.0,27.58984375,3.24,3.29,3.19,3.22,3.26,3.24,3.26,3.3,3.27,3.28,3.27,3.26,3.26,3.28,3.21,3.25,3.27,3.26,3.27,3.23,3.29,3.28,3.28,3.27,3.3,3.19,0.0,1.0,2.0,0.0,0.0,19234572
1765915414608,111.0,0.0,1.0,10.0,0.0,0.0,0.0,0.0,0.0,0.0,0.0,0.0,0.0,0.0,0.0,0.0,0.0,0.0,-0.058072,-0.043676,1.010648,0.6300000000000001,-0.42000000000000004,0.07,27.58984375,3.24,3.29,3.19,3.22,3.26,3.24,3.26,3.3,3.27,3.28,3.27,3.26,3.26,3.28,3.21,3.25,3.27,3.26,3.27,3.23,3.29,3.28,3.28,3.27,3.3,3.19,0.0,1.0,2.0,0.0,0.0,19234590
1765915414639,111.0,0.0,1.0,10.0,0.0,0.0,0.0,0.0,0.0,0.0,0.0,0.0,0.0,0.0,0.0,0.0,0.0,0.0,-0.058072,-0.043676,1.010648,0.6300000000000001,-0.42000000000000004,0.07,27.58984375,3.24,3.29,3.19,3.22,3.26,3.24,3.26,3.3,3.27,3.28,3.27,3.26,3.26,3.28,3.21,3.25,3.27,3.26,3.27,3.23,3.29,3.28,3.28,3.27,3.3,3.19,0.0,1.0,2.0,0.0,0.0,19234621
1765915414673,111.0,0.0,1.0,10.0,0.0,0.0,0.0,0.0,0.0,0.0,0.0,0.0,0.0,0.0,0.0,0.0,0.0,0.0,-0.058072,-0.043676,1.010648,0.6300000000000001,-0.42000000000000004,0.07,27.6015625,3.24,3.29,3.19,3.22,3.26,3.24,3.26,3.3,3.27,3.28,3.27,3.26,3.26,3.28,3.21,3.25,3.27,3.26,3.27,3.23,3.29,3.28,3.28,3.27,3.3,3.19,0.0,1.0,2.0,0.0,0.0,19234655
1765915414690,111.0,0.0,1.0,10.0,0.0,0.0,0.0,0.0,0.0,0.0,0.0,0.0,0.0,0.0,0.0,0.0,0.0,0.0,-0.058072,-0.043676,1.010648,0.6300000000000001,-0.42000000000000004,0.07,27.6015625,3.24,3.29,3.19,3.22,3.26,3.24,3.26,3.3,3.27,3.28,3.27,3.26,3.26,3.28,3.21,3.25,3.27,3.26,3.27,3.23,3.29,3.28,3.28,3.27,3.3,3.19,0.0,1.0,2.0,0.0,0.0,19234672
1765915414774,111.0,0.0,1.0,10.0,0.0,0.0,0.0,0.0,0.0,0.0,0.0,0.0,0.0,0.0,0.0,0.0,0.0,0.0,-0.059047999999999996,-0.040992,1.011624,0.6300000000000001,-0.28,0.07,27.6015625,3.24,3.29,3.19,3.22,3.26,3.24,3.26,3.3,3.27,3.28,3.27,3.26,3.26,3.28,3.21,3.25,3.27,3.26,3.27,3.23,3.29,3.28,3.28,3.27,3.3,3.19,0.0,1.0,2.0,0.0,0.0,19234756
1765915414790,111.0,0.0,1.0,10.0,0.0,0.0,0.0,0.0,0.0,0.0,0.0,0.0,0.0,0.0,0.0,0.0,0.0,0.0,-0.059047999999999996,-0.040992,1.011624,0.6300000000000001,-0.28,0.07,27.625,3.24,3.29,3.19,3.22,3.26,3.24,3.26,3.3,3.27,3.28,3.27,3.26,3.26,3.28,3.21,3.25,3.27,3.26,3.27,3.23,3.29,3.28,3.28,3.27,3.3,3.19,0.0,1.0,2.0,0.0,0.0,19234772
1765915414824,0.0,0.0,1.0,10.0,0.0,0.0,0.0,0.0,0.0,0.0,0.0,0.0,0.0,0.0,0.0,0.0,0.0,0.0,-0.059047999999999996,-0.040992,1.011624,0.6300000000000001,-0.28,0.07,27.625,3.24,3.29,3.19,3.22,3.26,3.24,3.26,3.3,3.27,3.28,3.27,3.26,3.26,3.28,3.21,3.25,3.27,3.26,3.27,3.23,3.29,3.28,3.28,3.27,3.3,3.19,0.0,1.0,2.0,0.0,0.0,19234806
1765915414840,0.0,0.0,1.0,10.0,0.0,0.0,0.0,0.0,0.0,0.0,0.0,0.0,0.0,0.0,0.0,0.0,0.0,0.0,-0.059047999999999996,-0.040992,1.011624,0.6300000000000001,-0.28,0.07,27.625,3.24,3.29,3.19,3.22,3.26,3.24,3.26,3.3,3.27,3.28,3.27,3.26,3.26,3.28,3.21,3.25,3.27,3.26,3.27,3.23,3.29,3.28,3.28,3.27,3.3,3.19,0.0,1.0,2.0,0.0,0.0,19234822
1765915414857,0.0,0.0,1.0,10.0,0.0,0.0,0.0,0.0,0.0,0.0,0.0,0.0,0.0,0.0,0.0,0.0,0.0,0.0,-0.059047999999999996,-0.040992,1.011624,0.6300000000000001,-0.28,0.07,27.625,3.24,3.29,3.19,3.22,3.26,3.24,3.26,3.3,3.27,3.28,3.27,3.26,3.26,3.28,3.21,3.25,3.27,3.26,3.27,3.23,3.29,3.28,3.28,3.27,3.3,3.19,0.0,1.0,2.0,0.0,0.0,19234839
1765915414874,0.0,0.0,1.0,10.0,0.0,0.0,0.0,0.0,0.0,0.0,0.0,0.0,0.0,0.0,0.0,0.0,0.0,0.0,-0.059047999999999996,-0.040992,1.011624,0.6300000000000001,-0.28,0.07,27.625,3.24,3.29,3.19,3.22,3.26,3.24,3.26,3.3,3.27,3.28,3.27,3.26,3.26,3.28,3.21,3.25,3.27,3.26,3.27,3.23,3.29,3.28,3.28,3.27,3.3,3.19,0.0,1.0,2.0,0.0,0.0,19234856
1765915414891,0.0,0.0,1.0,10.0,0.0,0.0,0.0,0.0,0.0,0.0,0.0,0.0,0.0,0.0,0.0,0.0,0.0,0.0,-0.056608,-0.041968,1.0126,0.6300000000000001,-0.28,0.07,27.625,3.24,3.29,3.19,3.22,3.26,3.24,3.26,3.3,3.27,3.28,3.27,3.26,3.26,3.28,3.21,3.25,3.27,3.26,3.27,3.23,3.29,3.28,3.28,3.27,3.3,3.19,0.0,1.0,2.0,0.0,0.0,19234873
1765915414907,0.0,0.0,1.0,10.0,0.0,0.0,0.0,0.0,0.0,0.0,0.0,0.0,0.0,0.0,0.0,0.0,0.0,0.0,-0.056608,-0.041968,1.0126,0.6300000000000001,-0.28,0.07,27.625,3.24,3.29,3.19,3.22,3.26,3.24,3.26,3.3,3.27,3.28,3.27,3.26,3.26,3.28,3.21,3.25,3.27,3.26,3.27,3.23,3.29,3.28,3.28,3.27,3.3,3.19,0.0,1.0,2.0,0.0,0.0,19234889
1765915414923,0.0,0.0,1.0,10.0,0.0,0.0,0.0,0.0,0.0,0.0,0.0,0.0,0.0,0.0,0.0,0.0,0.0,0.0,-0.056608,-0.041968,1.0126,0.56,-0.42000000000000004,0.14,27.625,3.24,3.29,3.19,3.22,3.26,3.24,3.26,3.3,3.27,3.28,3.27,3.26,3.26,3.28,3.21,3.25,3.27,3.26,3.27,3.23,3.29,3.28,3.28,3.27,3.3,3.19,0.0,1.0,2.0,0.0,0.0,19234905
1765915415024,0.0,0.0,1.0,10.0,0.0,0.0,0.0,0.0,0.0,0.0,0.0,0.0,0.0,0.0,0.0,0.0,0.0,0.0,-0.056608,-0.041968,1.0126,0.56,-0.42000000000000004,0.14,27.625,3.24,3.29,3.19,3.22,3.26,3.24,3.26,3.3,3.27,3.28,3.27,3.26,3.26,3.28,3.21,3.25,3.27,3.26,3.27,3.23,3.29,3.28,3.28,3.27,3.3,3.19,0.0,1.0,2.0,0.0,0.0,19235006
1765915415090,0.0,0.0,1.0,10.0,0.0,0.0,0.0,0.0,0.0,0.0,0.0,0.0,0.0,0.0,0.0,0.0,0.0,0.0,-0.050873999999999996,-0.043066,1.010282,0.6300000000000001,-0.35000000000000003,0.14,27.625,3.24,3.29,3.19,3.22,3.26,3.24,3.26,3.3,3.27,3.28,3.27,3.26,3.26,3.28,3.21,3.25,3.27,3.26,3.27,3.23,3.29,3.28,3.28,3.27,3.3,3.19,0.0,1.0,2.0,0.0,0.0,19235072
1765915415107,0.0,0.0,1.0,10.0,0.0,0.0,0.0,0.0,0.0,0.0,0.0,0.0,0.0,0.0,0.0,0.0,0.0,0.0,-0.050873999999999996,-0.043066,1.010282,0.6300000000000001,-0.35000000000000003,0.14,27.6171875,3.24,3.29,3.19,3.22,3.26,3.24,3.26,3.3,3.27,3.28,3.27,3.26,3.26,3.28,3.21,3.25,3.27,3.26,3.27,3.23,3.29,3.28,3.28,3.27,3.3,3.19,0.0,1.0,2.0,0.0,0.0,19235089
1765915415141,0.0,0.0,1.0,10.0,0.0,0.0,0.0,0.0,0.0,0.0,0.0,0.0,0.0,0.0,0.0,0.0,0.0,0.0,-0.050873999999999996,-0.043066,1.010282,0.6300000000000001,-0.35000000000000003,0.14,27.6171875,3.24,3.29,3.19,3.22,3.26,3.24,3.26,3.3,3.27,3.28,3.27,3.26,3.26,3.28,3.21,3.25,3.27,3.26,3.27,3.23,3.29,3.28,3.28,3.27,3.3,3.19,0.0,1.0,2.0,0.0,0.0,19235123
1765915415157,0.0,0.0,1.0,10.0,0.0,0.0,0.0,0.0,0.0,0.0,0.0,0.0,0.0,0.0,0.0,0.0,0.0,0.0,-0.050873999999999996,-0.043066,1.010282,0.6300000000000001,-0.35000000000000003,0.14,27.6171875,3.24,3.29,3.19,3.22,3.26,3.24,3.26,3.3,3.27,3.28,3.27,3.26,3.26,3.28,3.21,3.25,3.27,3.26,3.27,3.23,3.29,3.28,3.28,3.27,3.3,3.19,0.0,1.0,2.0,0.0,0.0,19235139
1765915415174,0.0,0.0,1.0,10.0,0.0,0.0,0.0,0.0,0.0,0.0,0.0,0.0,0.0,0.0,0.0,0.0,0.0,0.0,-0.050873999999999996,-0.043066,1.010282,0.6300000000000001,-0.35000000000000003,0.14,27.6171875,3.24,3.29,3.19,3.22,3.26,3.24,3.26,3.3,3.27,3.28,3.27,3.26,3.26,3.28,3.21,3.25,3.27,3.26,3.27,3.23,3.29,3.28,3.28,3.27,3.3,3.19,0.0,1.0,2.0,0.0,0.0,19235156
1765915415190,0.0,0.0,1.0,10.0,0.0,0.0,0.0,0.0,0.0,0.0,0.0,0.0,0.0,0.0,0.0,0.0,0.0,0.0,-0.053924,-0.041724,1.013576,0.6300000000000001,-0.35000000000000003,0.14,27.6171875,3.24,3.29,3.19,3.22,3.26,3.24,3.26,3.3,3.27,3.28,3.27,3.26,3.26,3.28,3.21,3.25,3.27,3.26,3.27,3.23,3.29,3.28,3.28,3.27,3.3,3.19,0.0,1.0,2.0,0.0,0.0,19235172
1765915415207,0.0,0.0,1.0,10.0,0.0,0.0,0.0,0.0,0.0,0.0,0.0,0.0,0.0,0.0,0.0,0.0,0.0,0.0,-0.053924,-0.041724,1.013576,0.6300000000000001,-0.35000000000000003,0.14,27.6171875,3.24,3.29,3.19,3.22,3.26,3.24,3.26,3.3,3.27,3.28,3.27,3.26,3.26,3.28,3.21,3.25,3.27,3.26,3.27,3.23,3.29,3.28,3.28,3.27,3.3,3.19,0.0,1.0,2.0,0.0,0.0,19235189
1765915415223,0.0,0.0,1.0,10.0,0.0,0.0,0.0,0.0,0.0,0.0,0.0,0.0,0.0,0.0,0.0,0.0,0.0,0.0,-0.053924,-0.041724,1.013576,0.6300000000000001,-0.35000000000000003,0.14,27.6171875,3.24,3.29,3.19,3.22,3.26,3.24,3.26,3.3,3.27,3.28,3.27,3.26,3.26,3.28,3.21,3.25,3.27,3.26,3.27,3.23,3.29,3.28,3.28,3.27,3.3,3.19,0.0,1.0,2.0,0.0,0.0,19235205
1765915415241,0.0,0.0,1.0,10.0,0.0,0.0,0.0,0.0,0.0,0.0,0.0,0.0,0.0,0.0,0.0,0.0,0.0,0.0,-0.053924,-0.041724,1.013576,0.6300000000000001,-0.28,0.07,27.6171875,3.24,3.29,3.19,3.22,3.26,3.24,3.26,3.3,3.27,3.28,3.27,3.26,3.26,3.28,3.21,3.25,3.27,3.26,3.27,3.23,3.29,3.28,3.28,3.27,3.3,3.19,0.0,1.0,2.0,0.0,0.0,19235223
1765915415290,0.0,0.0,1.0,10.0,0.0,0.0,0.0,0.0,0.0,0.0,0.0,0.0,0.0,0.0,0.0,0.0,0.0,0.0,-0.053924,-0.041724,1.013576,0.6300000000000001,-0.28,0.07,27.6171875,3.24,3.29,3.19,3.22,3.26,3.24,3.26,3.3,3.27,3.28,3.27,3.26,3.26,3.28,3.21,3.25,3.27,3.26,3.27,3.23,3.29,3.28,3.28,3.27,3.3,3.19,0.0,1.0,2.0,0.0,0.0,19235272
1765915415307,0.0,0.0,1.0,10.0,0.0,0.0,0.0,0.0,0.0,0.0,0.0,0.0,0.0,0.0,0.0,0.0,0.0,0.0,-0.053924,-0.041724,1.013576,0.6300000000000001,-0.28,0.07,27.609375,3.24,3.29,3.19,3.22,3.26,3.24,3.26,3.3,3.27,3.28,3.27,3.26,3.26,3.28,3.21,3.25,3.27,3.26,3.27,3.23,3.29,3.28,3.28,3.27,3.3,3.19,0.0,1.0,2.0,0.0,0.0,19235289
1765915415374,0.0,0.0,1.0,10.0,0.0,0.0,0.0,0.0,0.0,0.0,0.0,0.0,0.0,0.0,0.0,0.0,0.0,0.0,-0.056119999999999996,-0.041602,1.01138,0.6300000000000001,-0.28,0.07,27.609375,3.24,3.29,3.19,3.22,3.26,3.24,3.26,3.3,3.27,3.28,3.27,3.26,3.26,3.28,3.21,3.25,3.27,3.26,3.27,3.23,3.29,3.28,3.28,3.27,3.3,3.19,0.0,1.0,2.0,0.0,0.0,19235356
1765915415390,0.0,0.0,1.0,10.0,0.0,0.0,0.0,0.0,0.0,0.0,0.0,0.0,0.0,0.0,0.0,0.0,0.0,0.0,-0.056119999999999996,-0.041602,1.01138,0.7000000000000001,-0.35000000000000003,0.0,27.609375,3.24,3.29,3.19,3.22,3.26,3.24,3.26,3.3,3.27,3.28,3.27,3.26,3.26,3.28,3.21,3.25,3.27,3.26,3.27,3.23,3.29,3.28,3.28,3.27,3.3,3.19,0.0,1.0,2.0,0.0,0.0,19235372
1765915415407,0.0,0.0,1.0,10.0,0.0,0.0,0.0,0.0,0.0,0.0,0.0,0.0,0.0,0.0,0.0,0.0,0.0,0.0,-0.056119999999999996,-0.041602,1.01138,0.7000000000000001,-0.35000000000000003,0.0,27.6171875,3.24,3.29,3.19,3.22,3.26,3.24,3.26,3.3,3.27,3.28,3.27,3.26,3.26,3.28,3.21,3.25,3.27,3.26,3.27,3.23,3.29,3.28,3.28,3.27,3.3,3.19,0.0,1.0,2.0,0.0,0.0,19235389
1765915415440,0.0,0.0,1.0,10.0,0.0,0.0,0.0,0.0,0.0,0.0,0.0,0.0,0.0,0.0,0.0,0.0,0.0,0.0,-0.056119999999999996,-0.041602,1.01138,0.7000000000000001,-0.35000000000000003,0.0,27.6171875,3.24,3.29,3.19,3.22,3.26,3.24,3.26,3.3,3.27,3.28,3.27,3.26,3.26,3.28,3.21,3.25,3.27,3.26,3.27,3.23,3.29,3.28,3.28,3.27,3.3,3.19,0.0,1.0,2.0,0.0,0.0,19235422
1765915415456,0.0,0.0,1.0,10.0,0.0,0.0,0.0,0.0,0.0,0.0,0.0,0.0,0.0,0.0,0.0,0.0,0.0,0.0,-0.056119999999999996,-0.041602,1.01138,0.7000000000000001,-0.35000000000000003,0.0,27.6171875,3.24,3.29,3.19,3.22,3.26,3.24,3.26,3.3,3.27,3.28,3.27,3.26,3.26,3.28,3.21,3.25,3.27,3.26,3.27,3.23,3.29,3.28,3.28,3.27,3.3,3.19,0.0,1.0,2.0,0.0,0.0,19235438
1765915415471,0.0,0.0,1.0,10.0,0.0,0.0,0.0,0.0,0.0,0.0,0.0,0.0,0.0,0.0,0.0,0.0,0.0,0.0,-0.056119999999999996,-0.041602,1.01138,0.7000000000000001,-0.35000000000000003,0.0,27.6171875,3.24,3.29,3.19,3.22,3.26,3.24,3.26,3.3,3.27,3.28,3.27,3.26,3.26,3.28,3.21,3.25,3.27,3.26,3.27,3.23,3.29,3.28,3.28,3.27,3.3,3.19,0.0,1.0,2.0,0.0,0.0,19235453
1765915415507,0.0,0.0,1.0,10.0,0.0,0.0,0.0,0.0,0.0,0.0,0.0,0.0,0.0,0.0,0.0,0.0,0.0,0.0,-0.056119999999999996,-0.041602,1.01138,0.7000000000000001,-0.35000000000000003,0.0,27.6171875,3.24,3.29,3.19,3.22,3.26,3.24,3.26,3.3,3.27,3.28,3.27,3.26,3.26,3.28,3.21,3.25,3.27,3.26,3.27,3.23,3.29,3.28,3.28,3.27,3.3,3.19,0.0,1.0,2.0,0.0,0.0,19235489
1765915415524,0.0,0.0,1.0,10.0,0.0,0.0,0.0,0.0,0.0,0.0,0.0,0.0,0.0,0.0,0.0,0.0,0.0,0.0,-0.055388,-0.0427,1.010892,0.7000000000000001,-0.35000000000000003,0.0,27.6171875,3.24,3.29,3.19,3.22,3.26,3.24,3.26,3.3,3.27,3.28,3.27,3.26,3.26,3.28,3.21,3.25,3.27,3.26,3.27,3.23,3.29,3.28,3.28,3.27,3.3,3.19,0.0,1.0,2.0,0.0,0.0,19235506
1765915415557,0.0,0.0,1.0,10.0,0.0,0.0,0.0,0.0,0.0,0.0,0.0,0.0,0.0,0.0,0.0,0.0,0.0,0.0,-0.055388,-0.0427,1.010892,0.7000000000000001,-0.35000000000000003,0.0,27.6171875,3.24,3.29,3.19,3.22,3.26,3.24,3.26,3.3,3.27,3.28,3.27,3.26,3.26,3.28,3.21,3.25,3.27,3.26,3.27,3.23,3.29,3.28,3.28,3.27,3.3,3.19,0.0,1.0,2.0,0.0,0.0,19235539
1765915415574,0.0,0.0,1.0,10.0,0.0,0.0,0.0,0.0,0.0,0.0,0.0,0.0,0.0,0.0,0.0,0.0,0.0,0.0,-0.055388,-0.0427,1.010892,0.6300000000000001,-0.42000000000000004,0.07,27.6171875,3.24,3.29,3.19,3.22,3.26,3.24,3.26,3.3,3.27,3.28,3.27,3.26,3.26,3.28,3.21,3.25,3.27,3.26,3.27,3.23,3.29,3.28,3.28,3.27,3.3,3.19,0.0,1.0,2.0,0.0,0.0,19235556
1765915415623,0.0,0.0,1.0,10.0,0.0,0.0,0.0,0.0,0.0,0.0,0.0,0.0,0.0,0.0,0.0,0.0,0.0,0.0,-0.055388,-0.0427,1.010892,0.6300000000000001,-0.42000000000000004,0.07,27.6171875,3.24,3.29,3.19,3.22,3.26,3.24,3.26,3.3,3.27,3.28,3.27,3.26,3.26,3.28,3.21,3.25,3.27,3.26,3.27,3.23,3.29,3.28,3.28,3.27,3.3,3.19,0.0,1.0,2.0,0.0,0.0,19235605
1765915415690,0.0,0.0,1.0,10.0,0.0,0.0,0.0,0.0,0.0,0.0,0.0,0.0,0.0,0.0,0.0,0.0,0.0,0.0,-0.054778,-0.04575,1.007232,0.6300000000000001,-0.42000000000000004,0.07,27.6171875,3.24,3.29,3.19,3.22,3.26,3.24,3.26,3.3,3.27,3.28,3.27,3.26,3.26,3.28,3.21,3.25,3.27,3.26,3.27,3.23,3.29,3.28,3.28,3.27,3.3,3.19,0.0,1.0,2.0,0.0,0.0,19235672
1765915415722,0.0,0.0,1.0,10.0,0.0,0.0,0.0,0.0,0.0,0.0,0.0,0.0,0.0,0.0,0.0,0.0,0.0,0.0,-0.054778,-0.04575,1.007232,0.7000000000000001,-0.42000000000000004,0.0,27.68359375,3.24,3.29,3.19,3.22,3.26,3.24,3.26,3.3,3.27,3.28,3.27,3.26,3.26,3.28,3.21,3.25,3.27,3.26,3.27,3.23,3.29,3.28,3.28,3.27,3.3,3.19,0.0,1.0,2.0,0.0,0.0,19235704
1765915415756,0.0,0.0,1.0,10.0,0.0,0.0,0.0,0.0,0.0,0.0,0.0,0.0,0.0,0.0,0.0,0.0,0.0,0.0,-0.054778,-0.04575,1.007232,0.7000000000000001,-0.42000000000000004,0.0,27.68359375,3.24,3.29,3.19,3.22,3.26,3.24,3.26,3.3,3.27,3.28,3.27,3.26,3.26,3.28,3.21,3.25,3.27,3.26,3.27,3.23,3.29,3.28,3.28,3.27,3.3,3.19,0.0,1.0,2.0,0.0,0.0,19235738
1765915415773,0.0,0.0,1.0,10.0,0.0,0.0,0.0,0.0,0.0,0.0,0.0,0.0,0.0,0.0,0.0,0.0,0.0,0.0,-0.054778,-0.04575,1.007232,0.7000000000000001,-0.42000000000000004,0.0,27.68359375,3.24,3.29,3.19,3.22,3.26,3.24,3.26,3.3,3.27,3.28,3.27,3.26,3.26,3.28,3.21,3.25,3.27,3.26,3.27,3.23,3.29,3.28,3.28,3.27,3.3,3.19,0.0,1.0,2.0,0.0,0.0,19235755
1765915415790,0.0,0.0,1.0,10.0,0.0,0.0,0.0,0.0,0.0,0.0,0.0,0.0,0.0,0.0,0.0,0.0,0.0,0.0,-0.054778,-0.04575,1.007232,0.7000000000000001,-0.42000000000000004,0.0,27.68359375,3.24,3.29,3.19,3.22,3.26,3.24,3.26,3.3,3.27,3.28,3.27,3.26,3.26,3.28,3.21,3.25,3.27,3.26,3.27,3.23,3.29,3.28,3.28,3.27,3.3,3.19,0.0,1.0,2.0,0.0,0.0,19235772
1765915415823,0.0,0.0,1.0,10.0,0.0,0.0,0.0,0.0,0.0,0.0,0.0,0.0,0.0,0.0,0.0,0.0,0.0,0.0,-0.054778,-0.04575,1.007232,0.7000000000000001,-0.42000000000000004,0.0,27.68359375,3.24,3.29,3.19,3.22,3.26,3.24,3.26,3.3,3.27,3.28,3.27,3.26,3.26,3.28,3.21,3.25,3.27,3.26,3.27,3.23,3.29,3.28,3.28,3.27,3.3,3.19,0.0,1.0,2.0,0.0,0.0,19235805
1765915415857,0.0,0.0,1.0,10.0,0.0,0.0,0.0,0.0,0.0,0.0,0.0,0.0,0.0,0.0,0.0,0.0,0.0,0.0,-0.04758,-0.04087,1.016992,0.7000000000000001,-0.42000000000000004,0.0,27.68359375,3.24,3.29,3.19,3.22,3.26,3.24,3.26,3.3,3.27,3.28,3.27,3.26,3.26,3.28,3.21,3.25,3.27,3.26,3.27,3.23,3.29,3.28,3.28,3.27,3.3,3.19,0.0,1.0,2.0,0.0,0.0,19235839
