timestamp,THROTTLE,BRAKE,ECU_MODE_ID,TORQUE_GAIN,TORQUE_REF_LEFT_MOTOR,TORQUE_REF_RIGHT_MOTOR,LEFT_MOTOR_RPM,LEFT_MOTOR_TORQUE,LEFT_MOTOR_POWER,LEFT_MOTOR_CURRENT,RIGHT_MOTOR_RPM,RIGHT_MOTOR_TORQUE,RIGHT_MOTOR_POWER,RIGHT_MOTOR_CURRENT,REAR_LEFT_WHEEL_SPEED,REAR_RIGHT_WHEEL_SPEED,FRONT_LEFT_WHEEL_SPEED,FRONT_RIGHT_WHEEL_SPEED,ACCEL_LONGITUDINAL,ACCEL_LATERAL,ACCEL_NORMAL,VEL_ANGULAR_YAW,VEL_ANGULAR_PITCH,VEL_ANGULAR_ROLL,ELETROBUILD_TEMPERATURE,STACK_1_CELL_1,STACK_1_CELL_2,STACK_1_CELL_3,STACK_1_CELL_4,STACK_2_CELL_1,STACK_2_CELL_2,STACK_2_CELL_3,STACK_2_CELL_4,STACK_3_CELL_1,STACK_3_CELL_2,STACK_3_CELL_3,STACK_3_CELL_4,STACK_4_CELL_1,STACK_4_CELL_2,STACK_4_CELL_3,STACK_4_CELL_4,STACK_5_CELL_1,STACK_5_CELL_2,STACK_5_CELL_3,STACK_5_CELL_4,STACK_6_CELL_1,STACK_6_CELL_2,STACK_6_CELL_3,STACK_6_CELL_4,MAX_VOLTAGE,MIN_VOLTAGE,SHUNT_CURRENT,BMS_MODE_ID,BMS_ERROR_ID,AIR_P,AIR_N,t,VEHICLE_SPEED,TOTAL_VOLTAGE,HODOMETRO
1765915845002,0.0,0.0,0.0,0.0,0.0,0.0,3559.0,11.648,0.0,132.4,3551.0,11.556999999999999,43.0,131.0,355.90000000000003,355.1,0.0,0.0,-0.05307,-0.054168,1.01382,0.6300000000000001,-0.28,0.07,25.0,3.24,3.29,3.19,3.22,3.26,3.24,3.26,3.3,3.27,3.28,3.27,3.26,3.26,3.28,3.21,3.25,3.27,3.26,3.27,3.23,3.29,3.28,3.28,3.27,3.3,3.19,0.0,1.0,2.0,0.0,0.0,20354990,39.24765707142858,78.23000000000002,6333.896834509427
1765915845035,0.0,0.0,1.0,10.0,0.0,0.0,3559.0,11.648,0.0,132.4,3551.0,11.556999999999999,43.0,131.0,355.90000000000003,355.1,0.0,0.0,-0.05307,-0.054168,1.01382,0.6300000000000001,-0.28,0.07,25.0,3.24,3.29,3.19,3.22,3.26,3.24,3.26,3.3,3.27,3.28,3.27,3.26,3.26,3.28,3.21,3.25,3.27,3.26,3.27,3.23,3.29,3.28,3.28,3.27,3.3,3.19,0.0,1.0,2.0,0.0,0.0,20355023,39.24765707142858,78.23000000000002,6333.896834509427
1765915845051,0.0,0.0,1.0,10.0,0.0,0.0,3559.0,11.648,0.0,132.4,3551.0,11.556999999999999,43.0,131.0,355.90000000000003,355.1,0.0,0.0,-0.05307,-0.054168,1.01382,0.6300000000000001,-0.42000000000000004,0.0,25.0,3.24,3.29,3.19,3.22,3.26,3.24,3.26,3.3,3.27,3.28,3.27,3.26,3.26,3.28,3.21,3.25,3.27,3.26,3.27,3.23,3.29,3.28,3.28,3.27,3.3,3.19,0.0,1.0,2.0,0.0,0.0,20355039,39.24765707142858,78.23000000000002,6333.896834509427
1765915845068,0.0,0.0,1.0,10.0,0.0,0.0,3559.0,11.648,0.0,132.4,3551.0,11.556999999999999,43.0,131.0,0.0,0.0,0.0,0.0,-0.05307,-0.054168,1.01382,0.6300000000000001,-0.42000000000000004,0.0,25.0,3.24,3.29,3.19,3.22,3.26,3.24,3.26,3.3,3.27,3.28,3.27,3.26,3.26,3.28,3.21,3.25,3.27,3.26,3.27,3.23,3.29,3.28,3.28,3.27,3.3,3.19,0.0,1.0,2.0,0.0,0.0,20355056,39.24765707142858,78.23000000000002,6333.896834509427
1765915845102,0.0,0.0,1.0,10.0,0.0,0.0,0.0,0.0,0.0,0.0,3551.0,11.556999999999999,43.0,131.0,0.0,0.0,0.0,0.0,-0.05307,-0.054168,1.01382,0.6300000000000001,-0.42000000000000004,0.0,25.0,3.24,3.29,3.19,3.22,3.26,3.24,3.26,3.3,3.27,3.28,3.27,3.26,3.26,3.28,3.21,3.25,3.27,3.26,3.27,3.23,3.29,3.28,3.28,3.27,3.3,3.19,0.0,1.0,2.0,0.0,0.0,20355090,19.60174827857143,78.23000000000002,6333.896834509427
1765915845118,0.0,0.0,1.0,10.0,0.0,0.0,0.0,0.0,0.0,0.0,3551.0,11.556999999999999,43.0,131.0,0.0,0.0,0.0,0.0,-0.05307,-0.054168,1.01382,0.6300000000000001,-0.42000000000000004,0.0,25.0,3.24,3.29,3.19,3.22,3.26,3.24,3.26,3.3,3.27,3.28,3.27,3.26,3.26,3.28,3.21,3.25,3.27,3.26,3.27,3.23,3.29,3.28,3.28,3.27,3.3,3.19,0.0,1.0,2.0,0.0,0.0,20355106,19.60174827857143,78.23000000000002,6333.896834509427
1765915845168,0.0,0.0,1.0,10.0,0.0,0.0,0.0,0.0,0.0,0.0,0.0,0.0,0.0,0.0,0.0,0.0,0.0,0.0,-0.05307,-0.054168,1.01382,0.6300000000000001,-0.42000000000000004,0.0,25.0,3.24,3.29,3.19,3.22,3.26,3.24,3.26,3.3,3.27,3.28,3.27,3.26,3.26,3.28,3.21,3.25,3.27,3.26,3.27,3.23,3.29,3.28,3.28,3.27,3.3,3.19,0.0,1.0,2.0,0.0,0.0,20355156,0.0,78.23000000000002,6333.896834509427
1765915845235,0.0,0.0,1.0,10.0,0.0,0.0,0.0,0.0,0.0,0.0,0.0,0.0,0.0,0.0,0.0,0.0,0.0,0.0,-0.05124,-0.05795,1.011014,0.6300000000000001,-0.42000000000000004,0.0,25.0,3.24,3.29,3.19,3.22,3.26,3.24,3.26,3.3,3.27,3.28,3.27,3.26,3.26,3.28,3.21,3.25,3.27,3.26,3.27,3.23,3.29,3.28,3.28,3.27,3.3,3.19,0.0,1.0,2.0,0.0,0.0,20355223,0.0,78.23000000000002,6333.896834509427
1765915845252,0.0,0.0,1.0,10.0,0.0,0.0,0.0,0.0,0.0,0.0,0.0,0.0,0.0,0.0,0.0,0.0,0.0,0.0,-0.05124,-0.05795,1.011014,0.6300000000000001,-0.42000000000000004,0.07,25.0,3.24,3.29,3.19,3.22,3.26,3.24,3.26,3.3,3.27,3.28,3.27,3.26,3.26,3.28,3.21,3.25,3.27,3.26,3.27,3.23,3.29,3.28,3.28,3.27,3.3,3.19,0.0,1.0,2.0,0.0,0.0,20355240,0.0,78.23000000000002,6333.896834509427
1765915845268,0.0,0.0,1.0,10.0,0.0,0.0,0.0,0.0,0.0,0.0,0.0,0.0,0.0,0.0,0.0,0.0,0.0,0.0,-0.05124,-0.05795,1.011014,0.6300000000000001,-0.42000000000000004,0.07,25.0,3.24,3.29,3.19,3.22,3.26,3.24,3.26,3.3,3.27,3.28,3.27,3.26,3.26,3.28,3.21,3.25,3.27,3.26,3.27,3.23,3.29,3.28,3.28,3.27,3.3,3.19,0.0,1.0,2.0,0.0,0.0,20355256,0.0,78.23000000000002,6333.896834509427
1765915845302,0.0,0.0,1.0,10.0,0.0,0.0,0.0,0.0,0.0,0.0,0.0,0.0,0.0,0.0,0.0,0.0,0.0,0.0,-0.05124,-0.05795,1.011014,0.6300000000000001,-0.42000000000000004,0.07,25.0,3.24,3.29,3.19,3.22,3.26,3.24,3.26,3.3,3.27,3.28,3.27,3.26,3.26,3.28,3.21,3.25,3.27,3.26,3.27,3.23,3.29,3.28,3.28,3.27,3.3,3.19,0.0,1.0,2.0,0.0,0.0,20355290,0.0,78.23000000000002,6333.896834509427
1765915845318,0.0,0.0,1.0,10.0,0.0,0.0,0.0,0.0,0.0,0.0,0.0,0.0,0.0,0.0,0.0,0.0,0.0,0.0,-0.05124,-0.05795,1.011014,0.6300000000000001,-0.42000000000000004,0.07,25.0,3.24,3.29,3.19,3.22,3.26,3.24,3.26,3.3,3.27,3.28,3.27,3.26,3.26,3.28,3.21,3.25,3.27,3.26,3.27,3.23,3.29,3.28,3.28,3.27,3.3,3.19,0.0,1.0,2.0,0.0,0.0,20355306,0.0,78.23000000000002,6333.896834509427
1765915845335,0.0,0.0,1.0,10.0,0.0,0.0,0.0,0.0,0.0,0.0,0.0,0.0,0.0,0.0,0.0,0.0,0.0,0.0,-0.05124,-0.05795,1.011014,0.6300000000000001,-0.42000000000000004,0.07,25.0,3.24,3.29,3.19,3.22,3.26,3.24,3.26,3.3,3.27,3.28,3.27,3.26,3.26,3.28,3.21,3.25,3.27,3.26,3.27,3.23,3.29,3.28,3.28,3.27,3.3,3.19,0.0,1.0,2.0,0.0,0.0,20355323,0.0,78.23000000000002,6333.896834509427
1765915845352,0.0,0.0,1.0,10.0,0.0,0.0,0.0,0.0,0.0,0.0,0.0,0.0,0.0,0.0,0.0,0.0,0.0,0.0,-0.054412,-0.055144,1.012356,0.6300000000000001,-0.42000000000000004,0.07,25.0,3.24,3.29,3.19,3.22,3.26,3.24,3.26,3.3,3.27,3.28,3.27,3.26,3.26,3.28,3.21,3.25,3.27,3.26,3.27,3.23,3.29,3.28,3.28,3.27,3.3,3.19,0.0,1.0,2.0,0.0,0.0,20355340,0.0,78.23000000000002,6333.896834509427
1765915845385,0.0,0.0,1.0,10.0,0.0,0.0,0.0,0.0,0.0,0.0,0.0,0.0,0.0,0.0,0.0,0.0,0.0,0.0,-0.054412,-0.055144,1.012356,0.6300000000000001,-0.49000000000000005,0.14,25.0,3.24,3.29,3.19,3.22,3.26,3.24,3.26,3.3,3.27,3.28,3.27,3.26,3.26,3.28,3.21,3.25,3.27,3.26,3.27,3.23,3.29,3.28,3.28,3.27,3.3,3.19,0.0,1.0,2.0,0.0,0.0,20355373,0.0,78.23000000000002,6333.896834509427
1765915845452,0.0,0.0,1.0,10.0,0.0,0.0,0.0,0.0,0.0,0.0,0.0,0.0,0.0,0.0,0.0,0.0,0.0,0.0,-0.054412,-0.055144,1.012356,0.6300000000000001,-0.49000000000000005,0.14,25.0,3.24,3.29,3.19,3.22,3.26,3.24,3.26,3.3,3.27,3.28,3.27,3.26,3.26,3.28,3.21,3.25,3.27,3.26,3.27,3.23,3.29,3.28,3.28,3.27,3.3,3.19,0.0,1.0,2.0,0.0,0.0,20355440,0.0,78.23000000000002,6333.896834509427
1765915845485,0.0,0.0,1.0,10.0,0.0,0.0,0.0,0.0,0.0,0.0,0.0,0.0,0.0,0.0,0.0,0.0,0.0,0.0,-0.054412,-0.055144,1.012356,0.6300000000000001,-0.49000000000000005,0.14,25.0,3.24,3.29,3.19,3.22,3.26,3.24,3.26,3.3,3.27,3.28,3.27,3.26,3.26,3.28,3.21,3.25,3.27,3.26,3.27,3.23,3.29,3.28,3.28,3.27,3.3,3.19,0.0,1.0,2.0,0.0,0.0,20355473,0.0,78.23000000000002,6333.896834509427
1765915845551,0.0,0.0,1.0,10.0,0.0,0.0,0.0,0.0,0.0,0.0,0.0,0.0,0.0,0.0,0.0,0.0,0.0,0.0,-0.044164,-0.059047999999999996,1.018578,0.6300000000000001,-0.49000000000000005,0.14,25.0,3.24,3.29,3.19,3.22,3.26,3.24,3.26,3.3,3.27,3.28,3.27,3.26,3.26,3.28,3.21,3.25,3.27,3.26,3.27,3.23,3.29,3.28,3.28,3.27,3.3,3.19,0.0,1.0,2.0,0.0,0.0,20355539,0.0,78.23000000000002,6333.896834509427
1765915845568,0.0,0.0,1.0,10.0,0.0,0.0,0.0,0.0,0.0,0.0,0.0,0.0,0.0,0.0,0.0,0.0,0.0,0.0,-0.044164,-0.059047999999999996,1.018578,0.6300000000000001,-0.35000000000000003,0.0,25.0,3.24,3.29,3.19,3.22,3.26,3.24,3.26,3.3,3.27,3.28,3.27,3.26,3.26,3.28,3.21,3.25,3.27,3.26,3.27,3.23,3.29,3.28,3.28,3.27,3.3,3.19,0.0,1.0,2.0,0.0,0.0,20355556,0.0,78.23000000000002,6333.896834509427
1765915845585,0.0,0.0,1.0,10.0,0.0,0.0,0.0,0.0,0.0,0.0,0.0,0.0,0.0,0.0,0.0,0.0,0.0,0.0,-0.044164,-0.059047999999999996,1.018578,0.6300000000000001,-0.35000000000000003,0.0,25.0,3.24,3.29,3.19,3.22,3.26,3.24,3.26,3.3,3.27,3.28,3.27,3.26,3.26,3.28,3.21,3.25,3.27,3.26,3.27,3.23,3.29,3.28,3.28,3.27,3.3,3.19,0.0,1.0,2.0,0.0,0.0,20355573,0.0,78.23000000000002,6333.896834509427
1765915845618,0.0,0.0,1.0,10.0,0.0,0.0,0.0,0.0,0.0,0.0,0.0,0.0,0.0,0.0,0.0,0.0,0.0,0.0,-0.044164,-0.059047999999999996,1.018578,0.6300000000000001,-0.35000000000000003,0.0,25.0,3.24,3.29,3.19,3.22,3.26,3.24,3.26,3.3,3.27,3.28,3.27,3.26,3.26,3.28,3.21,3.25,3.27,3.26,3.27,3.23,3.29,3.28,3.28,3.27,3.3,3.19,0.0,1.0,2.0,0.0,0.0,20355606,0.0,78.23000000000002,6333.896834509427
1765915845634,0.0,0.0,1.0,10.0,0.0,0.0,0.0,0.0,0.0,0.0,0.0,0.0,0.0,0.0,0.0,0.0,0.0,0.0,-0.044164,-0.059047999999999996,1.018578,0.6300000000000001,-0.35000000000000003,0.0,25.0,3.24,3.29,3.19,3.22,3.26,3.24,3.26,3.3,3.27,3.28,3.27,3.26,3.26,3.28,3.21,3.25,3.27,3.26,3.27,3.23,3.29,3.28,3.28,3.27,3.3,3.19,0.0,1.0,2.0,0.0,0.0,20355622,0.0,78.23000000000002,6333.896834509427
1765915845651,0.0,0.0,1.0,10.0,0.0,0.0,0.0,0.0,0.0,0.0,0.0,0.0,0.0,0.0,0.0,0.0,0.0,0.0,-0.044164,-0.059047999999999996,1.018578,0.6300000000000001,-0.35000000000000003,0.0,25.0,3.24,3.29,3.19,3.22,3.26,3.24,3.26,3.3,3.27,3.28,3.27,3.26,3.26,3.28,3.21,3.25,3.27,3.26,3.27,3.23,3.29,3.28,3.28,3.27,3.3,3.19,0.0,1.0,2.0,0.0,0.0,20355639,0.0,78.23000000000002,6333.896834509427
1765915845668,0.0,0.0,1.0,10.0,0.0,0.0,0.0,0.0,0.0,0.0,0.0,0.0,0.0,0.0,0.0,0.0,0.0,0.0,-0.044164,-0.059047999999999996,1.018578,0.6300000000000001,-0.35000000000000003,0.0,25.0,3.24,3.29,3.19,3.22,3.26,3.24,3.26,3.3,3.27,3.28,3.27,3.26,3.26,3.28,3.21,3.25,3.27,3.26,3.27,3.23,3.29,3.28,3.28,3.27,3.3,3.19,0.0,1.0,2.0,0.0,0.0,20355656,0.0,78.23000000000002,6333.896834509427
1765915845685,0.0,0.0,1.0,10.0,0.0,0.0,0.0,0.0,0.0,0.0,0.0,0.0,0.0,0.0,0.0,0.0,0.0,0.0,-0.049776,-0.052948,1.006866,0.6300000000000001,-0.35000000000000003,0.0,25.0,3.24,3.29,3.19,3.22,3.26,3.24,3.26,3.3,3.27,3.28,3.27,3.26,3.26,3.28,3.21,3.25,3.27,3.26,3.27,3.23,3.29,3.28,3.28,3.27,3.3,3.19,0.0,1.0,2.0,0.0,0.0,20355673,0.0,78.23000000000002,6333.896834509427
1765915845701,0.0,0.0,1.0,10.0,0.0,0.0,0.0,0.0,0.0,0.0,0.0,0.0,0.0,0.0,0.0,0.0,0.0,0.0,-0.049776,-0.052948,1.006866,0.6300000000000001,-0.35000000000000003,0.0,25.0,3.24,3.29,3.19,3.22,3.26,3.24,3.26,3.3,3.27,3.28,3.27,3.26,3.26,3.28,3.21,3.25,3.27,3.26,3.27,3.23,3.29,3.28,3.28,3.27,3.3,3.19,0.0,1.0,2.0,0.0,0.0,20355689,0.0,78.23000000000002,6333.896834509427
1765915845734,0.0,0.0,1.0,10.0,0.0,0.0,0.0,0.0,0.0,0.0,0.0,0.0,0.0,0.0,0.0,0.0,0.0,0.0,-0.049776,-0.052948,1.006866,0.7000000000000001,-0.21000000000000002,0.14,25.0,3.24,3.29,3.19,3.22,3.26,3.24,3.26,3.3,3.27,3.28,3.27,3.26,3.26,3.28,3.21,3.25,3.27,3.26,3.27,3.23,3.29,3.28,3.28,3.27,3.3,3.19,0.0,1.0,2.0,0.0,0.0,20355722,0.0,78.23000000000002,6333.896834509427
1765915845768,0.0,0.0,1.0,10.0,0.0,0.0,0.0,0.0,0.0,0.0,0.0,0.0,0.0,0.0,0.0,0.0,0.0,0.0,-0.049776,-0.052948,1.006866,0.7000000000000001,-0.21000000000000002,0.14,25.0,3.24,3.29,3.19,3.22,3.26,3.24,3.26,3.3,3.27,3.28,3.27,3.26,3.26,3.28,3.21,3.25,3.27,3.26,3.27,3.23,3.29,3.28,3.28,3.27,3.3,3.19,0.0,1.0,2.0,0.0,0.0,20355756,0.0,78.23000000000002,6333.896834509427
1765915845801,0.0,0.0,1.0,10.0,0.0,0.0,0.0,0.0,0.0,0.0,0.0,0.0,0.0,0.0,0.0,0.0,0.0,0.0,-0.049776,-0.052948,1.006866,0.7000000000000001,-0.21000000000000002,0.14,25.0,3.24,3.29,3.19,3.22,3.26,3.24,3.26,3.3,3.27,3.28,3.27,3.26,3.26,3.28,3.21,3.25,3.27,3.26,3.27,3.23,3.29,3.28,3.28,3.27,3.3,3.19,0.0,1.0,2.0,0.0,0.0,20355789,0.0,78.23000000000002,6333.896834509427
1765915845852,0.0,0.0,1.0,10.0,0.0,0.0,0.0,0.0,0.0,0.0,0.0,0.0,0.0,0.0,0.0,0.0,0.0,0.0,-0.056852,-0.052948,1.014552,0.7000000000000001,-0.21000000000000002,0.14,25.0,3.24,3.29,3.19,3.22,3.26,3.24,3.26,3.3,3.27,3.28,3.27,3.26,3.26,3.28,3.21,3.25,3.27,3.26,3.27,3.23,3.29,3.28,3.28,3.27,3.3,3.19,0.0,1.0,2.0,0.0,0.0,20355840,0.0,78.23000000000002,6333.896834509427
1765915845868,0.0,0.0,1.0,10.0,0.0,0.0,0.0,0.0,0.0,0.0,0.0,0.0,0.0,0.0,0.0,0.0,0.0,0.0,-0.056852,-0.052948,1.014552,0.56,-0.49000000000000005,0.21000000000000002,25.0,3.24,3.29,3.19,3.22,3.26,3.24,3.26,3.3,3.27,3.28,3.27,3.26,3.26,3.28,3.21,3.25,3.27,3.26,3.27,3.23,3.29,3.28,3.28,3.27,3.3,3.19,0.0,1.0,2.0,0.0,0.0,20355856,0.0,78.23000000000002,6333.896834509427
1765915845885,0.0,0.0,1.0,10.0,0.0,0.0,0.0,0.0,0.0,0.0,0.0,0.0,0.0,0.0,0.0,0.0,0.0,0.0,-0.056852,-0.052948,1.014552,0.56,-0.49000000000000005,0.21000000000000002,25.0,3.24,3.29,3.19,3.22,3.26,3.24,3.26,3.3,3.27,3.28,3.27,3.26,3.26,3.28,3.21,3.25,3.27,3.26,3.27,3.23,3.29,3.28,3.28,3.27,3.3,3.19,0.0,1.0,2.0,0.0,0.0,20355873,0.0,78.23000000000002,6333.896834509427
1765915845918,0.0,0.0,1.0,10.0,0.0,0.0,0.0,0.0,0.0,0.0,0.0,0.0,0.0,0.0,0.0,0.0,0.0,0.0,-0.056852,-0.052948,1.014552,0.56,-0.49000000000000005,0.21000000000000002,25.0,3.24,3.29,3.19,3.22,3.26,3.24,3.26,3.3,3.27,3.28,3.27,3.26,3.26,3.28,3.21,3.25,3.27,3.26,3.27,3.23,3.29,3.28,3.28,3.27,3.3,3.19,0.0,1.0,2.0,0.0,0.0,20355906,0.0,78.23000000000002,6333.896834509427
1765915845934,0.0,0.0,1.0,10.0,0.0,0.0,0.0,0.0,0.0,0.0,0.0,0.0,0.0,0.0,0.0,0.0,0.0,0.0,-0.056852,-0.052948,1.014552,0.56,-0.49000000000000005,0.21000000000000002,25.0,3.24,3.29,3.19,3.22,3.26,3.24,3.26,3.3,3.27,3.28,3.27,3.26,3.26,3.28,3.21,3.25,3.27,3.26,3.27,3.23,3.29,3.28,3.28,3.27,3.3,3.19,0.0,1.0,2.0,0.0,0.0,20355922,0.0,78.23000000000002,6333.896834509427
1765915845952,0.0,0.0,1.0,10.0,0.0,0.0,0.0,0.0,0.0,0.0,0.0,0.0,0.0,0.0,0.0,0.0,0.0,0.0,-0.056852,-0.052948,1.014552,0.56,-0.49000000000000005,0.21000000000000002,25.0,3.24,3.29,3.19,3.22,3.26,3.24,3.26,3.3,3.27,3.28,3.27,3.26,3.26,3.28,3.21,3.25,3.27,3.26,3.27,3.23,3.29,3.28,3.28,3.27,3.3,3.19,0.0,1.0,2.0,0.0,0.0,20355940,0.0,78.23000000000002,6333.896834509427
1765915845985,0.0,0.0,1.0,10.0,0.0,0.0,0.0,0.0,0.0,0.0,0.0,0.0,0.0,0.0,0.0,0.0,0.0,0.0,-0.056852,-0.052948,1.014552,0.56,-0.49000000000000005,0.21000000000000002,25.0,3.24,3.29,3.19,3.22,3.26,3.24,3.26,3.3,3.27,3.28,3.27,3.26,3.26,3.28,3.21,3.25,3.27,3.26,3.27,3.23,3.29,3.28,3.28,3.27,3.3,3.19,0.0,1.0,2.0,0.0,0.0,20355973,0.0,78.23000000000002,6333.896834509427
1765915846018,0.0,0.0,1.0,10.0,0.0,0.0,0.0,0.0,0.0,0.0,0.0,0.0,0.0,0.0,0.0,0.0,0.0,0.0,-0.055265999999999996,-0.055876,1.015894,0.56,-0.49000000000000005,0.21000000000000002,25.0,3.24,3.29,3.19,3.22,3.26,3.24,3.26,3.3,3.27,3.28,3.27,3.26,3.26,3.28,3.21,3.25,3.27,3.26,3.27,3.23,3.29,3.28,3.28,3.27,3.3,3.19,0.0,1.0,2.0,0.0,0.0,20356006,0.0,78.23000000000002,6333.896834509427
1765915846052,0.0,0.0,1.0,10.0,0.0,0.0,0.0,0.0,0.0,0.0,0.0,0.0,0.0,0.0,0.0,0.0,0.0,0.0,-0.055265999999999996,-0.055876,1.015894,0.56,-0.49000000000000005,0.21000000000000002,25.0,3.24,3.29,3.19,3.22,3.26,3.24,3.26,3.3,3.27,3.28,3.27,3.26,3.26,3.28,3.21,3.25,3.27,3.26,3.27,3.23,3.29,3.28,3.28,3.27,3.3,3.19,0.0,1.0,2.0,0.0,0.0,20356040,0.0,78.23000000000002,6333.896834509427
1765915846084,0.0,0.0,1.0,10.0,0.0,0.0,0.0,0.0,0.0,0.0,0.0,0.0,0.0,0.0,0.0,0.0,0.0,0.0,-0.055265999999999996,-0.055876,1.015894,0.6300000000000001,-0.42000000000000004,0.0,25.0,3.24,3.29,3.19,3.22,3.26,3.24,3.26,3.3,3.27,3.28,3.27,3.26,3.26,3.28,3.21,3.25,3.27,3.26,3.27,3.23,3.29,3.28,3.28,3.27,3.3,3.19,0.0,1.0,2.0,0.0,0.0,20356072,0.0,78.23000000000002,6333.896834509427
1765915846118,0.0,0.0,1.0,10.0,0.0,0.0,0.0,0.0,0.0,0.0,0.0,0.0,0.0,0.0,0.0,0.0,0.0,0.0,-0.055265999999999996,-0.055876,1.015894,0.6300000000000001,-0.42000000000000004,0.0,25.0,3.24,3.29,3.19,3.22,3.26,3.24,3.26,3.3,3.27,3.28,3.27,3.26,3.26,3.28,3.21,3.25,3.27,3.26,3.27,3.23,3.29,3.28,3.28,3.27,3.3,3.19,0.0,1.0,2.0,0.0,0.0,20356106,0.0,78.23000000000002,6333.896834509427
1765915846151,0.0,0.0,1.0,10.0,0.0,0.0,0.0,0.0,0.0,0.0,0.0,0.0,0.0,0.0,0.0,0.0,0.0,0.0,-0.05795,-0.057096,1.00467,0.6300000000000001,-0.42000000000000004,0.0,25.0,3.24,3.29,3.19,3.22,3.26,3.24,3.26,3.3,3.27,3.28,3.27,3.26,3.26,3.28,3.21,3.25,3.27,3.26,3.27,3.23,3.29,3.28,3.28,3.27,3.3,3.19,0.0,1.0,2.0,0.0,0.0,20356139,0.0,78.23000000000002,6333.896834509427
1765915846185,0.0,0.0,1.0,10.0,0.0,0.0,0.0,0.0,0.0,0.0,0.0,0.0,0.0,0.0,0.0,0.0,0.0,0.0,-0.04026,-0.056242,1.016748,0.6300000000000001,-0.42000000000000004,0.0,25.0,3.24,3.29,3.19,3.22,3.26,3.24,3.26,3.3,3.27,3.28,3.27,3.26,3.26,3.28,3.21,3.25,3.27,3.26,3.27,3.23,3.29,3.28,3.28,3.27,3.3,3.19,0.0,1.0,2.0,0.0,0.0,20356173,0.0,78.23000000000002,6333.896834509427
1765915846203,0.0,0.0,1.0,10.0,0.0,0.0,0.0,0.0,0.0,0.0,0.0,0.0,0.0,0.0,0.0,0.0,0.0,0.0,-0.04026,-0.056242,1.016748,0.56,-0.35000000000000003,0.14,25.0,3.24,3.29,3.19,3.22,3.26,3.24,3.26,3.3,3.27,3.28,3.27,3.26,3.26,3.28,3.21,3.25,3.27,3.26,3.27,3.23,3.29,3.28,3.28,3.27,3.3,3.19,0.0,1.0,2.0,0.0,0.0,20356191,0.0,78.23000000000002,6333.896834509427
1765915846218,0.0,0.0,1.0,10.0,0.0,0.0,0.0,0.0,0.0,0.0,0.0,0.0,0.0,0.0,0.0,0.0,0.0,0.0,-0.04026,-0.056242,1.016748,0.56,-0.35000000000000003,0.14,25.0,3.24,3.29,3.19,3.22,3.26,3.24,3.26,3.3,3.27,3.28,3.27,3.26,3.26,3.28,3.21,3.25,3.27,3.26,3.27,3.23,3.29,3.28,3.28,3.27,3.3,3.19,0.0,1.0,2.0,0.0,0.0,20356206,0.0,78.23000000000002,6333.896834509427
1765915846235,0.0,0.0,1.0,10.0,0.0,0.0,0.0,0.0,0.0,0.0,0.0,0.0,0.0,0.0,0.0,0.0,0.0,0.0,-0.04026,-0.056242,1.016748,0.56,-0.35000000000000003,0.14,25.0,3.24,3.29,3.19,3.22,3.26,3.24,3.26,3.3,3.27,3.28,3.27,3.26,3.26,3.28,3.21,3.25,3.27,3.26,3.27,3.23,3.29,3.28,3.28,3.27,3.3,3.19,0.0,1.0,2.0,0.0,0.0,20356223,0.0,78.23000000000002,6333.896834509427
1765915846251,0.0,0.0,1.0,10.0,0.0,0.0,0.0,0.0,0.0,0.0,0.0,0.0,0.0,0.0,0.0,0.0,0.0,0.0,-0.04026,-0.056242,1.016748,0.56,-0.35000000000000003,0.14,25.0,3.24,3.29,3.19,3.22,3.26,3.24,3.26,3.3,3.27,3.28,3.27,3.26,3.26,3.28,3.21,3.25,3.27,3.26,3.27,3.23,3.29,3.28,3.28,3.27,3.3,3.19,0.0,1.0,2.0,0.0,0.0,20356239,0.0,78.23000000000002,6333.896834509427
1765915846268,0.0,0.0,1.0,10.0,0.0,0.0,0.0,0.0,0.0,0.0,0.0,0.0,0.0,0.0,0.0,0.0,0.0,0.0,-0.04026,-0.056242,1.016748,0.56,-0.35000000000000003,0.14,25.0,3.24,3.29,3.19,3.22,3.26,3.24,3.26,3.3,3.27,3.28,3.27,3.26,3.26,3.28,3.21,3.25,3.27,3.26,3.27,3.23,3.29,3.28,3.28,3.27,3.3,3.19,0.0,1.0,2.0,0.0,0.0,20356256,0.0,78.23000000000002,6333.896834509427
1765915846284,0.0,0.0,1.0,10.0,0.0,0.0,0.0,0.0,0.0,0.0,0.0,0.0,0.0,0.0,0.0,0.0,0.0,0.0,-0.04026,-0.056242,1.016748,0.56,-0.35000000000000003,0.14,25.0,3.24,3.29,3.19,3.22,3.26,3.24,3.26,3.3,3.27,3.28,3.27,3.26,3.26,3.28,3.21,3.25,3.27,3.26,3.27,3.23,3.29,3.28,3.28,3.27,3.3,3.19,0.0,1.0,2.0,0.0,0.0,20356272,0.0,78.23000000000002,6333.896834509427
1765915846301,0.0,0.0,1.0,10.0,0.0,0.0,0.0,0.0,0.0,0.0,0.0,0.0,0.0,0.0,0.0,0.0,0.0,0.0,-0.04026,-0.056242,1.016748,0.56,-0.35000000000000003,0.14,25.0,3.24,3.29,3.19,3.22,3.26,3.24,3.26,3.3,3.27,3.28,3.27,3.26,3.26,3.28,3.21,3.25,3.27,3.26,3.27,3.23,3.29,3.28,3.28,3.27,3.3,3.19,0.0,1.0,2.0,0.0,0.0,20356289,0.0,78.23000000000002,6333.896834509427
1765915846368,0.0,0.0,1.0,10.0,0.0,0.0,0.0,0.0,0.0,0.0,0.0,0.0,0.0,0.0,0.0,0.0,0.0,0.0,-0.05368,-0.055754,1.005158,0.56,-0.35000000000000003,0.14,25.0,3.24,3.29,3.19,3.22,3.26,3.24,3.26,3.3,3.27,3.28,3.27,3.26,3.26,3.28,3.21,3.25,3.27,3.26,3.27,3.23,3.29,3.28,3.28,3.27,3.3,3.19,0.0,1.0,2.0,0.0,0.0,20356356,0.0,78.23000000000002,6333.896834509427
1765915846419,0.0,0.0,1.0,10.0,0.0,0.0,0.0,0.0,0.0,0.0,0.0,0.0,0.0,0.0,0.0,0.0,0.0,0.0,-0.05368,-0.055754,1.005158,0.6300000000000001,-0.35000000000000003,0.14,25.0,3.24,3.29,3.19,3.22,3.26,3.24,3.26,3.3,3.27,3.28,3.27,3.26,3.26,3.28,3.21,3.25,3.27,3.26,3.27,3.23,3.29,3.28,3.28,3.27,3.3,3.19,0.0,1.0,2.0,0.0,0.0,20356407,0.0,78.23000000000002,6333.896834509427
1765915846451,0.0,0.0,1.0,10.0,0.0,0.0,0.0,0.0,0.0,0.0,0.0,0.0,0.0,0.0,0.0,0.0,0.0,0.0,-0.05368,-0.055754,1.005158,0.6300000000000001,-0.35000000000000003,0.14,25.0,3.24,3.29,3.19,3.22,3.26,3.24,3.26,3.3,3.27,3.28,3.27,3.26,3.26,3.28,3.21,3.25,3.27,3.26,3.27,3.23,3.29,3.28,3.28,3.27,3.3,3.19,0.0,1.0,2.0,0.0,0.0,20356439,0.0,78.23000000000002,6333.896834509427
1765915846485,0.0,0.0,1.0,10.0,0.0,0.0,0.0,0.0,0.0,0.0,0.0,0.0,0.0,0.0,0.0,0.0,0.0,0.0,-0.056608,-0.055144,1.014308,0.56,-0.42000000000000004,0.14,25.0,3.24,3.29,3.19,3.22,3.26,3.24,3.26,3.3,3.27,3.28,3.27,3.26,3.26,3.28,3.21,3.25,3.27,3.26,3.27,3.23,3.29,3.28,3.28,3.27,3.3,3.19,0.0,1.0,2.0,0.0,0.0,20356473,0.0,78.23000000000002,6333.896834509427
1765915846518,0.0,0.0,1.0,10.0,0.0,0.0,0.0,0.0,0.0,0.0,0.0,0.0,0.0,0.0,0.0,0.0,0.0,0.0,-0.056608,-0.055144,1.014308,0.56,-0.42000000000000004,0.14,25.0,3.24,3.29,3.19,3.22,3.26,3.24,3.26,3.3,3.27,3.28,3.27,3.26,3.26,3.28,3.21,3.25,3.27,3.26,3.27,3.23,3.29,3.28,3.28,3.27,3.3,3.19,0.0,1.0,2.0,0.0,0.0,20356506,0.0,78.23000000000002,6333.896834509427
1765915846535,0.0,0.0,1.0,10.0,0.0,0.0,0.0,0.0,0.0,0.0,0.0,0.0,0.0,0.0,0.0,0.0,0.0,0.0,-0.056608,-0.055144,1.014308,0.56,-0.42000000000000004,0.14,25.0,3.24,3.29,3.19,3.22,3.26,3.24,3.26,3.3,3.27,3.28,3.27,3.26,3.26,3.28,3.21,3.25,3.27,3.26,3.27,3.23,3.29,3.28,3.28,3.27,3.3,3.19,0.0,1.0,2.0,0.0,0.0,20356523,0.0,78.23000000000002,6333.896834509427
1765915846551,0.0,0.0,1.0,10.0,0.0,0.0,0.0,0.0,0.0,0.0,0.0,0.0,0.0,0.0,0.0,0.0,0.0,0.0,-0.056608,-0.055144,1.014308,0.56,-0.42000000000000004,0.14,25.0,3.24,3.29,3.19,3.22,3.26,3.24,3.26,3.3,3.27,3.28,3.27,3.26,3.26,3.28,3.21,3.25,3.27,3.26,3.27,3.23,3.29,3.28,3.28,3.27,3.3,3.19,0.0,1.0,2.0,0.0,0.0,20356539,0.0,78.23000000000002,6333.896834509427
1765915846567,0.0,0.0,1.0,10.0,0.0,0.0,0.0,0.0,0.0,0.0,0.0,0.0,0.0,0.0,0.0,0.0,0.0,0.0,-0.056608,-0.055144,1.014308,0.56,-0.42000000000000004,0.14,25.0,3.24,3.29,3.19,3.22,3.26,3.24,3.26,3.3,3.27,3.28,3.27,3.26,3.26,3.28,3.21,3.25,3.27,3.26,3.27,3.23,3.29,3.28,3.28,3.27,3.3,3.19,0.0,1.0,2.0,0.0,0.0,20356555,0.0,78.23000000000002,6333.896834509427
1765915846601,0.0,0.0,1.0,10.0,0.0,0.0,0.0,0.0,0.0,0.0,0.0,0.0,0.0,0.0,0.0,0.0,0.0,0.0,-0.056608,-0.055144,1.014308,0.56,-0.42000000000000004,0.14,25.0,3.24,3.29,3.19,3.22,3.26,3.24,3.26,3.3,3.27,3.28,3.27,3.26,3.26,3.28,3.21,3.25,3.27,3.26,3.27,3.23,3.29,3.28,3.28,3.27,3.3,3.19,0.0,1.0,2.0,0.0,0.0,20356589,0.0,78.23000000000002,6333.896834509427
1765915846651,0.0,0.0,1.0,10.0,0.0,0.0,0.0,0.0,0.0,0.0,0.0,0.0,0.0,0.0,0.0,0.0,0.0,0.0,-0.056608,-0.055144,1.014308,0.56,-0.42000000000000004,0.14,25.0,3.24,3.29,3.19,3.22,3.26,3.24,3.26,3.3,3.27,3.28,3.27,3.26,3.26,3.28,3.21,3.25,3.27,3.26,3.27,3.23,3.29,3.28,3.28,3.27,3.3,3.19,0.0,1.0,2.0,0.0,0.0,20356639,0.0,78.23000000000002,6333.896834509427
1765915846702,0.0,0.0,1.0,10.0,0.0,0.0,0.0,0.0,0.0,0.0,0.0,0.0,0.0,0.0,0.0,0.0,0.0,0.0,-0.056974,-0.054778,1.0065,0.56,-0.42000000000000004,0.14,25.0,3.24,3.29,3.19,3.22,3.26,3.24,3.26,3.3,3.27,3.28,3.27,3.26,3.26,3.28,3.21,3.25,3.27,3.26,3.27,3.23,3.29,3.28,3.28,3.27,3.3,3.19,0.0,1.0,2.0,0.0,0.0,20356690,0.0,78.23000000000002,6333.896834509427
1765915846735,0.0,0.0,1.0,10.0,0.0,0.0,0.0,0.0,0.0,0.0,0.0,0.0,0.0,0.0,0.0,0.0,0.0,0.0,-0.056974,-0.054778,1.0065,0.7000000000000001,-0.28,0.14,25.0,3.24,3.29,3.19,3.22,3.26,3.24,3.26,3.3,3.27,3.28,3.27,3.26,3.26,3.28,3.21,3.25,3.27,3.26,3.27,3.23,3.29,3.28,3.28,3.27,3.3,3.19,0.0,1.0,2.0,0.0,0.0,20356723,0.0,78.23000000000002,6333.896834509427
1765915846784,0.0,0.0,1.0,10.0,0.0,0.0,0.0,0.0,0.0,0.0,0.0,0.0,0.0,0.0,0.0,0.0,0.0,0.0,-0.066246,-0.05856,1.009916,0.7000000000000001,-0.28,0.14,25.0,3.24,3.29,3.19,3.22,3.26,3.24,3.26,3.3,3.27,3.28,3.27,3.26,3.26,3.28,3.21,3.25,3.27,3.26,3.27,3.23,3.29,3.28,3.28,3.27,3.3,3.19,0.0,1.0,2.0,0.0,0.0,20356772,0.0,78.23000000000002,6333.896834509427
1765915846801,0.0,0.0,1.0,10.0,0.0,0.0,0.0,0.0,0.0,0.0,0.0,0.0,0.0,0.0,0.0,0.0,0.0,0.0,-0.066246,-0.05856,1.009916,0.7000000000000001,-0.28,0.14,25.0,3.24,3.29,3.19,3.22,3.26,3.24,3.26,3.3,3.27,3.28,3.27,3.26,3.26,3.28,3.21,3.25,3.27,3.26,3.27,3.23,3.29,3.28,3.28,3.27,3.3,3.19,0.0,1.0,2.0,0.0,0.0,20356789,0.0,78.23000000000002,6333.896834509427
1765915846835,0.0,0.0,1.0,10.0,0.0,0.0,0.0,0.0,0.0,0.0,0.0,0.0,0.0,0.0,0.0,0.0,0.0,0.0,-0.066246,-0.05856,1.009916,0.56,-0.42000000000000004,0.14,25.0,3.24,3.29,3.19,3.22,3.26,3.24,3.26,3.3,3.27,3.28,3.27,3.26,3.26,3.28,3.21,3.25,3.27,3.26,3.27,3.23,3.29,3.28,3.28,3.27,3.3,3.19,0.0,1.0,2.0,0.0,0.0,20356823,0.0,78.23000000000002,6333.896834509427
1765915846852,0.0,0.0,1.0,10.0,0.0,0.0,0.0,0.0,0.0,0.0,0.0,0.0,0.0,0.0,0.0,0.0,0.0,0.0,-0.066246,-0.05856,1.009916,0.56,-0.42000000000000004,0.14,25.0,3.24,3.29,3.19,3.22,3.26,3.24,3.26,3.3,3.27,3.28,3.27,3.26,3.26,3.28,3.21,3.25,3.27,3.26,3.27,3.23,3.29,3.28,3.28,3.27,3.3,3.19,0.0,1.0,2.0,0.0,0.0,20356840,0.0,78.23000000000002,6333.896834509427
1765915846869,0.0,0.0,1.0,10.0,0.0,0.0,0.0,0.0,0.0,0.0,0.0,0.0,0.0,0.0,0.0,0.0,0.0,0.0,-0.066246,-0.05856,1.009916,0.56,-0.42000000000000004,0.14,25.0,3.24,3.29,3.19,3.22,3.26,3.24,3.26,3.3,3.27,3.28,3.27,3.26,3.26,3.28,3.21,3.25,3.27,3.26,3.27,3.23,3.29,3.28,3.28,3.27,3.3,3.19,0.0,1.0,2.0,0.0,0.0,20356857,0.0,78.23000000000002,6333.896834509427
1765915846885,0.0,0.0,1.0,10.0,0.0,0.0,0.0,0.0,0.0,0.0,0.0,0.0,0.0,0.0,0.0,0.0,0.0,0.0,-0.066246,-0.05856,1.009916,0.56,-0.42000000000000004,0.14,25.0,3.24,3.29,3.19,3.22,3.26,3.24,3.26,3.3,3.27,3.28,3.27,3.26,3.26,3.28,3.21,3.25,3.27,3.26,3.27,3.23,3.29,3.28,3.28,3.27,3.3,3.19,0.0,1.0,2.0,0.0,0.0,20356873,0.0,78.23000000000002,6333.896834509427
1765915846901,0.0,0.0,1.0,10.0,0.0,0.0,0.0,0.0,0.0,0.0,0.0,0.0,0.0,0.0,0.0,0.0,0.0,0.0,-0.066246,-0.05856,1.009916,0.56,-0.42000000000000004,0.14,25.0,3.24,3.29,3.19,3.22,3.26,3.24,3.26,3.3,3.27,3.28,3.27,3.26,3.26,3.28,3.21,3.25,3.27,3.26,3.27,3.23,3.29,3.28,3.28,3.27,3.3,3.19,0.0,1.0,2.0,0.0,0.0,20356889,0.0,78.23000000000002,6333.896834509427
1765915846918,0.0,0.0,1.0,10.0,0.0,0.0,0.0,0.0,0.0,0.0,0.0,0.0,0.0,0.0,0.0,0.0,0.0,0.0,-0.066246,-0.05856,1.009916,0.56,-0.42000000000000004,0.14,25.0,3.24,3.29,3.19,3.22,3.26,3.24,3.26,3.3,3.27,3.28,3.27,3.26,3.26,3.28,3.21,3.25,3.27,3.26,3.27,3.23,3.29,3.28,3.28,3.27,3.3,3.19,0.0,1.0,2.0,0.0,0.0,20356906,0.0,78.23000000000002,6333.896834509427
1765915846968,0.0,0.0,1.0,10.0,0.0,0.0,0.0,0.0,0.0,0.0,0.0,0.0,0.0,0.0,0.0,0.0,0.0,0.0,-0.066246,-0.05856,1.009916,0.56,-0.42000000000000004,0.14,25.0,3.24,3.29,3.19,3.22,3.26,3.24,3.26,3.3,3.27,3.28,3.27,3.26,3.26,3.28,3.21,3.25,3.27,3.26,3.27,3.23,3.29,3.28,3.28,3.27,3.3,3.19,0.0,1.0,2.0,0.0,0.0,20356956,0.0,78.23000000000002,6333.896834509427
1765915847034,0.0,0.0,1.0,10.0,0.0,0.0,0.0,0.0,0.0,0.0,0.0,0.0,0.0,0.0,0.0,0.0,0.0,0.0,-0.067832,-0.054534,0.999668,0.56,-0.42000000000000004,0.14,25.0,3.24,3.29,3.19,3.22,3.26,3.24,3.26,3.3,3.27,3.28,3.27,3.26,3.26,3.28,3.21,3.25,3.27,3.26,3.27,3.23,3.29,3.28,3.28,3.27,3.3,3.19,0.0,1.0,2.0,0.0,0.0,20357022,0.0,78.23000000000002,6333.896834509427
1765915847052,0.0,0.0,1.0,10.0,0.0,0.0,0.0,0.0,0.0,0.0,0.0,0.0,0.0,0.0,0.0,0.0,0.0,0.0,-0.067832,-0.054534,0.999668,0.35000000000000003,-0.7000000000000001,0.14,25.0,3.24,3.29,3.19,3.22,3.26,3.24,3.26,3.3,3.27,3.28,3.27,3.26,3.26,3.28,3.21,3.25,3.27,3.26,3.27,3.23,3.29,3.28,3.28,3.27,3.3,3.19,0.0,1.0,2.0,0.0,0.0,20357040,0.0,78.23000000000002,6333.896834509427
1765915847068,0.0,0.0,1.0,10.0,0.0,0.0,0.0,0.0,0.0,0.0,0.0,0.0,0.0,0.0,0.0,0.0,0.0,0.0,-0.067832,-0.054534,0.999668,0.35000000000000003,-0.7000000000000001,0.14,25.0,3.24,3.29,3.19,3.22,3.26,3.24,3.26,3.3,3.27,3.28,3.27,3.26,3.26,3.28,3.21,3.25,3.27,3.26,3.27,3.23,3.29,3.28,3.28,3.27,3.3,3.19,0.0,1.0,2.0,0.0,0.0,20357056,0.0,78.23000000000002,6333.896834509427
1765915847101,0.0,0.0,1.0,10.0,0.0,0.0,0.0,0.0,0.0,0.0,0.0,0.0,0.0,0.0,0.0,0.0,0.0,0.0,-0.069662,-0.051118,0.987834,0.35000000000000003,-0.7000000000000001,0.14,25.0,3.24,3.29,3.19,3.22,3.26,3.24,3.26,3.3,3.27,3.28,3.27,3.26,3.26,3.28,3.21,3.25,3.27,3.26,3.27,3.23,3.29,3.28,3.28,3.27,3.3,3.19,0.0,1.0,2.0,0.0,0.0,20357089,0.0,78.23000000000002,6333.896834509427
1765915847118,0.0,0.0,1.0,10.0,0.0,0.0,0.0,0.0,0.0,0.0,0.0,0.0,0.0,0.0,0.0,0.0,0.0,0.0,-0.069662,-0.051118,0.987834,0.35000000000000003,-0.7000000000000001,0.14,25.0,3.24,3.29,3.19,3.22,3.26,3.24,3.26,3.3,3.27,3.28,3.27,3.26,3.26,3.28,3.21,3.25,3.27,3.26,3.27,3.23,3.29,3.28,3.28,3.27,3.3,3.19,0.0,1.0,2.0,0.0,0.0,20357106,0.0,78.23000000000002,6333.896834509427
1765915847135,0.0,0.0,1.0,10.0,0.0,0.0,0.0,0.0,0.0,0.0,0.0,0.0,0.0,0.0,0.0,0.0,0.0,0.0,-0.069662,-0.051118,0.987834,0.35000000000000003,-0.7000000000000001,0.14,25.0,3.24,3.29,3.19,3.22,3.26,3.24,3.26,3.3,3.27,3.28,3.27,3.26,3.26,3.28,3.21,3.25,3.27,3.26,3.27,3.23,3.29,3.28,3.28,3.27,3.3,3.19,0.0,1.0,2.0,0.0,0.0,20357123,0.0,78.23000000000002,6333.896834509427
1765915847152,0.0,0.0,1.0,10.0,0.0,0.0,0.0,0.0,0.0,0.0,0.0,0.0,0.0,0.0,0.0,0.0,0.0,0.0,-0.069662,-0.051118,0.987834,0.35000000000000003,-0.7000000000000001,0.14,25.0,3.24,3.29,3.19,3.22,3.26,3.24,3.26,3.3,3.27,3.28,3.27,3.26,3.26,3.28,3.21,3.25,3.27,3.26,3.27,3.23,3.29,3.28,3.28,3.27,3.3,3.19,0.0,1.0,2.0,0.0,0.0,20357140,0.0,78.23000000000002,6333.896834509427
1765915847168,0.0,0.0,1.0,10.0,0.0,0.0,0.0,0.0,0.0,0.0,0.0,0.0,0.0,0.0,0.0,0.0,0.0,0.0,-0.069662,-0.051118,0.987834,0.7000000000000001,-0.56,0.07,25.0,3.24,3.29,3.19,3.22,3.26,3.24,3.26,3.3,3.27,3.28,3.27,3.26,3.26,3.28,3.21,3.25,3.27,3.26,3.27,3.23,3.29,3.28,3.28,3.27,3.3,3.19,0.0,1.0,2.0,0.0,0.0,20357156,0.0,78.23000000000002,6333.896834509427
1765915847185,0.0,0.0,1.0,10.0,0.0,0.0,0.0,0.0,0.0,0.0,0.0,0.0,0.0,0.0,0.0,0.0,0.0,0.0,-0.069662,-0.051118,0.987834,0.7000000000000001,-0.56,0.07,25.0,3.24,3.29,3.19,3.22,3.26,3.24,3.26,3.3,3.27,3.28,3.27,3.26,3.26,3.28,3.21,3.25,3.27,3.26,3.27,3.23,3.29,3.28,3.28,3.27,3.3,3.19,0.0,1.0,2.0,0.0,0.0,20357173,0.0,78.23000000000002,6333.896834509427
1765915847235,0.0,0.0,1.0,10.0,0.0,0.0,0.0,0.0,0.0,0.0,0.0,0.0,0.0,0.0,0.0,0.0,0.0,0.0,-0.069662,-0.051118,0.987834,0.7000000000000001,-0.56,0.07,25.0,3.24,3.29,3.19,3.22,3.26,3.24,3.26,3.3,3.27,3.28,3.27,3.26,3.26,3.28,3.21,3.25,3.27,3.26,3.27,3.23,3.29,3.28,3.28,3.27,3.3,3.19,0.0,1.0,2.0,0.0,0.0,20357223,0.0,78.23000000000002,6333.896834509427
1765915847252,0.0,0.0,1.0,10.0,0.0,0.0,0.0,0.0,0.0,0.0,0.0,0.0,0.0,0.0,0.0,0.0,0.0,0.0,-0.069662,-0.051118,0.987834,0.7000000000000001,-0.56,0.07,25.0,3.24,3.29,3.19,3.22,3.26,3.24,3.26,3.3,3.27,3.28,3.27,3.26,3.26,3.28,3.21,3.25,3.27,3.26,3.27,3.23,3.29,3.28,3.28,3.27,3.3,3.19,0.0,1.0,2.0,0.0,0.0,20357240,0.0,78.23000000000002,6333.896834509427
1765915847334,0.0,0.0,1.0,10.0,0.0,0.0,0.0,0.0,0.0,0.0,0.0,0.0,0.0,0.0,0.0,0.0,0.0,0.0,-0.07015,-0.059292,1.023824,0.7000000000000001,-0.56,0.07,25.0,3.24,3.29,3.19,3.22,3.26,3.24,3.26,3.3,3.27,3.28,3.27,3.26,3.26,3.28,3.21,3.25,3.27,3.26,3.27,3.23,3.29,3.28,3.28,3.27,3.3,3.19,0.0,1.0,2.0,0.0,0.0,20357322,0.0,78.23000000000002,6333.896834509427
1765915847351,0.0,0.0,1.0,10.0,0.0,0.0,0.0,0.0,0.0,0.0,0.0,0.0,0.0,0.0,0.0,0.0,0.0,0.0,-0.07015,-0.059292,1.023824,0.9100000000000001,-0.28,-0.07,25.0,3.24,3.29,3.19,3.22,3.26,3.24,3.26,3.3,3.27,3.28,3.27,3.26,3.26,3.28,3.21,3.25,3.27,3.26,3.27,3.23,3.29,3.28,3.28,3.27,3.3,3.19,0.0,1.0,2.0,0.0,0.0,20357339,0.0,78.23000000000002,6333.896834509427
1765915847368,0.0,0.0,1.0,10.0,0.0,0.0,0.0,0.0,0.0,0.0,0.0,0.0,0.0,0.0,0.0,0.0,0.0,0.0,-0.07015,-0.059292,1.023824,0.9100000000000001,-0.28,-0.07,25.0,3.24,3.29,3.19,3.22,3.26,3.24,3.26,3.3,3.27,3.28,3.27,3.26,3.26,3.28,3.21,3.25,3.27,3.26,3.27,3.23,3.29,3.28,3.28,3.27,3.3,3.19,0.0,1.0,2.0,0.0,0.0,20357356,0.0,78.23000000000002,6333.896834509427
1765915847402,0.0,0.0,1.0,10.0,0.0,0.0,0.0,0.0,0.0,0.0,0.0,0.0,0.0,0.0,0.0,0.0,0.0,0.0,-0.07015,-0.059292,1.023824,0.9100000000000001,-0.28,-0.07,25.0,3.24,3.29,3.19,3.22,3.26,3.24,3.26,3.3,3.27,3.28,3.27,3.26,3.26,3.28,3.21,3.25,3.27,3.26,3.27,3.23,3.29,3.28,3.28,3.27,3.3,3.19,0.0,1.0,2.0,0.0,0.0,20357390,0.0,78.23000000000002,6333.896834509427
1765915847416,0.0,0.0,1.0,10.0,0.0,0.0,0.0,0.0,0.0,0.0,0.0,0.0,0.0,0.0,0.0,0.0,0.0,0.0,-0.07015,-0.059292,1.023824,0.9100000000000001,-0.28,-0.07,25.0,3.24,3.29,3.19,3.22,3.26,3.24,3.26,3.3,3.27,3.28,3.27,3.26,3.26,3.28,3.21,3.25,3.27,3.26,3.27,3.23,3.29,3.28,3.28,3.27,3.3,3.19,0.0,1.0,2.0,0.0,0.0,20357404,0.0,78.23000000000002,6333.896834509427
1765915847434,0.0,0.0,1.0,10.0,0.0,0.0,0.0,0.0,0.0,0.0,0.0,0.0,0.0,0.0,0.0,0.0,0.0,0.0,-0.07015,-0.059292,1.023824,0.9100000000000001,-0.28,-0.07,25.0,3.24,3.29,3.19,3.22,3.26,3.24,3.26,3.3,3.27,3.28,3.27,3.26,3.26,3.28,3.21,3.25,3.27,3.26,3.27,3.23,3.29,3.28,3.28,3.27,3.3,3.19,0.0,1.0,2.0,0.0,0.0,20357422,0.0,78.23000000000002,6333.896834509427
1765915847450,0.0,0.0,1.0,10.0,0.0,0.0,0.0,0.0,0.0,0.0,0.0,0.0,0.0,0.0,0.0,0.0,0.0,0.0,-0.057462,-0.063928,0.9916159999999999,0.9100000000000001,-0.28,-0.07,25.0,3.24,3.29,3.19,3.22,3.26,3.24,3.26,3.3,3.27,3.28,3.27,3.26,3.26,3.28,3.21,3.25,3.27,3.26,3.27,3.23,3.29,3.28,3.28,3.27,3.3,3.19,0.0,1.0,2.0,0.0,0.0,20357438,0.0,78.23000000000002,6333.896834509427
1765915847468,0.0,0.0,1.0,10.0,0.0,0.0,0.0,0.0,0.0,0.0,0.0,0.0,0.0,0.0,0.0,0.0,0.0,0.0,-0.057462,-0.063928,0.9916159999999999,0.9100000000000001,-0.28,-0.07,25.0,3.24,3.29,3.19,3.22,3.26,3.24,3.26,3.3,3.27,3.28,3.27,3.26,3.26,3.28,3.21,3.25,3.27,3.26,3.27,3.23,3.29,3.28,3.28,3.27,3.3,3.19,0.0,1.0,2.0,0.0,0.0,20357456,0.0,78.23000000000002,6333.896834509427
1765915847501,0.0,0.0,1.0,10.0,0.0,0.0,0.0,0.0,0.0,0.0,0.0,0.0,0.0,0.0,0.0,0.0,0.0,0.0,-0.057462,-0.063928,0.9916159999999999,0.6300000000000001,-0.42000000000000004,-0.07,25.0,3.24,3.29,3.19,3.22,3.26,3.24,3.26,3.3,3.27,3.28,3.27,3.26,3.26,3.28,3.21,3.25,3.27,3.26,3.27,3.23,3.29,3.28,3.28,3.27,3.3,3.19,0.0,1.0,2.0,0.0,0.0,20357489,0.0,78.23000000000002,6333.896834509427
1765915847535,0.0,0.0,1.0,10.0,0.0,0.0,0.0,0.0,0.0,0.0,0.0,0.0,0.0,0.0,0.0,0.0,0.0,0.0,-0.057462,-0.063928,0.9916159999999999,0.6300000000000001,-0.42000000000000004,-0.07,25.0,3.24,3.29,3.19,3.22,3.26,3.24,3.26,3.3,3.27,3.28,3.27,3.26,3.26,3.28,3.21,3.25,3.27,3.26,3.27,3.23,3.29,3.28,3.28,3.27,3.3,3.19,0.0,1.0,2.0,0.0,0.0,20357523,0.0,78.23000000000002,6333.896834509427
1765915847551,0.0,0.0,1.0,10.0,0.0,0.0,0.0,0.0,0.0,0.0,0.0,0.0,0.0,0.0,0.0,0.0,0.0,0.0,-0.057462,-0.063928,0.9916159999999999,0.6300000000000001,-0.42000000000000004,-0.07,25.0,3.24,3.29,3.19,3.22,3.26,3.24,3.26,3.3,3.27,3.28,3.27,3.26,3.26,3.28,3.21,3.25,3.27,3.26,3.27,3.23,3.29,3.28,3.28,3.27,3.3,3.19,0.0,1.0,2.0,0.0,0.0,20357539,0.0,78.23000000000002,6333.896834509427
1765915847586,0.0,0.0,1.0,10.0,0.0,0.0,0.0,0.0,0.0,0.0,0.0,0.0,0.0,0.0,0.0,0.0,0.0,0.0,-0.057462,-0.063928,0.9916159999999999,0.6300000000000001,-0.42000000000000004,-0.07,25.0,3.24,3.29,3.19,3.22,3.26,3.24,3.26,3.3,3.27,3.28,3.27,3.26,3.26,3.28,3.21,3.25,3.27,3.26,3.27,3.23,3.29,3.28,3.28,3.27,3.3,3.19,0.0,1.0,2.0,0.0,0.0,20357574,0.0,78.23000000000002,6333.896834509427
1765915847651,0.0,0.0,1.0,10.0,0.0,0.0,0.0,0.0,0.0,0.0,0.0,0.0,0.0,0.0,0.0,0.0,0.0,0.0,-0.04697,-0.057096,1.014186,0.6300000000000001,-0.42000000000000004,-0.07,25.0,3.24,3.29,3.19,3.22,3.26,3.24,3.26,3.3,3.27,3.28,3.27,3.26,3.26,3.28,3.21,3.25,3.27,3.26,3.27,3.23,3.29,3.28,3.28,3.27,3.3,3.19,0.0,1.0,2.0,0.0,0.0,20357639,0.0,78.23000000000002,6333.896834509427
1765915847668,0.0,0.0,1.0,10.0,0.0,0.0,0.0,0.0,0.0,0.0,0.0,0.0,0.0,0.0,0.0,0.0,0.0,0.0,-0.04697,-0.057096,1.014186,0.49000000000000005,-0.56,0.0,25.0,3.24,3.29,3.19,3.22,3.26,3.24,3.26,3.3,3.27,3.28,3.27,3.26,3.26,3.28,3.21,3.25,3.27,3.26,3.27,3.23,3.29,3.28,3.28,3.27,3.3,3.19,0.0,1.0,2.0,0.0,0.0,20357656,0.0,78.23000000000002,6333.896834509427
1765915847685,0.0,0.0,1.0,10.0,0.0,0.0,0.0,0.0,0.0,0.0,0.0,0.0,0.0,0.0,0.0,0.0,0.0,0.0,-0.04697,-0.057096,1.014186,0.49000000000000005,-0.56,0.0,25.0,3.24,3.29,3.19,3.22,3.26,3.24,3.26,3.3,3.27,3.28,3.27,3.26,3.26,3.28,3.21,3.25,3.27,3.26,3.27,3.23,3.29,3.28,3.28,3.27,3.3,3.19,0.0,1.0,2.0,0.0,0.0,20357673,0.0,78.23000000000002,6333.896834509427
1765915847719,0.0,0.0,1.0,10.0,0.0,0.0,0.0,0.0,0.0,0.0,0.0,0.0,0.0,0.0,0.0,0.0,0.0,0.0,-0.04697,-0.057096,1.014186,0.49000000000000005,-0.56,0.0,25.0,3.24,3.29,3.19,3.22,3.26,3.24,3.26,3.3,3.27,3.28,3.27,3.26,3.26,3.28,3.21,3.25,3.27,3.26,3.27,3.23,3.29,3.28,3.28,3.27,3.3,3.19,0.0,1.0,2.0,0.0,0.0,20357707,0.0,78.23000000000002,6333.896834509427
1765915847751,0.0,0.0,1.0,10.0,0.0,0.0,0.0,0.0,0.0,0.0,0.0,0.0,0.0,0.0,0.0,0.0,0.0,0.0,-0.04697,-0.057096,1.014186,0.49000000000000005,-0.56,0.0,25.0,3.24,3.29,3.19,3.22,3.26,3.24,3.26,3.3,3.27,3.28,3.27,3.26,3.26,3.28,3.21,3.25,3.27,3.26,3.27,3.23,3.29,3.28,3.28,3.27,3.3,3.19,0.0,1.0,2.0,0.0,0.0,20357739,0.0,78.23000000000002,6333.896834509427
1765915847785,0.0,0.0,1.0,10.0,0.0,0.0,0.0,0.0,0.0,0.0,0.0,0.0,0.0,0.0,0.0,0.0,0.0,0.0,-0.053924,-0.061121999999999996,1.011014,0.49000000000000005,-0.56,0.0,25.0,3.24,3.29,3.19,3.22,3.26,3.24,3.26,3.3,3.27,3.28,3.27,3.26,3.26,3.28,3.21,3.25,3.27,3.26,3.27,3.23,3.29,3.28,3.28,3.27,3.3,3.19,0.0,1.0,2.0,0.0,0.0,20357773,0.0,78.23000000000002,6333.896834509427
1765915847852,0.0,0.0,1.0,10.0,0.0,0.0,0.0,0.0,0.0,0.0,0.0,0.0,0.0,0.0,0.0,0.0,0.0,0.0,-0.053924,-0.061121999999999996,1.011014,0.56,-0.28,0.14,25.0,3.24,3.29,3.19,3.22,3.26,3.24,3.26,3.3,3.27,3.28,3.27,3.26,3.26,3.28,3.21,3.25,3.27,3.26,3.27,3.23,3.29,3.28,3.28,3.27,3.3,3.19,0.0,1.0,2.0,0.0,0.0,20357840,0.0,78.23000000000002,6333.896834509427
1765915847902,0.0,0.0,1.0,10.0,0.0,0.0,0.0,0.0,0.0,0.0,0.0,0.0,0.0,0.0,0.0,0.0,0.0,0.0,-0.053924,-0.061121999999999996,1.011014,0.56,-0.28,0.14,25.0,3.24,3.29,3.19,3.22,3.26,3.24,3.26,3.3,3.27,3.28,3.27,3.26,3.26,3.28,3.21,3.25,3.27,3.26,3.27,3.23,3.29,3.28,3.28,3.27,3.3,3.19,0.0,1.0,2.0,0.0,0.0,20357890,0.0,78.23000000000002,6333.896834509427
1765915847951,0.0,0.0,1.0,10.0,0.0,0.0,0.0,0.0,0.0,0.0,0.0,0.0,0.0,0.0,0.0,0.0,0.0,0.0,-0.059902,-0.054534,1.008086,0.56,-0.28,0.14,25.0,3.24,3.29,3.19,3.22,3.26,3.24,3.26,3.3,3.27,3.28,3.27,3.26,3.26,3.28,3.21,3.25,3.27,3.26,3.27,3.23,3.29,3.28,3.28,3.27,3.3,3.19,0.0,1.0,2.0,0.0,0.0,20357939,0.0,78.23000000000002,6333.896834509427
1765915847968,0.0,0.0,1.0,10.0,0.0,0.0,0.0,0.0,0.0,0.0,0.0,0.0,0.0,0.0,0.0,0.0,0.0,0.0,-0.059902,-0.054534,1.008086,0.56,-0.42000000000000004,0.14,25.0,3.24,3.29,3.19,3.22,3.26,3.24,3.26,3.3,3.27,3.28,3.27,3.26,3.26,3.28,3.21,3.25,3.27,3.26,3.27,3.23,3.29,3.28,3.28,3.27,3.3,3.19,0.0,1.0,2.0,0.0,0.0,20357956,0.0,78.23000000000002,6333.896834509427
1765915848002,0.0,0.0,1.0,10.0,0.0,0.0,0.0,0.0,0.0,0.0,0.0,0.0,0.0,0.0,0.0,0.0,0.0,0.0,-0.059902,-0.054534,1.008086,0.56,-0.42000000000000004,0.14,25.0,3.24,3.29,3.19,3.22,3.26,3.24,3.26,3.3,3.27,3.28,3.27,3.26,3.26,3.28,3.21,3.25,3.27,3.26,3.27,3.23,3.29,3.28,3.28,3.27,3.3,3.19,0.0,1.0,2.0,0.0,0.0,20357990,0.0,78.23000000000002,6333.896834509427
1765915848018,0.0,0.0,1.0,10.0,0.0,0.0,0.0,0.0,0.0,0.0,0.0,0.0,0.0,0.0,0.0,0.0,0.0,0.0,-0.059902,-0.054534,1.008086,0.56,-0.42000000000000004,0.14,25.0,3.24,3.29,3.19,3.22,3.26,3.24,3.26,3.3,3.27,3.28,3.27,3.26,3.26,3.28,3.21,3.25,3.27,3.26,3.27,3.23,3.29,3.28,3.28,3.27,3.3,3.19,0.0,1.0,2.0,0.0,0.0,20358006,0.0,78.23000000000002,6333.896834509427
1765915848035,0.0,0.0,1.0,10.0,0.0,0.0,0.0,0.0,0.0,0.0,0.0,0.0,0.0,0.0,0.0,0.0,0.0,0.0,-0.059902,-0.054534,1.008086,0.56,-0.42000000000000004,0.14,25.0,3.24,3.29,3.19,3.22,3.26,3.24,3.26,3.3,3.27,3.28,3.27,3.26,3.26,3.28,3.21,3.25,3.27,3.26,3.27,3.23,3.29,3.28,3.28,3.27,3.3,3.19,0.0,1.0,2.0,0.0,0.0,20358023,0.0,78.23000000000002,6333.896834509427
1765915848068,0.0,0.0,1.0,10.0,0.0,0.0,0.0,0.0,0.0,0.0,0.0,0.0,0.0,0.0,0.0,0.0,0.0,0.0,-0.059902,-0.054534,1.008086,0.56,-0.42000000000000004,0.14,25.0,3.24,3.29,3.19,3.22,3.26,3.24,3.26,3.3,3.27,3.28,3.27,3.26,3.26,3.28,3.21,3.25,3.27,3.26,3.27,3.23,3.29,3.28,3.28,3.27,3.3,3.19,0.0,1.0,2.0,0.0,0.0,20358056,0.0,78.23000000000002,6333.896834509427
1765915848118,0.0,0.0,1.0,10.0,0.0,0.0,0.0,0.0,0.0,0.0,0.0,0.0,0.0,0.0,0.0,0.0,0.0,0.0,-0.056486,-0.051118,1.013576,0.56,-0.42000000000000004,0.14,25.0,3.24,3.29,3.19,3.22,3.26,3.24,3.26,3.3,3.27,3.28,3.27,3.26,3.26,3.28,3.21,3.25,3.27,3.26,3.27,3.23,3.29,3.28,3.28,3.27,3.3,3.19,0.0,1.0,2.0,0.0,0.0,20358106,0.0,78.23000000000002,6333.896834509427
1765915848135,0.0,0.0,1.0,10.0,0.0,0.0,0.0,0.0,0.0,0.0,0.0,0.0,0.0,0.0,0.0,0.0,0.0,0.0,-0.056486,-0.051118,1.013576,0.56,-0.42000000000000004,0.14,25.0,3.24,3.29,3.19,3.22,3.26,3.24,3.26,3.3,3.27,3.28,3.27,3.26,3.26,3.28,3.21,3.25,3.27,3.26,3.27,3.23,3.29,3.28,3.28,3.27,3.3,3.19,0.0,1.0,2.0,0.0,0.0,20358123,0.0,78.23000000000002,6333.896834509427
1765915848184,0.0,0.0,1.0,10.0,0.0,0.0,0.0,0.0,0.0,0.0,0.0,0.0,0.0,0.0,0.0,0.0,0.0,0.0,-0.056486,-0.051118,1.013576,0.6300000000000001,-0.35000000000000003,0.07,25.0,3.24,3.29,3.19,3.22,3.26,3.24,3.26,3.3,3.27,3.28,3.27,3.26,3.26,3.28,3.21,3.25,3.27,3.26,3.27,3.23,3.29,3.28,3.28,3.27,3.3,3.19,0.0,1.0,2.0,0.0,0.0,20358172,0.0,78.23000000000002,6333.896834509427
1765915848218,0.0,0.0,1.0,10.0,0.0,0.0,0.0,0.0,0.0,0.0,0.0,0.0,0.0,0.0,0.0,0.0,0.0,0.0,-0.056486,-0.051118,1.013576,0.6300000000000001,-0.35000000000000003,0.07,25.0,3.24,3.29,3.19,3.22,3.26,3.24,3.26,3.3,3.27,3.28,3.27,3.26,3.26,3.28,3.21,3.25,3.27,3.26,3.27,3.23,3.29,3.28,3.28,3.27,3.3,3.19,0.0,1.0,2.0,0.0,0.0,20358206,0.0,78.23000000000002,6333.896834509427
1765915848235,0.0,0.0,1.0,10.0,0.0,0.0,0.0,0.0,0.0,0.0,0.0,0.0,0.0,0.0,0.0,0.0,0.0,0.0,-0.053436,-0.058682,1.010038,0.6300000000000001,-0.35000000000000003,0.07,25.0,3.24,3.29,3.19,3.22,3.26,3.24,3.26,3.3,3.27,3.28,3.27,3.26,3.26,3.28,3.21,3.25,3.27,3.26,3.27,3.23,3.29,3.28,3.28,3.27,3.3,3.19,0.0,1.0,2.0,0.0,0.0,20358223,0.0,78.23000000000002,6333.896834509427
1765915848267,0.0,0.0,1.0,10.0,0.0,0.0,0.0,0.0,0.0,0.0,0.0,0.0,0.0,0.0,0.0,0.0,0.0,0.0,-0.053436,-0.058682,1.010038,0.7000000000000001,-0.42000000000000004,0.07,25.0,3.24,3.29,3.19,3.22,3.26,3.24,3.26,3.3,3.27,3.28,3.27,3.26,3.26,3.28,3.21,3.25,3.27,3.26,3.27,3.23,3.29,3.28,3.28,3.27,3.3,3.19,0.0,1.0,2.0,0.0,0.0,20358255,0.0,78.23000000000002,6333.896834509427
1765915848284,0.0,0.0,1.0,10.0,0.0,0.0,0.0,0.0,0.0,0.0,0.0,0.0,0.0,0.0,0.0,0.0,0.0,0.0,-0.053436,-0.058682,1.010038,0.7000000000000001,-0.42000000000000004,0.07,25.0,3.24,3.29,3.19,3.22,3.26,3.24,3.26,3.3,3.27,3.28,3.27,3.26,3.26,3.28,3.21,3.25,3.27,3.26,3.27,3.23,3.29,3.28,3.28,3.27,3.3,3.19,0.0,1.0,2.0,0.0,0.0,20358272,0.0,78.23000000000002,6333.896834509427
1765915848318,0.0,0.0,1.0,10.0,0.0,0.0,0.0,0.0,0.0,0.0,0.0,0.0,0.0,0.0,0.0,0.0,0.0,0.0,-0.053436,-0.058682,1.010038,0.7000000000000001,-0.42000000000000004,0.07,25.0,3.24,3.29,3.19,3.22,3.26,3.24,3.26,3.3,3.27,3.28,3.27,3.26,3.26,3.28,3.21,3.25,3.27,3.26,3.27,3.23,3.29,3.28,3.28,3.27,3.3,3.19,0.0,1.0,2.0,0.0,0.0,20358306,0.0,78.23000000000002,6333.896834509427
1765915848334,0.0,0.0,1.0,10.0,0.0,0.0,0.0,0.0,0.0,0.0,0.0,0.0,0.0,0.0,0.0,0.0,0.0,0.0,-0.053436,-0.058682,1.010038,0.7000000000000001,-0.42000000000000004,0.07,25.0,3.24,3.29,3.19,3.22,3.26,3.24,3.26,3.3,3.27,3.28,3.27,3.26,3.26,3.28,3.21,3.25,3.27,3.26,3.27,3.23,3.29,3.28,3.28,3.27,3.3,3.19,0.0,1.0,2.0,0.0,0.0,20358322,0.0,78.23000000000002,6333.896834509427
1765915848351,0.0,0.0,1.0,10.0,0.0,0.0,0.0,0.0,0.0,0.0,0.0,0.0,0.0,0.0,0.0,0.0,0.0,0.0,-0.053436,-0.058682,1.010038,0.7000000000000001,-0.42000000000000004,0.07,25.0,3.24,3.29,3.19,3.22,3.26,3.24,3.26,3.3,3.27,3.28,3.27,3.26,3.26,3.28,3.21,3.25,3.27,3.26,3.27,3.23,3.29,3.28,3.28,3.27,3.3,3.19,0.0,1.0,2.0,0.0,0.0,20358339,0.0,78.23000000000002,6333.896834509427
1765915848367,0.0,0.0,1.0,10.0,0.0,0.0,0.0,0.0,0.0,0.0,0.0,0.0,0.0,0.0,0.0,0.0,0.0,0.0,-0.053436,-0.058682,1.010038,0.7000000000000001,-0.42000000000000004,0.07,25.0,3.24,3.29,3.19,3.22,3.26,3.24,3.26,3.3,3.27,3.28,3.27,3.26,3.26,3.28,3.21,3.25,3.27,3.26,3.27,3.23,3.29,3.28,3.28,3.27,3.3,3.19,0.0,1.0,2.0,0.0,0.0,20358355,0.0,78.23000000000002,6333.896834509427
1765915848385,0.0,0.0,1.0,10.0,0.0,0.0,0.0,0.0,0.0,0.0,0.0,0.0,0.0,0.0,0.0,0.0,0.0,0.0,-0.053436,-0.058682,1.010038,0.7000000000000001,-0.42000000000000004,0.07,25.0,3.24,3.29,3.19,3.22,3.26,3.24,3.26,3.3,3.27,3.28,3.27,3.26,3.26,3.28,3.21,3.25,3.27,3.26,3.27,3.23,3.29,3.28,3.28,3.27,3.3,3.19,0.0,1.0,2.0,0.0,0.0,20358373,0.0,78.23000000000002,6333.896834509427
1765915848451,0.0,0.0,1.0,10.0,0.0,0.0,0.0,0.0,0.0,0.0,0.0,0.0,0.0,0.0,0.0,0.0,0.0,0.0,-0.044286,-0.055265999999999996,1.014308,0.7000000000000001,-0.42000000000000004,0.07,25.0,3.24,3.29,3.19,3.22,3.26,3.24,3.26,3.3,3.27,3.28,3.27,3.26,3.26,3.28,3.21,3.25,3.27,3.26,3.27,3.23,3.29,3.28,3.28,3.27,3.3,3.19,0.0,1.0,2.0,0.0,0.0,20358439,0.0,78.23000000000002,6333.896834509427
1765915848501,0.0,0.0,1.0,10.0,0.0,0.0,0.0,0.0,0.0,0.0,0.0,0.0,0.0,0.0,0.0,0.0,0.0,0.0,-0.044286,-0.055265999999999996,1.014308,0.77,-0.49000000000000005,0.14,25.0,3.24,3.29,3.19,3.22,3.26,3.24,3.26,3.3,3.27,3.28,3.27,3.26,3.26,3.28,3.21,3.25,3.27,3.26,3.27,3.23,3.29,3.28,3.28,3.27,3.3,3.19,0.0,1.0,2.0,0.0,0.0,20358489,0.0,78.23000000000002,6333.896834509427
1765915848534,0.0,0.0,1.0,10.0,0.0,0.0,0.0,0.0,0.0,0.0,0.0,0.0,0.0,0.0,0.0,0.0,0.0,0.0,-0.044286,-0.055265999999999996,1.014308,0.77,-0.49000000000000005,0.14,25.0,3.24,3.29,3.19,3.22,3.26,3.24,3.26,3.3,3.27,3.28,3.27,3.26,3.26,3.28,3.21,3.25,3.27,3.26,3.27,3.23,3.29,3.28,3.28,3.27,3.3,3.19,0.0,1.0,2.0,0.0,0.0,20358522,0.0,78.23000000000002,6333.896834509427
1765915848568,0.0,0.0,1.0,10.0,0.0,0.0,0.0,0.0,0.0,0.0,0.0,0.0,0.0,0.0,0.0,0.0,0.0,0.0,-0.056486,-0.055754,1.017968,0.77,-0.49000000000000005,0.14,25.0,3.24,3.29,3.19,3.22,3.26,3.24,3.26,3.3,3.27,3.28,3.27,3.26,3.26,3.28,3.21,3.25,3.27,3.26,3.27,3.23,3.29,3.28,3.28,3.27,3.3,3.19,0.0,1.0,2.0,0.0,0.0,20358556,0.0,78.23000000000002,6333.896834509427
1765915848586,0.0,0.0,1.0,10.0,0.0,0.0,0.0,0.0,0.0,0.0,0.0,0.0,0.0,0.0,0.0,0.0,0.0,0.0,-0.056486,-0.055754,1.017968,0.49000000000000005,-0.42000000000000004,0.14,25.0,3.24,3.29,3.19,3.22,3.26,3.24,3.26,3.3,3.27,3.28,3.27,3.26,3.26,3.28,3.21,3.25,3.27,3.26,3.27,3.23,3.29,3.28,3.28,3.27,3.3,3.19,0.0,1.0,2.0,0.0,0.0,20358574,0.0,78.23000000000002,6333.896834509427
1765915848601,0.0,0.0,1.0,10.0,0.0,0.0,0.0,0.0,0.0,0.0,0.0,0.0,0.0,0.0,0.0,0.0,0.0,0.0,-0.056486,-0.055754,1.017968,0.49000000000000005,-0.42000000000000004,0.14,25.0,3.24,3.29,3.19,3.22,3.26,3.24,3.26,3.3,3.27,3.28,3.27,3.26,3.26,3.28,3.21,3.25,3.27,3.26,3.27,3.23,3.29,3.28,3.28,3.27,3.3,3.19,0.0,1.0,2.0,0.0,0.0,20358589,0.0,78.23000000000002,6333.896834509427
1765915848618,0.0,0.0,1.0,10.0,0.0,0.0,0.0,0.0,0.0,0.0,0.0,0.0,0.0,0.0,0.0,0.0,0.0,0.0,-0.056486,-0.055754,1.017968,0.49000000000000005,-0.42000000000000004,0.14,25.0,3.24,3.29,3.19,3.22,3.26,3.24,3.26,3.3,3.27,3.28,3.27,3.26,3.26,3.28,3.21,3.25,3.27,3.26,3.27,3.23,3.29,3.28,3.28,3.27,3.3,3.19,0.0,1.0,2.0,0.0,0.0,20358606,0.0,78.23000000000002,6333.896834509427
1765915848635,0.0,0.0,1.0,10.0,0.0,0.0,0.0,0.0,0.0,0.0,0.0,0.0,0.0,0.0,0.0,0.0,0.0,0.0,-0.056486,-0.055754,1.017968,0.49000000000000005,-0.42000000000000004,0.14,25.0,3.24,3.29,3.19,3.22,3.26,3.24,3.26,3.3,3.27,3.28,3.27,3.26,3.26,3.28,3.21,3.25,3.27,3.26,3.27,3.23,3.29,3.28,3.28,3.27,3.3,3.19,0.0,1.0,2.0,0.0,0.0,20358623,0.0,78.23000000000002,6333.896834509427
1765915848651,0.0,0.0,1.0,10.0,0.0,0.0,0.0,0.0,0.0,0.0,0.0,0.0,0.0,0.0,0.0,0.0,0.0,0.0,-0.056486,-0.055754,1.017968,0.49000000000000005,-0.42000000000000004,0.14,25.0,3.24,3.29,3.19,3.22,3.26,3.24,3.26,3.3,3.27,3.28,3.27,3.26,3.26,3.28,3.21,3.25,3.27,3.26,3.27,3.23,3.29,3.28,3.28,3.27,3.3,3.19,0.0,1.0,2.0,0.0,0.0,20358639,0.0,78.23000000000002,6333.896834509427
1765915848668,0.0,0.0,1.0,10.0,0.0,0.0,0.0,0.0,0.0,0.0,0.0,0.0,0.0,0.0,0.0,0.0,0.0,0.0,-0.056486,-0.055754,1.017968,0.49000000000000005,-0.42000000000000004,0.14,25.0,3.24,3.29,3.19,3.22,3.26,3.24,3.26,3.3,3.27,3.28,3.27,3.26,3.26,3.28,3.21,3.25,3.27,3.26,3.27,3.23,3.29,3.28,3.28,3.27,3.3,3.19,0.0,1.0,2.0,0.0,0.0,20358656,0.0,78.23000000000002,6333.896834509427
1765915848735,0.0,0.0,1.0,10.0,0.0,0.0,0.0,0.0,0.0,0.0,0.0,0.0,0.0,0.0,0.0,0.0,0.0,0.0,-0.056486,-0.055754,1.017968,0.49000000000000005,-0.42000000000000004,0.14,25.0,3.24,3.29,3.19,3.22,3.26,3.24,3.26,3.3,3.27,3.28,3.27,3.26,3.26,3.28,3.21,3.25,3.27,3.26,3.27,3.23,3.29,3.28,3.28,3.27,3.3,3.19,0.0,1.0,2.0,0.0,0.0,20358723,0.0,78.23000000000002,6333.896834509427
1765915848802,0.0,0.0,1.0,10.0,0.0,0.0,0.0,0.0,0.0,0.0,0.0,0.0,0.0,0.0,0.0,0.0,0.0,0.0,-0.055144,-0.057218,1.000766,0.49000000000000005,-0.42000000000000004,0.14,25.0,3.24,3.29,3.19,3.22,3.26,3.24,3.26,3.3,3.27,3.28,3.27,3.26,3.26,3.28,3.21,3.25,3.27,3.26,3.27,3.23,3.29,3.28,3.28,3.27,3.3,3.19,0.0,1.0,2.0,0.0,0.0,20358790,0.0,78.23000000000002,6333.896834509427
1765915848818,0.0,0.0,1.0,10.0,0.0,0.0,0.0,0.0,0.0,0.0,0.0,0.0,0.0,0.0,0.0,0.0,0.0,0.0,-0.055144,-0.057218,1.000766,0.6300000000000001,-0.35000000000000003,0.07,25.0,3.24,3.29,3.19,3.22,3.26,3.24,3.26,3.3,3.27,3.28,3.27,3.26,3.26,3.28,3.21,3.25,3.27,3.26,3.27,3.23,3.29,3.28,3.28,3.27,3.3,3.19,0.0,1.0,2.0,0.0,0.0,20358806,0.0,78.23000000000002,6333.896834509427
1765915848835,0.0,0.0,1.0,10.0,0.0,0.0,0.0,0.0,0.0,0.0,0.0,0.0,0.0,0.0,0.0,0.0,0.0,0.0,-0.055144,-0.057218,1.000766,0.6300000000000001,-0.35000000000000003,0.07,25.0,3.24,3.29,3.19,3.22,3.26,3.24,3.26,3.3,3.27,3.28,3.27,3.26,3.26,3.28,3.21,3.25,3.27,3.26,3.27,3.23,3.29,3.28,3.28,3.27,3.3,3.19,0.0,1.0,2.0,0.0,0.0,20358823,0.0,78.23000000000002,6333.896834509427
1765915848868,0.0,0.0,1.0,10.0,0.0,0.0,0.0,0.0,0.0,0.0,0.0,0.0,0.0,0.0,0.0,0.0,0.0,0.0,-0.054412,-0.05185,1.011746,0.6300000000000001,-0.35000000000000003,0.07,25.0,3.24,3.29,3.19,3.22,3.26,3.24,3.26,3.3,3.27,3.28,3.27,3.26,3.26,3.28,3.21,3.25,3.27,3.26,3.27,3.23,3.29,3.28,3.28,3.27,3.3,3.19,0.0,1.0,2.0,0.0,0.0,20358856,0.0,78.23000000000002,6333.896834509427
1765915848885,0.0,0.0,1.0,10.0,0.0,0.0,0.0,0.0,0.0,0.0,0.0,0.0,0.0,0.0,0.0,0.0,0.0,0.0,-0.054412,-0.05185,1.011746,0.6300000000000001,-0.35000000000000003,0.07,25.0,3.24,3.29,3.19,3.22,3.26,3.24,3.26,3.3,3.27,3.28,3.27,3.26,3.26,3.28,3.21,3.25,3.27,3.26,3.27,3.23,3.29,3.28,3.28,3.27,3.3,3.19,0.0,1.0,2.0,0.0,0.0,20358873,0.0,78.23000000000002,6333.896834509427
1765915848901,0.0,0.0,1.0,10.0,0.0,0.0,0.0,0.0,0.0,0.0,0.0,0.0,0.0,0.0,0.0,0.0,0.0,0.0,-0.054412,-0.05185,1.011746,0.6300000000000001,-0.35000000000000003,0.07,25.0,3.24,3.29,3.19,3.22,3.26,3.24,3.26,3.3,3.27,3.28,3.27,3.26,3.26,3.28,3.21,3.25,3.27,3.26,3.27,3.23,3.29,3.28,3.28,3.27,3.3,3.19,0.0,1.0,2.0,0.0,0.0,20358889,0.0,78.23000000000002,6333.896834509427
1765915848918,0.0,0.0,1.0,10.0,0.0,0.0,0.0,0.0,0.0,0.0,0.0,0.0,0.0,0.0,0.0,0.0,0.0,0.0,-0.054412,-0.05185,1.011746,0.7000000000000001,-0.35000000000000003,0.14,25.0,3.24,3.29,3.19,3.22,3.26,3.24,3.26,3.3,3.27,3.28,3.27,3.26,3.26,3.28,3.21,3.25,3.27,3.26,3.27,3.23,3.29,3.28,3.28,3.27,3.3,3.19,0.0,1.0,2.0,0.0,0.0,20358906,0.0,78.23000000000002,6333.896834509427
1765915848934,0.0,0.0,1.0,10.0,0.0,0.0,0.0,0.0,0.0,0.0,0.0,0.0,0.0,0.0,0.0,0.0,0.0,0.0,-0.054412,-0.05185,1.011746,0.7000000000000001,-0.35000000000000003,0.14,25.0,3.24,3.29,3.19,3.22,3.26,3.24,3.26,3.3,3.27,3.28,3.27,3.26,3.26,3.28,3.21,3.25,3.27,3.26,3.27,3.23,3.29,3.28,3.28,3.27,3.3,3.19,0.0,1.0,2.0,0.0,0.0,20358922,0.0,78.23000000000002,6333.896834509427
1765915848952,0.0,0.0,1.0,10.0,0.0,0.0,0.0,0.0,0.0,0.0,0.0,0.0,0.0,0.0,0.0,0.0,0.0,0.0,-0.054412,-0.05185,1.011746,0.7000000000000001,-0.35000000000000003,0.14,25.0,3.24,3.29,3.19,3.22,3.26,3.24,3.26,3.3,3.27,3.28,3.27,3.26,3.26,3.28,3.21,3.25,3.27,3.26,3.27,3.23,3.29,3.28,3.28,3.27,3.3,3.19,0.0,1.0,2.0,0.0,0.0,20358940,0.0,78.23000000000002,6333.896834509427
1765915848985,0.0,0.0,1.0,10.0,0.0,0.0,0.0,0.0,0.0,0.0,0.0,0.0,0.0,0.0,0.0,0.0,0.0,0.0,-0.054412,-0.05185,1.011746,0.7000000000000001,-0.35000000000000003,0.14,25.0,3.24,3.29,3.19,3.22,3.26,3.24,3.26,3.3,3.27,3.28,3.27,3.26,3.26,3.28,3.21,3.25,3.27,3.26,3.27,3.23,3.29,3.28,3.28,3.27,3.3,3.19,0.0,1.0,2.0,0.0,0.0,20358973,0.0,78.23000000000002,6333.896834509427
1765915849001,0.0,0.0,1.0,10.0,0.0,0.0,0.0,0.0,0.0,0.0,0.0,0.0,0.0,0.0,0.0,0.0,0.0,0.0,-0.054412,-0.05185,1.011746,0.7000000000000001,-0.35000000000000003,0.14,25.0,3.24,3.29,3.19,3.22,3.26,3.24,3.26,3.3,3.27,3.28,3.27,3.26,3.26,3.28,3.21,3.25,3.27,3.26,3.27,3.23,3.29,3.28,3.28,3.27,3.3,3.19,0.0,1.0,2.0,0.0,0.0,20358989,0.0,78.23000000000002,6333.896834509427
1765915849052,0.0,0.0,1.0,10.0,0.0,0.0,0.0,0.0,0.0,0.0,0.0,0.0,0.0,0.0,0.0,0.0,0.0,0.0,-0.054412,-0.05185,1.011746,0.7000000000000001,-0.35000000000000003,0.14,25.0,3.24,3.29,3.19,3.22,3.26,3.24,3.26,3.3,3.27,3.28,3.27,3.26,3.26,3.28,3.21,3.25,3.27,3.26,3.27,3.23,3.29,3.28,3.28,3.27,3.3,3.19,0.0,1.0,2.0,0.0,0.0,20359040,0.0,78.23000000000002,6333.896834509427
1765915849116,0.0,0.0,1.0,10.0,0.0,0.0,0.0,0.0,0.0,0.0,0.0,0.0,0.0,0.0,0.0,0.0,0.0,0.0,-0.045506,-0.055388,1.003084,0.7000000000000001,-0.35000000000000003,0.14,25.0,3.24,3.29,3.19,3.22,3.26,3.24,3.26,3.3,3.27,3.28,3.27,3.26,3.26,3.28,3.21,3.25,3.27,3.26,3.27,3.23,3.29,3.28,3.28,3.27,3.3,3.19,0.0,1.0,2.0,0.0,0.0,20359104,0.0,78.23000000000002,6333.896834509427
1765915849134,0.0,0.0,1.0,10.0,0.0,0.0,0.0,0.0,0.0,0.0,0.0,0.0,0.0,0.0,0.0,0.0,0.0,0.0,-0.045506,-0.055388,1.003084,0.7000000000000001,-0.49000000000000005,0.07,25.0,3.24,3.29,3.19,3.22,3.26,3.24,3.26,3.3,3.27,3.28,3.27,3.26,3.26,3.28,3.21,3.25,3.27,3.26,3.27,3.23,3.29,3.28,3.28,3.27,3.3,3.19,0.0,1.0,2.0,0.0,0.0,20359122,0.0,78.23000000000002,6333.896834509427
1765915849151,0.0,0.0,1.0,10.0,0.0,0.0,0.0,0.0,0.0,0.0,0.0,0.0,0.0,0.0,0.0,0.0,0.0,0.0,-0.045506,-0.055388,1.003084,0.7000000000000001,-0.49000000000000005,0.07,25.0,3.24,3.29,3.19,3.22,3.26,3.24,3.26,3.3,3.27,3.28,3.27,3.26,3.26,3.28,3.21,3.25,3.27,3.26,3.27,3.23,3.29,3.28,3.28,3.27,3.3,3.19,0.0,1.0,2.0,0.0,0.0,20359139,0.0,78.23000000000002,6333.896834509427
1765915849185,0.0,0.0,1.0,10.0,0.0,0.0,0.0,0.0,0.0,0.0,0.0,0.0,0.0,0.0,0.0,0.0,0.0,0.0,-0.045506,-0.055388,1.003084,0.7000000000000001,-0.49000000000000005,0.07,25.0,3.24,3.29,3.19,3.22,3.26,3.24,3.26,3.3,3.27,3.28,3.27,3.26,3.26,3.28,3.21,3.25,3.27,3.26,3.27,3.23,3.29,3.28,3.28,3.27,3.3,3.19,0.0,1.0,2.0,0.0,0.0,20359173,0.0,78.23000000000002,6333.896834509427
1765915849201,0.0,0.0,1.0,10.0,0.0,0.0,0.0,0.0,0.0,0.0,0.0,0.0,0.0,0.0,0.0,0.0,0.0,0.0,-0.045506,-0.055388,1.003084,0.7000000000000001,-0.49000000000000005,0.07,25.0,3.24,3.29,3.19,3.22,3.26,3.24,3.26,3.3,3.27,3.28,3.27,3.26,3.26,3.28,3.21,3.25,3.27,3.26,3.27,3.23,3.29,3.28,3.28,3.27,3.3,3.19,0.0,1.0,2.0,0.0,0.0,20359189,0.0,78.23000000000002,6333.896834509427
1765915849218,0.0,0.0,1.0,10.0,0.0,0.0,0.0,0.0,0.0,0.0,0.0,0.0,0.0,0.0,0.0,0.0,0.0,0.0,-0.045506,-0.055388,1.003084,0.7000000000000001,-0.49000000000000005,0.07,25.0,3.24,3.29,3.19,3.22,3.26,3.24,3.26,3.3,3.27,3.28,3.27,3.26,3.26,3.28,3.21,3.25,3.27,3.26,3.27,3.23,3.29,3.28,3.28,3.27,3.3,3.19,0.0,1.0,2.0,0.0,0.0,20359206,0.0,78.23000000000002,6333.896834509427
1765915849233,0.0,0.0,1.0,10.0,0.0,0.0,0.0,0.0,0.0,0.0,0.0,0.0,0.0,0.0,0.0,0.0,0.0,0.0,-0.045384,-0.056608,1.02785,0.7000000000000001,-0.49000000000000005,0.07,25.0,3.24,3.29,3.19,3.22,3.26,3.24,3.26,3.3,3.27,3.28,3.27,3.26,3.26,3.28,3.21,3.25,3.27,3.26,3.27,3.23,3.29,3.28,3.28,3.27,3.3,3.19,0.0,1.0,2.0,0.0,0.0,20359221,0.0,78.23000000000002,6333.896834509427
1765915849250,0.0,0.0,1.0,10.0,0.0,0.0,0.0,0.0,0.0,0.0,0.0,0.0,0.0,0.0,0.0,0.0,0.0,0.0,-0.045384,-0.056608,1.02785,0.7000000000000001,-0.49000000000000005,0.07,25.0,3.24,3.29,3.19,3.22,3.26,3.24,3.26,3.3,3.27,3.28,3.27,3.26,3.26,3.28,3.21,3.25,3.27,3.26,3.27,3.23,3.29,3.28,3.28,3.27,3.3,3.19,0.0,1.0,2.0,0.0,0.0,20359238,0.0,78.23000000000002,6333.896834509427
1765915849268,0.0,0.0,1.0,10.0,0.0,0.0,0.0,0.0,0.0,0.0,0.0,0.0,0.0,0.0,0.0,0.0,0.0,0.0,-0.045384,-0.056608,1.02785,0.7000000000000001,-0.49000000000000005,0.07,25.0,3.24,3.29,3.19,3.22,3.26,3.24,3.26,3.3,3.27,3.28,3.27,3.26,3.26,3.28,3.21,3.25,3.27,3.26,3.27,3.23,3.29,3.28,3.28,3.27,3.3,3.19,0.0,1.0,2.0,0.0,0.0,20359256,0.0,78.23000000000002,6333.896834509427
1765915849285,0.0,0.0,1.0,10.0,0.0,0.0,0.0,0.0,0.0,0.0,0.0,0.0,0.0,0.0,0.0,0.0,0.0,0.0,-0.045384,-0.056608,1.02785,0.6300000000000001,-0.35000000000000003,0.07,25.0,3.24,3.29,3.19,3.22,3.26,3.24,3.26,3.3,3.27,3.28,3.27,3.26,3.26,3.28,3.21,3.25,3.27,3.26,3.27,3.23,3.29,3.28,3.28,3.27,3.3,3.19,0.0,1.0,2.0,0.0,0.0,20359273,0.0,78.23000000000002,6333.896834509427
1765915849335,0.0,0.0,1.0,10.0,0.0,0.0,0.0,0.0,0.0,0.0,0.0,0.0,0.0,0.0,0.0,0.0,0.0,0.0,-0.045384,-0.056608,1.02785,0.6300000000000001,-0.35000000000000003,0.07,25.0,3.24,3.29,3.19,3.22,3.26,3.24,3.26,3.3,3.27,3.28,3.27,3.26,3.26,3.28,3.21,3.25,3.27,3.26,3.27,3.23,3.29,3.28,3.28,3.27,3.3,3.19,0.0,1.0,2.0,0.0,0.0,20359323,0.0,78.23000000000002,6333.896834509427
1765915849418,0.0,0.0,1.0,10.0,0.0,0.0,0.0,0.0,0.0,0.0,0.0,0.0,0.0,0.0,0.0,0.0,0.0,0.0,-0.044042,-0.058682,1.00345,0.6300000000000001,-0.35000000000000003,0.07,25.0,3.24,3.29,3.19,3.22,3.26,3.24,3.26,3.3,3.27,3.28,3.27,3.26,3.26,3.28,3.21,3.25,3.27,3.26,3.27,3.23,3.29,3.28,3.28,3.27,3.3,3.19,0.0,1.0,2.0,0.0,0.0,20359406,0.0,78.23000000000002,6333.896834509427
1765915849435,0.0,0.0,1.0,10.0,0.0,0.0,0.0,0.0,0.0,0.0,0.0,0.0,0.0,0.0,0.0,0.0,0.0,0.0,-0.044042,-0.058682,1.00345,0.77,-0.35000000000000003,0.14,25.0,3.24,3.29,3.19,3.22,3.26,3.24,3.26,3.3,3.27,3.28,3.27,3.26,3.26,3.28,3.21,3.25,3.27,3.26,3.27,3.23,3.29,3.28,3.28,3.27,3.3,3.19,0.0,1.0,2.0,0.0,0.0,20359423,0.0,78.23000000000002,6333.896834509427
1765915849451,0.0,0.0,1.0,10.0,0.0,0.0,0.0,0.0,0.0,0.0,0.0,0.0,0.0,0.0,0.0,0.0,0.0,0.0,-0.044042,-0.058682,1.00345,0.77,-0.35000000000000003,0.14,25.0,3.24,3.29,3.19,3.22,3.26,3.24,3.26,3.3,3.27,3.28,3.27,3.26,3.26,3.28,3.21,3.25,3.27,3.26,3.27,3.23,3.29,3.28,3.28,3.27,3.3,3.19,0.0,1.0,2.0,0.0,0.0,20359439,0.0,78.23000000000002,6333.896834509427
1765915849485,0.0,0.0,1.0,10.0,0.0,0.0,0.0,0.0,0.0,0.0,0.0,0.0,0.0,0.0,0.0,0.0,0.0,0.0,-0.044042,-0.058682,1.00345,0.77,-0.35000000000000003,0.14,25.0,3.24,3.29,3.19,3.22,3.26,3.24,3.26,3.3,3.27,3.28,3.27,3.26,3.26,3.28,3.21,3.25,3.27,3.26,3.27,3.23,3.29,3.28,3.28,3.27,3.3,3.19,0.0,1.0,2.0,0.0,0.0,20359473,0.0,78.23000000000002,6333.896834509427
1765915849501,0.0,0.0,1.0,10.0,0.0,0.0,0.0,0.0,0.0,0.0,0.0,0.0,0.0,0.0,0.0,0.0,0.0,0.0,-0.044042,-0.058682,1.00345,0.77,-0.35000000000000003,0.14,25.0,3.24,3.29,3.19,3.22,3.26,3.24,3.26,3.3,3.27,3.28,3.27,3.26,3.26,3.28,3.21,3.25,3.27,3.26,3.27,3.23,3.29,3.28,3.28,3.27,3.3,3.19,0.0,1.0,2.0,0.0,0.0,20359489,0.0,78.23000000000002,6333.896834509427
1765915849518,0.0,0.0,1.0,10.0,0.0,0.0,0.0,0.0,0.0,0.0,0.0,0.0,0.0,0.0,0.0,0.0,0.0,0.0,-0.044042,-0.058682,1.00345,0.77,-0.35000000000000003,0.14,25.0,3.24,3.29,3.19,3.22,3.26,3.24,3.26,3.3,3.27,3.28,3.27,3.26,3.26,3.28,3.21,3.25,3.27,3.26,3.27,3.23,3.29,3.28,3.28,3.27,3.3,3.19,0.0,1.0,2.0,0.0,0.0,20359506,0.0,78.23000000000002,6333.896834509427
1765915849552,0.0,0.0,1.0,10.0,0.0,0.0,0.0,0.0,0.0,0.0,0.0,0.0,0.0,0.0,0.0,0.0,0.0,0.0,-0.044042,-0.058682,1.00345,0.77,-0.35000000000000003,0.14,25.0,3.24,3.29,3.19,3.22,3.26,3.24,3.26,3.3,3.27,3.28,3.27,3.26,3.26,3.28,3.21,3.25,3.27,3.26,3.27,3.23,3.29,3.28,3.28,3.27,3.3,3.19,0.0,1.0,2.0,0.0,0.0,20359540,0.0,78.23000000000002,6333.896834509427
1765915849568,0.0,0.0,1.0,10.0,0.0,0.0,0.0,0.0,0.0,0.0,0.0,0.0,0.0,0.0,0.0,0.0,0.0,0.0,-0.04758,-0.055265999999999996,1.010404,0.77,-0.35000000000000003,0.14,25.0,3.24,3.29,3.19,3.22,3.26,3.24,3.26,3.3,3.27,3.28,3.27,3.26,3.26,3.28,3.21,3.25,3.27,3.26,3.27,3.23,3.29,3.28,3.28,3.27,3.3,3.19,0.0,1.0,2.0,0.0,0.0,20359556,0.0,78.23000000000002,6333.896834509427
1765915849601,0.0,0.0,1.0,10.0,0.0,0.0,0.0,0.0,0.0,0.0,0.0,0.0,0.0,0.0,0.0,0.0,0.0,0.0,-0.04758,-0.055265999999999996,1.010404,0.77,-0.35000000000000003,0.14,25.0,3.24,3.29,3.19,3.22,3.26,3.24,3.26,3.3,3.27,3.28,3.27,3.26,3.26,3.28,3.21,3.25,3.27,3.26,3.27,3.23,3.29,3.28,3.28,3.27,3.3,3.19,0.0,1.0,2.0,0.0,0.0,20359589,0.0,78.23000000000002,6333.896834509427
1765915849634,0.0,0.0,1.0,10.0,0.0,0.0,0.0,0.0,0.0,0.0,0.0,0.0,0.0,0.0,0.0,0.0,0.0,0.0,-0.04758,-0.055265999999999996,1.010404,0.56,-0.28,0.21000000000000002,25.0,3.24,3.29,3.19,3.22,3.26,3.24,3.26,3.3,3.27,3.28,3.27,3.26,3.26,3.28,3.21,3.25,3.27,3.26,3.27,3.23,3.29,3.28,3.28,3.27,3.3,3.19,0.0,1.0,2.0,0.0,0.0,20359622,0.0,78.23000000000002,6333.896834509427
1765915849701,0.0,0.0,1.0,10.0,0.0,0.0,0.0,0.0,0.0,0.0,0.0,0.0,0.0,0.0,0.0,0.0,0.0,0.0,-0.04758,-0.055265999999999996,1.010404,0.56,-0.28,0.21000000000000002,25.0,3.24,3.29,3.19,3.22,3.26,3.24,3.26,3.3,3.27,3.28,3.27,3.26,3.26,3.28,3.21,3.25,3.27,3.26,3.27,3.23,3.29,3.28,3.28,3.27,3.3,3.19,0.0,1.0,2.0,0.0,0.0,20359689,0.0,78.23000000000002,6333.896834509427
