timestamp,THROTTLE,BRAKE,ECU_MODE_ID,TORQUE_GAIN,TORQUE_REF_LEFT_MOTOR,TORQUE_REF_RIGHT_MOTOR,LEFT_MOTOR_RPM,LEFT_MOTOR_TORQUE,LEFT_MOTOR_POWER,LEFT_MOTOR_CURRENT,RIGHT_MOTOR_RPM,RIGHT_MOTOR_TORQUE,RIGHT_MOTOR_POWER,RIGHT_MOTOR_CURRENT,REAR_LEFT_WHEEL_SPEED,REAR_RIGHT_WHEEL_SPEED,FRONT_LEFT_WHEEL_SPEED,FRONT_RIGHT_WHEEL_SPEED,ACCEL_LONGITUDINAL,ACCEL_LATERAL,ACCEL_NORMAL,VEL_ANGULAR_YAW,VEL_ANGULAR_PITCH,VEL_ANGULAR_ROLL,ELETROBUILD_TEMPERATURE,STACK_1_CELL_1,STACK_1_CELL_2,STACK_1_CELL_3,STACK_1_CELL_4,STACK_2_CELL_1,STACK_2_CELL_2,STACK_2_CELL_3,STACK_2_CELL_4,STACK_3_CELL_1,STACK_3_CELL_2,STACK_3_CELL_3,STACK_3_CELL_4,STACK_4_CELL_1,STACK_4_CELL_2,STACK_4_CELL_3,STACK_4_CELL_4,STACK_5_CELL_1,STACK_5_CELL_2,STACK_5_CELL_3,STACK_5_CELL_4,STACK_6_CELL_1,STACK_6_CELL_2,STACK_6_CELL_3,STACK_6_CELL_4,MAX_VOLTAGE,MIN_VOLTAGE,SHUNT_CURRENT,BMS_MODE_ID,BMS_ERROR_ID,AIR_P,AIR_N,t,VEHICLE_SPEED,TOTAL_VOLTAGE,HODOMETRO
1765915410008,0.0,0.0,0.0,0.0,0.0,0.0,3985.0,1010.0,0.0,1342.0,3928.0,1042.0,55.0,1340.0,398.5,392.8,0.0,0.0,-0.05795,-0.044774,1.013332,0.7000000000000001,-0.28,0.14,25.0,3.24,3.29,3.19,3.22,3.26,3.24,3.26,3.3,3.27,3.28,3.27,3.26,3.26,3.28,3.21,3.25,3.27,3.26,3.27,3.23,3.29,3.28,3.28,3.27,3.3,3.19,0.0,1.0,2.0,0.0,0.0,19919996,43.680268692857155,78.23000000000002,5905.531938676121
1765915410040,0.0,0.0,0.0,0.0,0.0,0.0,3985.0,1010.0,0.0,1342.0,3928.0,1042.0,55.0,1340.0,398.5,392.8,0.0,0.0,-0.05795,-0.044774,1.013332,0.7000000000000001,-0.28,0.14,25.0,3.24,3.29,3.19,3.22,3.26,3.24,3.26,3.3,3.27,3.28,3.27,3.26,3.26,3.28,3.21,3.25,3.27,3.26,3.27,3.23,3.29,3.28,3.28,3.27,3.3,3.19,0.0,1.0,2.0,0.0,0.0,19920028,43.680268692857155,78.23000000000002,5905.531938676121
1765915410057,0.0,0.0,0.0,0.0,0.0,0.0,3985.0,1010.0,0.0,1342.0,3928.0,1042.0,55.0,1340.0,398.5,392.8,0.0,0.0,-0.059047999999999996,-0.040748,1.011136,0.7000000000000001,-0.28,0.14,25.0,3.24,3.29,3.19,3.22,3.26,3.24,3.26,3.3,3.27,3.28,3.27,3.26,3.26,3.28,3.21,3.25,3.27,3.26,3.27,3.23,3.29,3.28,3.28,3.27,3.3,3.19,0.0,1.0,2.0,0.0,0.0,19920045,43.680268692857155,78.23000000000002,5905.531938676121
1765915410074,0.0,0.0,0.0,0.0,0.0,0.0,3985.0,1010.0,0.0,1342.0,3928.0,1042.0,55.0,1340.0,398.5,392.8,0.0,0.0,-0.059047999999999996,-0.040748,1.011136,0.7000000000000001,-0.28,0.14,25.0,3.24,3.29,3.19,3.22,3.26,3.24,3.26,3.3,3.27,3.28,3.27,3.26,3.26,3.28,3.21,3.25,3.27,3.26,3.27,3.23,3.29,3.28,3.28,3.27,3.3,3.19,0.0,1.0,2.0,0.0,0.0,19920062,43.680268692857155,78.23000000000002,5905.531938676121
1765915410090,0.0,0.0,1.0,10.0,0.0,0.0,3985.0,1010.0,0.0,1342.0,3928.0,1042.0,55.0,1340.0,398.5,392.8,0.0,0.0,-0.059047999999999996,-0.040748,1.011136,0.7000000000000001,-0.28,0.14,25.0,3.24,3.29,3.19,3.22,3.26,3.24,3.26,3.3,3.27,3.28,3.27,3.26,3.26,3.28,3.21,3.25,3.27,3.26,3.27,3.23,3.29,3.28,3.28,3.27,3.3,3.19,0.0,1.0,2.0,0.0,0.0,19920078,43.680268692857155,78.23000000000002,5905.531938676121
1765915410107,0.0,0.0,1.0,10.0,0.0,0.0,3985.0,1010.0,0.0,1342.0,3928.0,1042.0,55.0,1340.0,398.5,392.8,0.0,0.0,-0.059047999999999996,-0.040748,1.011136,0.7000000000000001,-0.28,0.14,25.0,3.24,3.29,3.19,3.22,3.26,3.24,3.26,3.3,3.27,3.28,3.27,3.26,3.26,3.28,3.21,3.25,3.27,3.26,3.27,3.23,3.29,3.28,3.28,3.27,3.3,3.19,0.0,1.0,2.0,0.0,0.0,19920095,43.680268692857155,78.23000000000002,5905.531938676121
1765915410124,0.0,0.0,1.0,10.0,0.0,0.0,3985.0,1010.0,0.0,1342.0,3928.0,1042.0,55.0,1340.0,398.5,392.8,0.0,0.0,-0.059047999999999996,-0.040748,1.011136,0.6300000000000001,-0.49000000000000005,0.14,25.0,3.24,3.29,3.19,3.22,3.26,3.24,3.26,3.3,3.27,3.28,3.27,3.26,3.26,3.28,3.21,3.25,3.27,3.26,3.27,3.23,3.29,3.28,3.28,3.27,3.3,3.19,0.0,1.0,2.0,0.0,0.0,19920112,43.680268692857155,78.23000000000002,5905.531938676121
1765915410140,0.0,0.0,1.0,10.0,0.0,0.0,3985.0,1010.0,0.0,1342.0,3928.0,1042.0,55.0,1340.0,0.0,0.0,0.0,0.0,-0.059047999999999996,-0.040748,1.011136,0.6300000000000001,-0.49000000000000005,0.14,25.0,3.24,3.29,3.19,3.22,3.26,3.24,3.26,3.3,3.27,3.28,3.27,3.26,3.26,3.28,3.21,3.25,3.27,3.26,3.27,3.23,3.29,3.28,3.28,3.27,3.3,3.19,0.0,1.0,2.0,0.0,0.0,19920128,43.680268692857155,78.23000000000002,5905.531938676121
1765915410157,0.0,0.0,1.0,10.0,0.0,0.0,3985.0,1010.0,0.0,1342.0,3928.0,1042.0,55.0,1340.0,0.0,0.0,0.0,0.0,-0.059047999999999996,-0.040748,1.011136,0.6300000000000001,-0.49000000000000005,0.14,25.0,3.24,3.29,3.19,3.22,3.26,3.24,3.26,3.3,3.27,3.28,3.27,3.26,3.26,3.28,3.21,3.25,3.27,3.26,3.27,3.23,3.29,3.28,3.28,3.27,3.3,3.19,0.0,1.0,2.0,0.0,0.0,19920145,43.680268692857155,78.23000000000002,5905.531938676121
1765915410174,0.0,0.0,1.0,10.0,0.0,0.0,0.0,0.0,0.0,0.0,3928.0,1042.0,55.0,1340.0,0.0,0.0,0.0,0.0,-0.059047999999999996,-0.040748,1.011136,0.6300000000000001,-0.49000000000000005,0.14,25.0,3.24,3.29,3.19,3.22,3.26,3.24,3.26,3.3,3.27,3.28,3.27,3.26,3.26,3.28,3.21,3.25,3.27,3.26,3.27,3.23,3.29,3.28,3.28,3.27,3.3,3.19,0.0,1.0,2.0,0.0,0.0,19920162,21.682812514285715,78.23000000000002,5905.531938676121
1765915410224,0.0,0.0,1.0,10.0,0.0,0.0,0.0,0.0,0.0,0.0,0.0,0.0,0.0,0.0,0.0,0.0,0.0,0.0,-0.059047999999999996,-0.040748,1.011136,0.6300000000000001,-0.49000000000000005,0.14,25.0,3.24,3.29,3.19,3.22,3.26,3.24,3.26,3.3,3.27,3.28,3.27,3.26,3.26,3.28,3.21,3.25,3.27,3.26,3.27,3.23,3.29,3.28,3.28,3.27,3.3,3.19,0.0,1.0,2.0,0.0,0.0,19920212,0.0,78.23000000000002,5905.531938676121
1765915410291,0.0,0.0,1.0,10.0,0.0,0.0,0.0,0.0,0.0,0.0,0.0,0.0,0.0,0.0,0.0,0.0,0.0,0.0,-0.059047999999999996,-0.040748,1.011136,0.6300000000000001,-0.49000000000000005,0.14,25.0,3.24,3.29,3.19,3.22,3.26,3.24,3.26,3.3,3.27,3.28,3.27,3.26,3.26,3.28,3.21,3.25,3.27,3.26,3.27,3.23,3.29,3.28,3.28,3.27,3.3,3.19,0.0,1.0,2.0,0.0,0.0,19920279,0.0,78.23000000000002,5905.531938676121
1765915410358,0.0,0.0,1.0,10.0,0.0,0.0,0.0,0.0,0.0,0.0,0.0,0.0,0.0,0.0,0.0,0.0,0.0,0.0,-0.055632,-0.041602,1.01382,0.7000000000000001,-0.35000000000000003,0.07,25.0,3.24,3.29,3.19,3.22,3.26,3.24,3.26,3.3,3.27,3.28,3.27,3.26,3.26,3.28,3.21,3.25,3.27,3.26,3.27,3.23,3.29,3.28,3.28,3.27,3.3,3.19,0.0,1.0,2.0,0.0,0.0,19920346,0.0,78.23000000000002,5905.531938676121
1765915410390,0.0,0.0,1.0,10.0,0.0,0.0,0.0,0.0,0.0,0.0,0.0,0.0,0.0,0.0,0.0,0.0,0.0,0.0,-0.055632,-0.041602,1.01382,0.7000000000000001,-0.35000000000000003,0.07,25.0,3.24,3.29,3.19,3.22,3.26,3.24,3.26,3.3,3.27,3.28,3.27,3.26,3.26,3.28,3.21,3.25,3.27,3.26,3.27,3.23,3.29,3.28,3.28,3.27,3.3,3.19,0.0,1.0,2.0,0.0,0.0,19920378,0.0,78.23000000000002,5905.531938676121
1765915410424,0.0,0.0,1.0,10.0,0.0,0.0,0.0,0.0,0.0,0.0,0.0,0.0,0.0,0.0,0.0,0.0,0.0,0.0,-0.055632,-0.041602,1.01382,0.7000000000000001,-0.35000000000000003,0.07,25.0,3.24,3.29,3.19,3.22,3.26,3.24,3.26,3.3,3.27,3.28,3.27,3.26,3.26,3.28,3.21,3.25,3.27,3.26,3.27,3.23,3.29,3.28,3.28,3.27,3.3,3.19,0.0,1.0,2.0,0.0,0.0,19920412,0.0,78.23000000000002,5905.531938676121
1765915410440,0.0,0.0,1.0,10.0,0.0,0.0,0.0,0.0,0.0,0.0,0.0,0.0,0.0,0.0,0.0,0.0,0.0,0.0,-0.054778,-0.040015999999999996,1.012234,0.7000000000000001,-0.35000000000000003,0.07,25.0,3.24,3.29,3.19,3.22,3.26,3.24,3.26,3.3,3.27,3.28,3.27,3.26,3.26,3.28,3.21,3.25,3.27,3.26,3.27,3.23,3.29,3.28,3.28,3.27,3.3,3.19,0.0,1.0,2.0,0.0,0.0,19920428,0.0,78.23000000000002,5905.531938676121
1765915410457,0.0,0.0,1.0,10.0,0.0,0.0,0.0,0.0,0.0,0.0,0.0,0.0,0.0,0.0,0.0,0.0,0.0,0.0,-0.054778,-0.040015999999999996,1.012234,0.7000000000000001,-0.35000000000000003,0.07,25.0,3.24,3.29,3.19,3.22,3.26,3.24,3.26,3.3,3.27,3.28,3.27,3.26,3.26,3.28,3.21,3.25,3.27,3.26,3.27,3.23,3.29,3.28,3.28,3.27,3.3,3.19,0.0,1.0,2.0,0.0,0.0,19920445,0.0,78.23000000000002,5905.531938676121
1765915410473,0.0,0.0,1.0,10.0,0.0,0.0,0.0,0.0,0.0,0.0,0.0,0.0,0.0,0.0,0.0,0.0,0.0,0.0,-0.054778,-0.040015999999999996,1.012234,0.6300000000000001,-0.56,0.14,25.0,3.24,3.29,3.19,3.22,3.26,3.24,3.26,3.3,3.27,3.28,3.27,3.26,3.26,3.28,3.21,3.25,3.27,3.26,3.27,3.23,3.29,3.28,3.28,3.27,3.3,3.19,0.0,1.0,2.0,0.0,0.0,19920461,0.0,78.23000000000002,5905.531938676121
1765915410490,0.0,0.0,1.0,10.0,0.0,0.0,0.0,0.0,0.0,0.0,0.0,0.0,0.0,0.0,0.0,0.0,0.0,0.0,-0.054778,-0.040015999999999996,1.012234,0.6300000000000001,-0.56,0.14,25.0,3.24,3.29,3.19,3.22,3.26,3.24,3.26,3.3,3.27,3.28,3.27,3.26,3.26,3.28,3.21,3.25,3.27,3.26,3.27,3.23,3.29,3.28,3.28,3.27,3.3,3.19,0.0,1.0,2.0,0.0,0.0,19920478,0.0,78.23000000000002,5905.531938676121
1765915410524,0.0,0.0,1.0,10.0,0.0,0.0,0.0,0.0,0.0,0.0,0.0,0.0,0.0,0.0,0.0,0.0,0.0,0.0,-0.054778,-0.040015999999999996,1.012234,0.6300000000000001,-0.56,0.14,25.0,3.24,3.29,3.19,3.22,3.26,3.24,3.26,3.3,3.27,3.28,3.27,3.26,3.26,3.28,3.21,3.25,3.27,3.26,3.27,3.23,3.29,3.28,3.28,3.27,3.3,3.19,0.0,1.0,2.0,0.0,0.0,19920512,0.0,78.23000000000002,5905.531938676121
1765915410574,0.0,0.0,1.0,10.0,0.0,0.0,0.0,0.0,0.0,0.0,0.0,0.0,0.0,0.0,0.0,0.0,0.0,0.0,-0.054778,-0.040015999999999996,1.012234,0.6300000000000001,-0.56,0.14,25.0,3.24,3.29,3.19,3.22,3.26,3.24,3.26,3.3,3.27,3.28,3.27,3.26,3.26,3.28,3.21,3.25,3.27,3.26,3.27,3.23,3.29,3.28,3.28,3.27,3.3,3.19,0.0,1.0,2.0,0.0,0.0,19920562,0.0,78.23000000000002,5905.531938676121
1765915410640,0.0,0.0,1.0,10.0,0.0,0.0,0.0,0.0,0.0,0.0,0.0,0.0,0.0,0.0,0.0,0.0,0.0,0.0,-0.056608,-0.043432,1.008696,0.6300000000000001,-0.56,0.14,25.0,3.24,3.29,3.19,3.22,3.26,3.24,3.26,3.3,3.27,3.28,3.27,3.26,3.26,3.28,3.21,3.25,3.27,3.26,3.27,3.23,3.29,3.28,3.28,3.27,3.3,3.19,0.0,1.0,2.0,0.0,0.0,19920628,0.0,78.23000000000002,5905.531938676121
1765915410657,0.0,0.0,1.0,10.0,0.0,0.0,0.0,0.0,0.0,0.0,0.0,0.0,0.0,0.0,0.0,0.0,0.0,0.0,-0.056608,-0.043432,1.008696,0.6300000000000001,-0.35000000000000003,0.14,25.0,3.24,3.29,3.19,3.22,3.26,3.24,3.26,3.3,3.27,3.28,3.27,3.26,3.26,3.28,3.21,3.25,3.27,3.26,3.27,3.23,3.29,3.28,3.28,3.27,3.3,3.19,0.0,1.0,2.0,0.0,0.0,19920645,0.0,78.23000000000002,5905.531938676121
1765915410674,0.0,0.0,1.0,10.0,0.0,0.0,0.0,0.0,0.0,0.0,0.0,0.0,0.0,0.0,0.0,0.0,0.0,0.0,-0.056608,-0.043432,1.008696,0.6300000000000001,-0.35000000000000003,0.14,25.0,3.24,3.29,3.19,3.22,3.26,3.24,3.26,3.3,3.27,3.28,3.27,3.26,3.26,3.28,3.21,3.25,3.27,3.26,3.27,3.23,3.29,3.28,3.28,3.27,3.3,3.19,0.0,1.0,2.0,0.0,0.0,19920662,0.0,78.23000000000002,5905.531938676121
1765915410708,0.0,0.0,1.0,10.0,0.0,0.0,0.0,0.0,0.0,0.0,0.0,0.0,0.0,0.0,0.0,0.0,0.0,0.0,-0.056119999999999996,-0.04392,1.01382,0.6300000000000001,-0.35000000000000003,0.14,25.0,3.24,3.29,3.19,3.22,3.26,3.24,3.26,3.3,3.27,3.28,3.27,3.26,3.26,3.28,3.21,3.25,3.27,3.26,3.27,3.23,3.29,3.28,3.28,3.27,3.3,3.19,0.0,1.0,2.0,0.0,0.0,19920696,0.0,78.23000000000002,5905.531938676121
1765915410723,0.0,0.0,1.0,10.0,0.0,0.0,0.0,0.0,0.0,0.0,0.0,0.0,0.0,0.0,0.0,0.0,0.0,0.0,-0.056119999999999996,-0.04392,1.01382,0.6300000000000001,-0.35000000000000003,0.14,25.0,3.24,3.29,3.19,3.22,3.26,3.24,3.26,3.3,3.27,3.28,3.27,3.26,3.26,3.28,3.21,3.25,3.27,3.26,3.27,3.23,3.29,3.28,3.28,3.27,3.3,3.19,0.0,1.0,2.0,0.0,0.0,19920711,0.0,78.23000000000002,5905.531938676121
1765915410740,0.0,0.0,1.0,10.0,0.0,0.0,0.0,0.0,0.0,0.0,0.0,0.0,0.0,0.0,0.0,0.0,0.0,0.0,-0.056119999999999996,-0.04392,1.01382,0.6300000000000001,-0.35000000000000003,0.14,25.0,3.24,3.29,3.19,3.22,3.26,3.24,3.26,3.3,3.27,3.28,3.27,3.26,3.26,3.28,3.21,3.25,3.27,3.26,3.27,3.23,3.29,3.28,3.28,3.27,3.3,3.19,0.0,1.0,2.0,0.0,0.0,19920728,0.0,78.23000000000002,5905.531938676121
1765915410774,0.0,0.0,1.0,10.0,0.0,0.0,0.0,0.0,0.0,0.0,0.0,0.0,0.0,0.0,0.0,0.0,0.0,0.0,-0.056119999999999996,-0.04392,1.01382,0.56,-0.49000000000000005,0.07,25.0,3.24,3.29,3.19,3.22,3.26,3.24,3.26,3.3,3.27,3.28,3.27,3.26,3.26,3.28,3.21,3.25,3.27,3.26,3.27,3.23,3.29,3.28,3.28,3.27,3.3,3.19,0.0,1.0,2.0,0.0,0.0,19920762,0.0,78.23000000000002,5905.531938676121
1765915410807,0.0,0.0,1.0,10.0,0.0,0.0,0.0,0.0,0.0,0.0,0.0,0.0,0.0,0.0,0.0,0.0,0.0,0.0,-0.056119999999999996,-0.04392,1.01382,0.56,-0.49000000000000005,0.07,25.0,3.24,3.29,3.19,3.22,3.26,3.24,3.26,3.3,3.27,3.28,3.27,3.26,3.26,3.28,3.21,3.25,3.27,3.26,3.27,3.23,3.29,3.28,3.28,3.27,3.3,3.19,0.0,1.0,2.0,0.0,0.0,19920795,0.0,78.23000000000002,5905.531938676121
1765915410873,0.0,0.0,1.0,10.0,0.0,0.0,0.0,0.0,0.0,0.0,0.0,0.0,0.0,0.0,0.0,0.0,0.0,0.0,-0.056119999999999996,-0.04392,1.01382,0.56,-0.49000000000000005,0.07,25.0,3.24,3.29,3.19,3.22,3.26,3.24,3.26,3.3,3.27,3.28,3.27,3.26,3.26,3.28,3.21,3.25,3.27,3.26,3.27,3.23,3.29,3.28,3.28,3.27,3.3,3.19,0.0,1.0,2.0,0.0,0.0,19920861,0.0,78.23000000000002,5905.531938676121
1765915410924,0.0,0.0,1.0,10.0,0.0,0.0,0.0,0.0,0.0,0.0,0.0,0.0,0.0,0.0,0.0,0.0,0.0,0.0,-0.056119999999999996,-0.04392,1.01382,0.56,-0.49000000000000005,0.07,25.0,3.24,3.29,3.19,3.22,3.26,3.24,3.26,3.3,3.27,3.28,3.27,3.26,3.26,3.28,3.21,3.25,3.27,3.26,3.27,3.23,3.29,3.28,3.28,3.27,3.3,3.19,0.0,1.0,2.0,0.0,0.0,19920912,0.0,78.23000000000002,5905.531938676121
1765915410991,0.0,0.0,1.0,10.0,0.0,0.0,0.0,0.0,0.0,0.0,0.0,0.0,0.0,0.0,0.0,0.0,0.0,0.0,-0.05124,-0.041968,1.012112,0.56,-0.49000000000000005,0.07,25.0,3.24,3.29,3.19,3.22,3.26,3.24,3.26,3.3,3.27,3.28,3.27,3.26,3.26,3.28,3.21,3.25,3.27,3.26,3.27,3.23,3.29,3.28,3.28,3.27,3.3,3.19,0.0,1.0,2.0,0.0,0.0,19920979,0.0,78.23000000000002,5905.531938676121
1765915411024,0.0,0.0,1.0,10.0,0.0,0.0,0.0,0.0,0.0,0.0,0.0,0.0,0.0,0.0,0.0,0.0,0.0,0.0,-0.05124,-0.041968,1.012112,0.6300000000000001,-0.42000000000000004,0.07,25.0,3.24,3.29,3.19,3.22,3.26,3.24,3.26,3.3,3.27,3.28,3.27,3.26,3.26,3.28,3.21,3.25,3.27,3.26,3.27,3.23,3.29,3.28,3.28,3.27,3.3,3.19,0.0,1.0,2.0,0.0,0.0,19921012,0.0,78.23000000000002,5905.531938676121
1765915411157,0.0,0.0,1.0,10.0,0.0,0.0,0.0,2304.0,0.0,0.0,0.0,0.0,0.0,0.0,0.0,0.0,0.0,0.0,-0.05124,-0.041968,1.012112,0.6300000000000001,-0.42000000000000004,0.07,25.0,3.24,3.29,3.19,3.22,3.26,3.24,3.26,3.3,3.27,3.28,3.27,3.26,3.26,3.28,3.21,3.25,3.27,3.26,3.27,3.23,3.29,3.28,3.28,3.27,3.3,3.19,0.0,1.0,2.0,0.0,0.0,19921145,0.0,78.23000000000002,5905.531938676121
1765915411323,0.0,0.0,1.0,10.0,0.0,0.0,0.0,2304.0,0.0,0.0,0.0,0.0,0.0,0.0,0.0,0.0,0.0,0.0,-0.05124,-0.041968,1.012112,0.6300000000000001,-0.42000000000000004,0.07,25.0,3.24,3.29,3.19,3.22,3.26,3.24,3.26,3.3,3.27,3.28,3.27,3.26,3.26,3.28,3.21,3.25,3.27,3.26,3.27,3.23,3.29,3.28,3.28,3.27,3.3,3.19,0.0,1.0,2.0,0.0,0.0,19921311,0.0,78.23000000000002,5905.531938676121
1765915411390,0.0,0.0,1.0,10.0,0.0,0.0,0.0,2304.0,0.0,0.0,0.0,0.0,0.0,0.0,0.0,0.0,0.0,0.0,-0.05124,-0.041968,1.012112,0.6300000000000001,-0.42000000000000004,0.07,25.0,3.24,3.29,3.19,3.22,3.26,3.24,3.26,3.3,3.27,3.28,3.27,3.26,3.26,3.28,3.21,3.25,3.27,3.26,3.27,3.23,3.29,3.28,3.28,3.27,3.3,3.19,0.0,1.0,2.0,0.0,0.0,19921378,0.0,78.23000000000002,5905.531938676121
1765915411407,0.0,0.0,1.0,10.0,0.0,0.0,0.0,2304.0,0.0,0.0,0.0,0.0,0.0,0.0,0.0,0.0,0.0,0.0,-0.05124,-0.041968,1.012112,0.6300000000000001,-0.42000000000000004,0.07,25.0,3.24,3.29,3.19,3.22,3.26,3.24,3.26,3.3,3.27,3.28,3.27,3.26,3.26,3.28,3.21,3.25,3.27,3.26,3.27,3.23,3.29,3.28,3.28,3.27,3.3,3.19,0.0,1.0,2.0,0.0,0.0,19921395,0.0,78.23000000000002,5905.531938676121
1765915411473,0.0,0.0,1.0,10.0,0.0,0.0,0.0,2304.0,0.0,0.0,0.0,0.0,0.0,0.0,0.0,0.0,0.0,0.0,-0.05124,-0.041968,1.012112,0.6300000000000001,-0.42000000000000004,0.07,25.0,3.24,3.29,3.19,3.22,3.26,3.24,3.26,3.3,3.27,3.28,3.27,3.26,3.26,3.28,3.21,3.25,3.27,3.26,3.27,3.23,3.29,3.28,3.28,3.27,3.3,3.19,0.0,1.0,2.0,0.0,0.0,19921461,0.0,78.23000000000002,5905.531938676121
1765915411657,0.0,0.0,1.0,10.0,0.0,0.0,0.0,2304.0,0.0,0.0,0.0,0.0,0.0,0.0,0.0,0.0,0.0,0.0,-0.05124,-0.041968,1.012112,0.7000000000000001,-0.35000000000000003,0.07,25.0,3.24,3.29,3.19,3.22,3.26,3.24,3.26,3.3,3.27,3.28,3.27,3.26,3.26,3.28,3.21,3.25,3.27,3.26,3.27,3.23,3.29,3.28,3.28,3.27,3.3,3.19,0.0,1.0,2.0,0.0,0.0,19921645,0.0,78.23000000000002,5905.531938676121
1765915411673,0.0,0.0,1.0,10.0,0.0,0.0,0.0,2304.0,0.0,0.0,0.0,0.0,0.0,0.0,0.0,0.0,0.0,0.0,-0.05124,-0.041968,1.012112,0.7000000000000001,-0.35000000000000003,0.07,25.0,3.24,3.29,3.19,3.22,3.26,3.24,3.26,3.3,3.27,3.28,3.27,3.26,3.26,3.28,3.21,3.25,3.27,3.26,3.27,3.23,3.29,3.28,3.28,3.27,3.3,3.19,0.0,1.0,2.0,0.0,0.0,19921661,0.0,78.23000000000002,5905.531938676121
1765915411724,0.0,0.0,1.0,10.0,0.0,0.0,0.0,2304.0,0.0,0.0,0.0,0.0,0.0,0.0,0.0,0.0,0.0,0.0,-0.05124,-0.041968,1.012112,0.7000000000000001,-0.35000000000000003,0.07,25.0,3.24,3.29,3.19,3.22,3.26,3.24,3.26,3.3,3.27,3.28,3.27,3.26,3.26,3.28,3.21,3.25,3.27,3.26,3.27,3.23,3.29,3.28,3.28,3.27,3.3,3.19,0.0,1.0,2.0,0.0,0.0,19921712,0.0,78.23000000000002,5905.531938676121
1765915411757,0.0,0.0,1.0,10.0,0.0,0.0,0.0,2304.0,0.0,0.0,0.0,0.0,0.0,0.0,0.0,0.0,0.0,0.0,-0.056119999999999996,-0.042212,1.01138,0.7000000000000001,-0.35000000000000003,0.07,25.0,3.24,3.29,3.19,3.22,3.26,3.24,3.26,3.3,3.27,3.28,3.27,3.26,3.26,3.28,3.21,3.25,3.27,3.26,3.27,3.23,3.29,3.28,3.28,3.27,3.3,3.19,0.0,1.0,2.0,0.0,0.0,19921745,0.0,78.23000000000002,5905.531938676121
1765915411790,0.0,0.0,1.0,10.0,0.0,0.0,0.0,0.0,0.0,0.0,0.0,0.0,0.0,0.0,0.0,0.0,0.0,0.0,-0.056119999999999996,-0.042212,1.01138,0.7000000000000001,-0.35000000000000003,0.07,25.0,3.24,3.29,3.19,3.22,3.26,3.24,3.26,3.3,3.27,3.28,3.27,3.26,3.26,3.28,3.21,3.25,3.27,3.26,3.27,3.23,3.29,3.28,3.28,3.27,3.3,3.19,0.0,1.0,2.0,0.0,0.0,19921778,0.0,78.23000000000002,5905.531938676121
1765915411807,0.0,0.0,1.0,10.0,0.0,0.0,0.0,0.0,0.0,0.0,0.0,0.0,0.0,0.0,0.0,0.0,0.0,0.0,-0.056119999999999996,-0.042212,1.01138,0.6300000000000001,-0.42000000000000004,0.14,25.0,3.24,3.29,3.19,3.22,3.26,3.24,3.26,3.3,3.27,3.28,3.27,3.26,3.26,3.28,3.21,3.25,3.27,3.26,3.27,3.23,3.29,3.28,3.28,3.27,3.3,3.19,0.0,1.0,2.0,0.0,0.0,19921795,0.0,78.23000000000002,5905.531938676121
1765915411857,0.0,0.0,1.0,10.0,0.0,0.0,0.0,0.0,0.0,0.0,0.0,0.0,0.0,0.0,0.0,0.0,0.0,0.0,-0.056119999999999996,-0.042212,1.01138,0.6300000000000001,-0.42000000000000004,0.14,25.0,3.24,3.29,3.19,3.22,3.26,3.24,3.26,3.3,3.27,3.28,3.27,3.26,3.26,3.28,3.21,3.25,3.27,3.26,3.27,3.23,3.29,3.28,3.28,3.27,3.3,3.19,0.0,1.0,2.0,0.0,0.0,19921845,0.0,78.23000000000002,5905.531938676121
1765915411940,0.0,0.0,1.0,10.0,0.0,0.0,0.0,0.0,0.0,0.0,0.0,0.0,0.0,0.0,0.0,0.0,0.0,0.0,-0.055998,-0.041968,1.01016,0.6300000000000001,-0.21000000000000002,0.14,25.0,3.24,3.29,3.19,3.22,3.26,3.24,3.26,3.3,3.27,3.28,3.27,3.26,3.26,3.28,3.21,3.25,3.27,3.26,3.27,3.23,3.29,3.28,3.28,3.27,3.3,3.19,0.0,1.0,2.0,0.0,0.0,19921928,0.0,78.23000000000002,5905.531938676121
1765915411974,0.0,0.0,1.0,10.0,0.0,0.0,0.0,0.0,0.0,0.0,0.0,0.0,0.0,0.0,0.0,0.0,0.0,0.0,-0.055998,-0.041968,1.01016,0.6300000000000001,-0.21000000000000002,0.14,25.0,3.24,3.29,3.19,3.22,3.26,3.24,3.26,3.3,3.27,3.28,3.27,3.26,3.26,3.28,3.21,3.25,3.27,3.26,3.27,3.23,3.29,3.28,3.28,3.27,3.3,3.19,0.0,1.0,2.0,0.0,0.0,19921962,0.0,78.23000000000002,5905.531938676121
1765915412007,0.0,0.0,1.0,10.0,0.0,0.0,0.0,0.0,0.0,0.0,0.0,0.0,0.0,0.0,0.0,0.0,0.0,0.0,-0.055998,-0.041968,1.01016,0.6300000000000001,-0.21000000000000002,0.14,25.0,3.24,3.29,3.19,3.22,3.26,3.24,3.26,3.3,3.27,3.28,3.27,3.26,3.26,3.28,3.21,3.25,3.27,3.26,3.27,3.23,3.29,3.28,3.28,3.27,3.3,3.19,0.0,1.0,2.0,0.0,0.0,19921995,0.0,78.23000000000002,5905.531938676121
1765915412024,0.0,0.0,1.0,10.0,0.0,0.0,0.0,0.0,0.0,0.0,0.0,0.0,0.0,0.0,0.0,0.0,0.0,0.0,-0.055998,-0.041968,1.01016,0.6300000000000001,-0.21000000000000002,0.14,25.0,3.24,3.29,3.19,3.22,3.26,3.24,3.26,3.3,3.27,3.28,3.27,3.26,3.26,3.28,3.21,3.25,3.27,3.26,3.27,3.23,3.29,3.28,3.28,3.27,3.3,3.19,0.0,1.0,2.0,0.0,0.0,19922012,0.0,78.23000000000002,5905.531938676121
1765915412041,0.0,0.0,1.0,10.0,0.0,0.0,0.0,0.0,0.0,0.0,0.0,0.0,0.0,0.0,0.0,0.0,0.0,0.0,-0.055998,-0.041968,1.01016,0.6300000000000001,-0.21000000000000002,0.14,25.0,3.24,3.29,3.19,3.22,3.26,3.24,3.26,3.3,3.27,3.28,3.27,3.26,3.26,3.28,3.21,3.25,3.27,3.26,3.27,3.23,3.29,3.28,3.28,3.27,3.3,3.19,0.0,1.0,2.0,0.0,0.0,19922029,0.0,78.23000000000002,5905.531938676121
1765915412057,0.0,0.0,1.0,10.0,0.0,0.0,0.0,0.0,0.0,0.0,0.0,0.0,0.0,0.0,0.0,0.0,0.0,0.0,-0.055265999999999996,-0.040504,1.014064,0.6300000000000001,-0.21000000000000002,0.14,25.0,3.24,3.29,3.19,3.22,3.26,3.24,3.26,3.3,3.27,3.28,3.27,3.26,3.26,3.28,3.21,3.25,3.27,3.26,3.27,3.23,3.29,3.28,3.28,3.27,3.3,3.19,0.0,1.0,2.0,0.0,0.0,19922045,0.0,78.23000000000002,5905.531938676121
1765915412073,0.0,0.0,1.0,10.0,0.0,0.0,0.0,0.0,0.0,0.0,0.0,0.0,0.0,0.0,0.0,0.0,0.0,0.0,-0.055265999999999996,-0.040504,1.014064,0.6300000000000001,-0.21000000000000002,0.14,25.0,3.24,3.29,3.19,3.22,3.26,3.24,3.26,3.3,3.27,3.28,3.27,3.26,3.26,3.28,3.21,3.25,3.27,3.26,3.27,3.23,3.29,3.28,3.28,3.27,3.3,3.19,0.0,1.0,2.0,0.0,0.0,19922061,0.0,78.23000000000002,5905.531938676121
1765915412107,0.0,0.0,1.0,10.0,0.0,0.0,0.0,0.0,0.0,0.0,0.0,0.0,0.0,0.0,0.0,0.0,0.0,0.0,-0.055265999999999996,-0.040504,1.014064,0.6300000000000001,-0.35000000000000003,0.0,25.0,3.24,3.29,3.19,3.22,3.26,3.24,3.26,3.3,3.27,3.28,3.27,3.26,3.26,3.28,3.21,3.25,3.27,3.26,3.27,3.23,3.29,3.28,3.28,3.27,3.3,3.19,0.0,1.0,2.0,0.0,0.0,19922095,0.0,78.23000000000002,5905.531938676121
1765915412140,0.0,0.0,1.0,10.0,0.0,0.0,0.0,0.0,0.0,0.0,0.0,0.0,0.0,0.0,0.0,0.0,0.0,0.0,-0.055265999999999996,-0.040504,1.014064,0.6300000000000001,-0.35000000000000003,0.0,25.0,3.24,3.29,3.19,3.22,3.26,3.24,3.26,3.3,3.27,3.28,3.27,3.26,3.26,3.28,3.21,3.25,3.27,3.26,3.27,3.23,3.29,3.28,3.28,3.27,3.3,3.19,0.0,1.0,2.0,0.0,0.0,19922128,0.0,78.23000000000002,5905.531938676121
1765915412223,0.0,0.0,1.0,10.0,0.0,0.0,0.0,0.0,0.0,0.0,0.0,0.0,0.0,0.0,0.0,0.0,0.0,0.0,-0.049409999999999996,-0.043798,1.012112,0.6300000000000001,-0.35000000000000003,0.0,25.0,3.24,3.29,3.19,3.22,3.26,3.24,3.26,3.3,3.27,3.28,3.27,3.26,3.26,3.28,3.21,3.25,3.27,3.26,3.27,3.23,3.29,3.28,3.28,3.27,3.3,3.19,0.0,1.0,2.0,0.0,0.0,19922211,0.0,78.23000000000002,5905.531938676121
1765915412238,0.0,0.0,1.0,10.0,0.0,0.0,0.0,0.0,0.0,0.0,0.0,0.0,0.0,0.0,0.0,0.0,0.0,0.0,-0.049409999999999996,-0.043798,1.012112,0.6300000000000001,-0.35000000000000003,0.0,25.0,3.24,3.29,3.19,3.22,3.26,3.24,3.26,3.3,3.27,3.28,3.27,3.26,3.26,3.28,3.21,3.25,3.27,3.26,3.27,3.23,3.29,3.28,3.28,3.27,3.3,3.19,0.0,1.0,2.0,0.0,0.0,19922226,0.0,78.23000000000002,5905.531938676121
1765915412255,0.0,0.0,1.0,10.0,0.0,0.0,0.0,0.0,0.0,0.0,0.0,0.0,0.0,0.0,0.0,0.0,0.0,0.0,-0.049409999999999996,-0.043798,1.012112,0.6300000000000001,-0.35000000000000003,0.0,25.0,3.24,3.29,3.19,3.22,3.26,3.24,3.26,3.3,3.27,3.28,3.27,3.26,3.26,3.28,3.21,3.25,3.27,3.26,3.27,3.23,3.29,3.28,3.28,3.27,3.3,3.19,0.0,1.0,2.0,0.0,0.0,19922243,0.0,78.23000000000002,5905.531938676121
1765915412289,0.0,0.0,1.0,10.0,0.0,0.0,0.0,0.0,0.0,0.0,0.0,0.0,0.0,0.0,0.0,0.0,0.0,0.0,-0.049409999999999996,-0.043798,1.012112,0.6300000000000001,-0.35000000000000003,0.0,25.0,3.24,3.29,3.19,3.22,3.26,3.24,3.26,3.3,3.27,3.28,3.27,3.26,3.26,3.28,3.21,3.25,3.27,3.26,3.27,3.23,3.29,3.28,3.28,3.27,3.3,3.19,0.0,1.0,2.0,0.0,0.0,19922277,0.0,78.23000000000002,5905.531938676121
1765915412339,0.0,0.0,1.0,10.0,0.0,0.0,0.0,0.0,0.0,0.0,0.0,0.0,0.0,0.0,0.0,0.0,0.0,0.0,-0.049409999999999996,-0.043798,1.012112,0.6300000000000001,-0.35000000000000003,0.0,25.0,3.24,3.29,3.19,3.22,3.26,3.24,3.26,3.3,3.27,3.28,3.27,3.26,3.26,3.28,3.21,3.25,3.27,3.26,3.27,3.23,3.29,3.28,3.28,3.27,3.3,3.19,0.0,1.0,2.0,0.0,0.0,19922327,0.0,78.23000000000002,5905.531938676121
1765915412357,0.0,0.0,1.0,10.0,0.0,0.0,0.0,0.0,0.0,0.0,0.0,0.0,0.0,0.0,0.0,0.0,0.0,0.0,-0.049409999999999996,-0.043798,1.012112,0.6300000000000001,-0.35000000000000003,0.0,25.0,3.24,3.29,3.19,3.22,3.26,3.24,3.26,3.3,3.27,3.28,3.27,3.26,3.26,3.28,3.21,3.25,3.27,3.26,3.27,3.23,3.29,3.28,3.28,3.27,3.3,3.19,0.0,1.0,2.0,0.0,0.0,19922345,0.0,78.23000000000002,5905.531938676121
1765915412374,0.0,0.0,1.0,10.0,0.0,0.0,0.0,0.0,0.0,0.0,0.0,0.0,0.0,0.0,0.0,0.0,0.0,0.0,-0.054778,-0.042212,1.01138,0.6300000000000001,-0.35000000000000003,0.0,25.0,3.24,3.29,3.19,3.22,3.26,3.24,3.26,3.3,3.27,3.28,3.27,3.26,3.26,3.28,3.21,3.25,3.27,3.26,3.27,3.23,3.29,3.28,3.28,3.27,3.3,3.19,0.0,1.0,2.0,0.0,0.0,19922362,0.0,78.23000000000002,5905.531938676121
1765915412407,0.0,0.0,1.0,10.0,0.0,0.0,0.0,0.0,0.0,0.0,0.0,0.0,0.0,0.0,0.0,0.0,0.0,0.0,-0.054778,-0.042212,1.01138,0.6300000000000001,-0.35000000000000003,0.0,25.0,3.24,3.29,3.19,3.22,3.26,3.24,3.26,3.3,3.27,3.28,3.27,3.26,3.26,3.28,3.21,3.25,3.27,3.26,3.27,3.23,3.29,3.28,3.28,3.27,3.3,3.19,0.0,1.0,2.0,0.0,0.0,19922395,0.0,78.23000000000002,5905.531938676121
1765915412424,0.0,0.0,1.0,10.0,0.0,0.0,0.0,0.0,0.0,0.0,0.0,0.0,0.0,0.0,0.0,0.0,0.0,0.0,-0.054778,-0.042212,1.01138,0.6300000000000001,-0.35000000000000003,0.14,25.0,3.24,3.29,3.19,3.22,3.26,3.24,3.26,3.3,3.27,3.28,3.27,3.26,3.26,3.28,3.21,3.25,3.27,3.26,3.27,3.23,3.29,3.28,3.28,3.27,3.3,3.19,0.0,1.0,2.0,0.0,0.0,19922412,0.0,78.23000000000002,5905.531938676121
1765915412457,0.0,0.0,1.0,10.0,0.0,0.0,0.0,0.0,0.0,0.0,0.0,0.0,0.0,0.0,0.0,0.0,0.0,0.0,-0.054778,-0.042212,1.01138,0.6300000000000001,-0.35000000000000003,0.14,25.0,3.24,3.29,3.19,3.22,3.26,3.24,3.26,3.3,3.27,3.28,3.27,3.26,3.26,3.28,3.21,3.25,3.27,3.26,3.27,3.23,3.29,3.28,3.28,3.27,3.3,3.19,0.0,1.0,2.0,0.0,0.0,19922445,0.0,78.23000000000002,5905.531938676121
1765915412491,0.0,0.0,1.0,10.0,0.0,0.0,0.0,0.0,0.0,0.0,0.0,0.0,0.0,0.0,0.0,0.0,0.0,0.0,-0.054778,-0.042212,1.01138,0.6300000000000001,-0.35000000000000003,0.14,25.0,3.24,3.29,3.19,3.22,3.26,3.24,3.26,3.3,3.27,3.28,3.27,3.26,3.26,3.28,3.21,3.25,3.27,3.26,3.27,3.23,3.29,3.28,3.28,3.27,3.3,3.19,0.0,1.0,2.0,0.0,0.0,19922479,0.0,78.23000000000002,5905.531938676121
1765915412557,0.0,0.0,1.0,10.0,0.0,0.0,0.0,0.0,0.0,0.0,0.0,0.0,0.0,0.0,0.0,0.0,0.0,0.0,-0.05734,-0.043066,1.01138,0.6300000000000001,-0.35000000000000003,0.14,25.0,3.24,3.29,3.19,3.22,3.26,3.24,3.26,3.3,3.27,3.28,3.27,3.26,3.26,3.28,3.21,3.25,3.27,3.26,3.27,3.23,3.29,3.28,3.28,3.27,3.3,3.19,0.0,1.0,2.0,0.0,0.0,19922545,0.0,78.23000000000002,5905.531938676121
1765915412574,0.0,0.0,1.0,10.0,0.0,0.0,0.0,0.0,0.0,0.0,0.0,0.0,0.0,0.0,0.0,0.0,0.0,0.0,-0.05734,-0.043066,1.01138,0.7000000000000001,-0.42000000000000004,0.07,25.0,3.24,3.29,3.19,3.22,3.26,3.24,3.26,3.3,3.27,3.28,3.27,3.26,3.26,3.28,3.21,3.25,3.27,3.26,3.27,3.23,3.29,3.28,3.28,3.27,3.3,3.19,0.0,1.0,2.0,0.0,0.0,19922562,0.0,78.23000000000002,5905.531938676121
1765915412622,0.0,0.0,1.0,10.0,0.0,0.0,0.0,0.0,0.0,0.0,0.0,0.0,0.0,0.0,0.0,0.0,0.0,0.0,-0.05734,-0.043066,1.01138,0.7000000000000001,-0.42000000000000004,0.07,25.0,3.24,3.29,3.19,3.22,3.26,3.24,3.26,3.3,3.27,3.28,3.27,3.26,3.26,3.28,3.21,3.25,3.27,3.26,3.27,3.23,3.29,3.28,3.28,3.27,3.3,3.19,0.0,1.0,2.0,0.0,0.0,19922610,0.0,78.23000000000002,5905.531938676121
1765915412640,0.0,0.0,1.0,10.0,0.0,0.0,0.0,0.0,0.0,0.0,0.0,0.0,0.0,0.0,0.0,0.0,0.0,0.0,-0.05734,-0.043066,1.01138,0.7000000000000001,-0.42000000000000004,0.07,25.0,3.24,3.29,3.19,3.22,3.26,3.24,3.26,3.3,3.27,3.28,3.27,3.26,3.26,3.28,3.21,3.25,3.27,3.26,3.27,3.23,3.29,3.28,3.28,3.27,3.3,3.19,0.0,1.0,2.0,0.0,0.0,19922628,0.0,78.23000000000002,5905.531938676121
1765915412657,0.0,0.0,1.0,10.0,0.0,0.0,0.0,0.0,0.0,0.0,0.0,0.0,0.0,0.0,0.0,0.0,0.0,0.0,-0.057828,-0.041968,1.011014,0.7000000000000001,-0.42000000000000004,0.07,25.0,3.24,3.29,3.19,3.22,3.26,3.24,3.26,3.3,3.27,3.28,3.27,3.26,3.26,3.28,3.21,3.25,3.27,3.26,3.27,3.23,3.29,3.28,3.28,3.27,3.3,3.19,0.0,1.0,2.0,0.0,0.0,19922645,0.0,78.23000000000002,5905.531938676121
1765915412690,0.0,0.0,1.0,10.0,0.0,0.0,0.0,0.0,0.0,0.0,0.0,0.0,0.0,0.0,0.0,0.0,0.0,0.0,-0.057828,-0.041968,1.011014,0.7000000000000001,-0.42000000000000004,0.07,25.0,3.24,3.29,3.19,3.22,3.26,3.24,3.26,3.3,3.27,3.28,3.27,3.26,3.26,3.28,3.21,3.25,3.27,3.26,3.27,3.23,3.29,3.28,3.28,3.27,3.3,3.19,0.0,1.0,2.0,0.0,0.0,19922678,0.0,78.23000000000002,5905.531938676121
1765915412707,0.0,0.0,1.0,10.0,0.0,0.0,0.0,0.0,0.0,0.0,0.0,0.0,0.0,0.0,0.0,0.0,0.0,0.0,-0.057828,-0.041968,1.011014,0.6300000000000001,-0.35000000000000003,0.14,25.0,3.24,3.29,3.19,3.22,3.26,3.24,3.26,3.3,3.27,3.28,3.27,3.26,3.26,3.28,3.21,3.25,3.27,3.26,3.27,3.23,3.29,3.28,3.28,3.27,3.3,3.19,0.0,1.0,2.0,0.0,0.0,19922695,0.0,78.23000000000002,5905.531938676121
1765915412756,0.0,0.0,1.0,10.0,0.0,0.0,0.0,0.0,0.0,0.0,0.0,0.0,0.0,0.0,0.0,0.0,0.0,0.0,-0.057828,-0.041968,1.011014,0.6300000000000001,-0.35000000000000003,0.14,25.0,3.24,3.29,3.19,3.22,3.26,3.24,3.26,3.3,3.27,3.28,3.27,3.26,3.26,3.28,3.21,3.25,3.27,3.26,3.27,3.23,3.29,3.28,3.28,3.27,3.3,3.19,0.0,1.0,2.0,0.0,0.0,19922744,0.0,78.23000000000002,5905.531938676121
1765915412774,0.0,0.0,1.0,10.0,0.0,0.0,0.0,0.0,0.0,0.0,0.0,0.0,0.0,0.0,0.0,0.0,0.0,0.0,-0.057828,-0.041968,1.011014,0.6300000000000001,-0.35000000000000003,0.14,25.0,3.24,3.29,3.19,3.22,3.26,3.24,3.26,3.3,3.27,3.28,3.27,3.26,3.26,3.28,3.21,3.25,3.27,3.26,3.27,3.23,3.29,3.28,3.28,3.27,3.3,3.19,0.0,1.0,2.0,0.0,0.0,19922762,0.0,78.23000000000002,5905.531938676121
1765915412842,0.0,0.0,1.0,10.0,0.0,0.0,0.0,0.0,0.0,0.0,0.0,0.0,0.0,0.0,0.0,0.0,0.0,0.0,-0.051484,-0.042578,1.0126,0.6300000000000001,-0.35000000000000003,0.14,25.0,3.24,3.29,3.19,3.22,3.26,3.24,3.26,3.3,3.27,3.28,3.27,3.26,3.26,3.28,3.21,3.25,3.27,3.26,3.27,3.23,3.29,3.28,3.28,3.27,3.3,3.19,0.0,1.0,2.0,0.0,0.0,19922830,0.0,78.23000000000002,5905.531938676121
1765915412857,0.0,0.0,1.0,10.0,0.0,0.0,0.0,0.0,0.0,0.0,0.0,0.0,0.0,0.0,0.0,0.0,0.0,0.0,-0.051484,-0.042578,1.0126,0.7000000000000001,-0.49000000000000005,0.07,25.0,3.24,3.29,3.19,3.22,3.26,3.24,3.26,3.3,3.27,3.28,3.27,3.26,3.26,3.28,3.21,3.25,3.27,3.26,3.27,3.23,3.29,3.28,3.28,3.27,3.3,3.19,0.0,1.0,2.0,0.0,0.0,19922845,0.0,78.23000000000002,5905.531938676121
1765915412874,0.0,0.0,1.0,10.0,0.0,0.0,0.0,0.0,0.0,0.0,0.0,0.0,0.0,0.0,0.0,0.0,0.0,0.0,-0.051484,-0.042578,1.0126,0.7000000000000001,-0.49000000000000005,0.07,25.0,3.24,3.29,3.19,3.22,3.26,3.24,3.26,3.3,3.27,3.28,3.27,3.26,3.26,3.28,3.21,3.25,3.27,3.26,3.27,3.23,3.29,3.28,3.28,3.27,3.3,3.19,0.0,1.0,2.0,0.0,0.0,19922862,0.0,78.23000000000002,5905.531938676121
1765915412908,0.0,0.0,1.0,10.0,0.0,0.0,0.0,0.0,0.0,0.0,0.0,0.0,0.0,0.0,0.0,0.0,0.0,0.0,-0.051484,-0.042578,1.0126,0.7000000000000001,-0.49000000000000005,0.07,25.0,3.24,3.29,3.19,3.22,3.26,3.24,3.26,3.3,3.27,3.28,3.27,3.26,3.26,3.28,3.21,3.25,3.27,3.26,3.27,3.23,3.29,3.28,3.28,3.27,3.3,3.19,0.0,1.0,2.0,0.0,0.0,19922896,0.0,78.23000000000002,5905.531938676121
1765915412922,0.0,0.0,1.0,10.0,0.0,0.0,0.0,0.0,0.0,0.0,0.0,0.0,0.0,0.0,0.0,0.0,0.0,0.0,-0.051484,-0.042578,1.0126,0.7000000000000001,-0.49000000000000005,0.07,25.0,3.24,3.29,3.19,3.22,3.26,3.24,3.26,3.3,3.27,3.28,3.27,3.26,3.26,3.28,3.21,3.25,3.27,3.26,3.27,3.23,3.29,3.28,3.28,3.27,3.3,3.19,0.0,1.0,2.0,0.0,0.0,19922910,0.0,78.23000000000002,5905.531938676121
1765915412940,0.0,0.0,1.0,10.0,0.0,0.0,0.0,0.0,0.0,0.0,0.0,0.0,0.0,0.0,0.0,0.0,0.0,0.0,-0.050508,-0.042943999999999996,1.012844,0.7000000000000001,-0.49000000000000005,0.07,25.0,3.24,3.29,3.19,3.22,3.26,3.24,3.26,3.3,3.27,3.28,3.27,3.26,3.26,3.28,3.21,3.25,3.27,3.26,3.27,3.23,3.29,3.28,3.28,3.27,3.3,3.19,0.0,1.0,2.0,0.0,0.0,19922928,0.0,78.23000000000002,5905.531938676121
1765915412956,0.0,0.0,1.0,10.0,0.0,0.0,0.0,0.0,0.0,0.0,0.0,0.0,0.0,0.0,0.0,0.0,0.0,0.0,-0.050508,-0.042943999999999996,1.012844,0.7000000000000001,-0.49000000000000005,0.07,25.0,3.24,3.29,3.19,3.22,3.26,3.24,3.26,3.3,3.27,3.28,3.27,3.26,3.26,3.28,3.21,3.25,3.27,3.26,3.27,3.23,3.29,3.28,3.28,3.27,3.3,3.19,0.0,1.0,2.0,0.0,0.0,19922944,0.0,78.23000000000002,5905.531938676121
1765915413007,0.0,0.0,1.0,10.0,0.0,0.0,0.0,0.0,0.0,0.0,0.0,0.0,0.0,0.0,0.0,0.0,0.0,0.0,-0.050508,-0.042943999999999996,1.012844,0.7000000000000001,-0.49000000000000005,0.07,25.0,3.24,3.29,3.19,3.22,3.26,3.24,3.26,3.3,3.27,3.28,3.27,3.26,3.26,3.28,3.21,3.25,3.27,3.26,3.27,3.23,3.29,3.28,3.28,3.27,3.3,3.19,0.0,1.0,2.0,0.0,0.0,19922995,0.0,78.23000000000002,5905.531938676121
1765915413023,0.0,0.0,1.0,10.0,0.0,0.0,0.0,0.0,0.0,0.0,0.0,0.0,0.0,0.0,0.0,0.0,0.0,0.0,-0.050508,-0.042943999999999996,1.012844,0.7000000000000001,-0.49000000000000005,0.07,25.0,3.24,3.29,3.19,3.22,3.26,3.24,3.26,3.3,3.27,3.28,3.27,3.26,3.26,3.28,3.21,3.25,3.27,3.26,3.27,3.23,3.29,3.28,3.28,3.27,3.3,3.19,0.0,1.0,2.0,0.0,0.0,19923011,0.0,78.23000000000002,5905.531938676121
1765915413024,0.0,0.0,1.0,10.0,0.0,0.0,0.0,0.0,0.0,0.0,0.0,0.0,0.0,0.0,0.0,0.0,0.0,0.0,-0.050508,-0.042943999999999996,1.012844,0.6300000000000001,-0.42000000000000004,0.14,25.0,3.24,3.29,3.19,3.22,3.26,3.24,3.26,3.3,3.27,3.28,3.27,3.26,3.26,3.28,3.21,3.25,3.27,3.26,3.27,3.23,3.29,3.28,3.28,3.27,3.3,3.19,0.0,1.0,2.0,0.0,0.0,19923012,0.0,78.23000000000002,5905.531938676121
1765915413057,0.0,0.0,1.0,10.0,0.0,0.0,0.0,0.0,0.0,0.0,0.0,0.0,0.0,0.0,0.0,0.0,0.0,0.0,-0.050508,-0.042943999999999996,1.012844,0.6300000000000001,-0.42000000000000004,0.14,25.0,3.24,3.29,3.19,3.22,3.26,3.24,3.26,3.3,3.27,3.28,3.27,3.26,3.26,3.28,3.21,3.25,3.27,3.26,3.27,3.23,3.29,3.28,3.28,3.27,3.3,3.19,0.0,1.0,2.0,0.0,0.0,19923045,0.0,78.23000000000002,5905.531938676121
1765915413090,0.0,0.0,1.0,10.0,0.0,0.0,0.0,0.0,0.0,0.0,0.0,0.0,0.0,0.0,0.0,0.0,0.0,0.0,-0.050508,-0.042943999999999996,1.012844,0.6300000000000001,-0.42000000000000004,0.14,25.0,3.24,3.29,3.19,3.22,3.26,3.24,3.26,3.3,3.27,3.28,3.27,3.26,3.26,3.28,3.21,3.25,3.27,3.26,3.27,3.23,3.29,3.28,3.28,3.27,3.3,3.19,0.0,1.0,2.0,0.0,0.0,19923078,0.0,78.23000000000002,5905.531938676121
1765915413124,0.0,0.0,1.0,10.0,0.0,0.0,0.0,0.0,0.0,0.0,0.0,0.0,0.0,0.0,0.0,0.0,0.0,0.0,-0.050508,-0.042943999999999996,1.012844,0.6300000000000001,-0.42000000000000004,0.14,25.0,3.24,3.29,3.19,3.22,3.26,3.24,3.26,3.3,3.27,3.28,3.27,3.26,3.26,3.28,3.21,3.25,3.27,3.26,3.27,3.23,3.29,3.28,3.28,3.27,3.3,3.19,0.0,1.0,2.0,0.0,0.0,19923112,0.0,78.23000000000002,5905.531938676121
1765915413191,0.0,0.0,1.0,10.0,0.0,0.0,0.0,0.0,0.0,0.0,0.0,0.0,0.0,0.0,0.0,0.0,0.0,0.0,-0.053801999999999996,-0.044652,1.013332,0.6300000000000001,-0.42000000000000004,0.14,25.0,3.24,3.29,3.19,3.22,3.26,3.24,3.26,3.3,3.27,3.28,3.27,3.26,3.26,3.28,3.21,3.25,3.27,3.26,3.27,3.23,3.29,3.28,3.28,3.27,3.3,3.19,0.0,1.0,2.0,0.0,0.0,19923179,0.0,78.23000000000002,5905.531938676121
1765915413207,0.0,0.0,1.0,10.0,0.0,0.0,0.0,0.0,0.0,0.0,0.0,0.0,0.0,0.0,0.0,0.0,0.0,0.0,-0.053801999999999996,-0.044652,1.013332,0.6300000000000001,-0.35000000000000003,0.07,25.0,3.24,3.29,3.19,3.22,3.26,3.24,3.26,3.3,3.27,3.28,3.27,3.26,3.26,3.28,3.21,3.25,3.27,3.26,3.27,3.23,3.29,3.28,3.28,3.27,3.3,3.19,0.0,1.0,2.0,0.0,0.0,19923195,0.0,78.23000000000002,5905.531938676121
1765915413224,0.0,0.0,1.0,10.0,0.0,0.0,0.0,0.0,0.0,0.0,0.0,0.0,0.0,0.0,0.0,0.0,0.0,0.0,-0.053801999999999996,-0.044652,1.013332,0.6300000000000001,-0.35000000000000003,0.07,25.0,3.24,3.29,3.19,3.22,3.26,3.24,3.26,3.3,3.27,3.28,3.27,3.26,3.26,3.28,3.21,3.25,3.27,3.26,3.27,3.23,3.29,3.28,3.28,3.27,3.3,3.19,0.0,1.0,2.0,0.0,0.0,19923212,0.0,78.23000000000002,5905.531938676121
1765915413257,0.0,0.0,1.0,10.0,0.0,0.0,0.0,0.0,0.0,0.0,0.0,0.0,0.0,0.0,0.0,0.0,0.0,0.0,-0.053801999999999996,-0.044652,1.013332,0.6300000000000001,-0.35000000000000003,0.07,25.0,3.24,3.29,3.19,3.22,3.26,3.24,3.26,3.3,3.27,3.28,3.27,3.26,3.26,3.28,3.21,3.25,3.27,3.26,3.27,3.23,3.29,3.28,3.28,3.27,3.3,3.19,0.0,1.0,2.0,0.0,0.0,19923245,0.0,78.23000000000002,5905.531938676121
1765915413274,0.0,0.0,1.0,10.0,0.0,0.0,0.0,0.0,0.0,0.0,0.0,0.0,0.0,0.0,0.0,0.0,0.0,0.0,-0.053801999999999996,-0.044652,1.013332,0.6300000000000001,-0.35000000000000003,0.07,25.0,3.24,3.29,3.19,3.22,3.26,3.24,3.26,3.3,3.27,3.28,3.27,3.26,3.26,3.28,3.21,3.25,3.27,3.26,3.27,3.23,3.29,3.28,3.28,3.27,3.3,3.19,0.0,1.0,2.0,0.0,0.0,19923262,0.0,78.23000000000002,5905.531938676121
1765915413290,0.0,0.0,1.0,10.0,0.0,0.0,0.0,0.0,0.0,0.0,0.0,0.0,0.0,0.0,0.0,0.0,0.0,0.0,-0.05307,-0.040626,1.012112,0.6300000000000001,-0.35000000000000003,0.07,25.0,3.24,3.29,3.19,3.22,3.26,3.24,3.26,3.3,3.27,3.28,3.27,3.26,3.26,3.28,3.21,3.25,3.27,3.26,3.27,3.23,3.29,3.28,3.28,3.27,3.3,3.19,0.0,1.0,2.0,0.0,0.0,19923278,0.0,78.23000000000002,5905.531938676121
1765915413307,0.0,0.0,1.0,10.0,0.0,0.0,0.0,0.0,0.0,0.0,0.0,0.0,0.0,0.0,0.0,0.0,0.0,0.0,-0.05307,-0.040626,1.012112,0.6300000000000001,-0.35000000000000003,0.07,25.0,3.24,3.29,3.19,3.22,3.26,3.24,3.26,3.3,3.27,3.28,3.27,3.26,3.26,3.28,3.21,3.25,3.27,3.26,3.27,3.23,3.29,3.28,3.28,3.27,3.3,3.19,0.0,1.0,2.0,0.0,0.0,19923295,0.0,78.23000000000002,5905.531938676121
1765915413341,0.0,0.0,1.0,10.0,0.0,0.0,0.0,0.0,0.0,0.0,0.0,0.0,0.0,0.0,0.0,0.0,0.0,0.0,-0.05307,-0.040626,1.012112,0.7000000000000001,-0.49000000000000005,0.07,25.0,3.24,3.29,3.19,3.22,3.26,3.24,3.26,3.3,3.27,3.28,3.27,3.26,3.26,3.28,3.21,3.25,3.27,3.26,3.27,3.23,3.29,3.28,3.28,3.27,3.3,3.19,0.0,1.0,2.0,0.0,0.0,19923329,0.0,78.23000000000002,5905.531938676121
1765915413374,0.0,0.0,1.0,10.0,0.0,0.0,0.0,0.0,0.0,0.0,0.0,0.0,0.0,0.0,0.0,0.0,0.0,0.0,-0.05307,-0.040626,1.012112,0.7000000000000001,-0.49000000000000005,0.07,25.0,3.24,3.29,3.19,3.22,3.26,3.24,3.26,3.3,3.27,3.28,3.27,3.26,3.26,3.28,3.21,3.25,3.27,3.26,3.27,3.23,3.29,3.28,3.28,3.27,3.3,3.19,0.0,1.0,2.0,0.0,0.0,19923362,0.0,78.23000000000002,5905.531938676121
1765915413407,0.0,0.0,1.0,10.0,0.0,0.0,0.0,0.0,0.0,0.0,0.0,0.0,0.0,0.0,0.0,0.0,0.0,0.0,-0.05307,-0.040626,1.012112,0.7000000000000001,-0.49000000000000005,0.07,25.0,3.24,3.29,3.19,3.22,3.26,3.24,3.26,3.3,3.27,3.28,3.27,3.26,3.26,3.28,3.21,3.25,3.27,3.26,3.27,3.23,3.29,3.28,3.28,3.27,3.3,3.19,0.0,1.0,2.0,0.0,0.0,19923395,0.0,78.23000000000002,5905.531938676121
1765915413474,0.0,0.0,1.0,10.0,0.0,0.0,0.0,0.0,0.0,0.0,0.0,0.0,0.0,0.0,0.0,0.0,0.0,0.0,-0.054412,-0.041358,1.011502,0.7000000000000001,-0.49000000000000005,0.07,25.0,3.24,3.29,3.19,3.22,3.26,3.24,3.26,3.3,3.27,3.28,3.27,3.26,3.26,3.28,3.21,3.25,3.27,3.26,3.27,3.23,3.29,3.28,3.28,3.27,3.3,3.19,0.0,1.0,2.0,0.0,0.0,19923462,0.0,78.23000000000002,5905.531938676121
1765915413507,0.0,0.0,1.0,10.0,0.0,0.0,0.0,0.0,0.0,0.0,0.0,0.0,0.0,0.0,0.0,0.0,0.0,0.0,-0.054412,-0.041358,1.011502,0.6300000000000001,-0.35000000000000003,0.07,25.0,3.24,3.29,3.19,3.22,3.26,3.24,3.26,3.3,3.27,3.28,3.27,3.26,3.26,3.28,3.21,3.25,3.27,3.26,3.27,3.23,3.29,3.28,3.28,3.27,3.3,3.19,0.0,1.0,2.0,0.0,0.0,19923495,0.0,78.23000000000002,5905.531938676121
1765915413540,0.0,0.0,1.0,10.0,0.0,0.0,0.0,0.0,0.0,0.0,0.0,0.0,0.0,0.0,0.0,0.0,0.0,0.0,-0.054412,-0.041358,1.011502,0.6300000000000001,-0.35000000000000003,0.07,25.0,3.24,3.29,3.19,3.22,3.26,3.24,3.26,3.3,3.27,3.28,3.27,3.26,3.26,3.28,3.21,3.25,3.27,3.26,3.27,3.23,3.29,3.28,3.28,3.27,3.3,3.19,0.0,1.0,2.0,0.0,0.0,19923528,0.0,78.23000000000002,5905.531938676121
1765915413557,0.0,0.0,1.0,10.0,0.0,0.0,0.0,0.0,0.0,0.0,0.0,0.0,0.0,0.0,0.0,0.0,0.0,0.0,-0.054412,-0.041358,1.011502,0.6300000000000001,-0.35000000000000003,0.07,25.0,3.24,3.29,3.19,3.22,3.26,3.24,3.26,3.3,3.27,3.28,3.27,3.26,3.26,3.28,3.21,3.25,3.27,3.26,3.27,3.23,3.29,3.28,3.28,3.27,3.3,3.19,0.0,1.0,2.0,0.0,0.0,19923545,0.0,78.23000000000002,5905.531938676121
1765915413574,0.0,0.0,1.0,10.0,0.0,0.0,0.0,0.0,0.0,0.0,0.0,0.0,0.0,0.0,0.0,0.0,0.0,0.0,-0.052948,-0.042456,1.012112,0.6300000000000001,-0.35000000000000003,0.07,25.0,3.24,3.29,3.19,3.22,3.26,3.24,3.26,3.3,3.27,3.28,3.27,3.26,3.26,3.28,3.21,3.25,3.27,3.26,3.27,3.23,3.29,3.28,3.28,3.27,3.3,3.19,0.0,1.0,2.0,0.0,0.0,19923562,0.0,78.23000000000002,5905.531938676121
1765915413590,0.0,0.0,1.0,10.0,0.0,0.0,0.0,0.0,0.0,0.0,0.0,0.0,0.0,0.0,0.0,0.0,0.0,0.0,-0.052948,-0.042456,1.012112,0.6300000000000001,-0.35000000000000003,0.07,25.0,3.24,3.29,3.19,3.22,3.26,3.24,3.26,3.3,3.27,3.28,3.27,3.26,3.26,3.28,3.21,3.25,3.27,3.26,3.27,3.23,3.29,3.28,3.28,3.27,3.3,3.19,0.0,1.0,2.0,0.0,0.0,19923578,0.0,78.23000000000002,5905.531938676121
1765915413624,0.0,0.0,1.0,10.0,0.0,0.0,0.0,0.0,0.0,0.0,0.0,0.0,0.0,0.0,0.0,0.0,0.0,0.0,-0.052948,-0.042456,1.012112,0.6300000000000001,-0.28,0.07,25.0,3.24,3.29,3.19,3.22,3.26,3.24,3.26,3.3,3.27,3.28,3.27,3.26,3.26,3.28,3.21,3.25,3.27,3.26,3.27,3.23,3.29,3.28,3.28,3.27,3.3,3.19,0.0,1.0,2.0,0.0,0.0,19923612,0.0,78.23000000000002,5905.531938676121
1765915413640,0.0,0.0,1.0,10.0,0.0,0.0,0.0,0.0,0.0,0.0,0.0,0.0,0.0,0.0,0.0,0.0,0.0,0.0,-0.052948,-0.042456,1.012112,0.6300000000000001,-0.28,0.07,25.0,3.24,3.29,3.19,3.22,3.26,3.24,3.26,3.3,3.27,3.28,3.27,3.26,3.26,3.28,3.21,3.25,3.27,3.26,3.27,3.23,3.29,3.28,3.28,3.27,3.3,3.19,0.0,1.0,2.0,0.0,0.0,19923628,0.0,78.23000000000002,5905.531938676121
1765915413657,0.0,0.0,1.0,10.0,0.0,0.0,0.0,0.0,0.0,0.0,0.0,0.0,0.0,0.0,0.0,0.0,0.0,0.0,-0.052948,-0.042456,1.012112,0.6300000000000001,-0.49000000000000005,0.07,25.0,3.24,3.29,3.19,3.22,3.26,3.24,3.26,3.3,3.27,3.28,3.27,3.26,3.26,3.28,3.21,3.25,3.27,3.26,3.27,3.23,3.29,3.28,3.28,3.27,3.3,3.19,0.0,1.0,2.0,0.0,0.0,19923645,0.0,78.23000000000002,5905.531938676121
1765915413674,0.0,0.0,1.0,10.0,0.0,0.0,0.0,0.0,0.0,0.0,0.0,0.0,0.0,0.0,0.0,0.0,0.0,0.0,-0.052948,-0.042456,1.012112,0.6300000000000001,-0.49000000000000005,0.07,25.0,3.24,3.29,3.19,3.22,3.26,3.24,3.26,3.3,3.27,3.28,3.27,3.26,3.26,3.28,3.21,3.25,3.27,3.26,3.27,3.23,3.29,3.28,3.28,3.27,3.3,3.19,0.0,1.0,2.0,0.0,0.0,19923662,0.0,78.23000000000002,5905.531938676121
1765915413757,0.0,0.0,1.0,10.0,0.0,0.0,0.0,0.0,0.0,0.0,0.0,0.0,0.0,0.0,0.0,0.0,0.0,0.0,-0.052948,-0.042456,1.012112,0.6300000000000001,-0.49000000000000005,0.07,25.0,3.24,3.29,3.19,3.22,3.26,3.24,3.26,3.3,3.27,3.28,3.27,3.26,3.26,3.28,3.21,3.25,3.27,3.26,3.27,3.23,3.29,3.28,3.28,3.27,3.3,3.19,0.0,1.0,2.0,0.0,0.0,19923745,0.0,78.23000000000002,5905.531938676121
1765915413823,0.0,0.0,1.0,10.0,0.0,0.0,0.0,0.0,0.0,0.0,0.0,0.0,0.0,0.0,0.0,0.0,0.0,0.0,-0.05368,-0.041479999999999996,1.011136,0.6300000000000001,-0.49000000000000005,0.07,25.0,3.24,3.29,3.19,3.22,3.26,3.24,3.26,3.3,3.27,3.28,3.27,3.26,3.26,3.28,3.21,3.25,3.27,3.26,3.27,3.23,3.29,3.28,3.28,3.27,3.3,3.19,0.0,1.0,2.0,0.0,0.0,19923811,0.0,78.23000000000002,5905.531938676121
1765915413857,0.0,0.0,1.0,10.0,0.0,0.0,0.0,0.0,0.0,0.0,0.0,0.0,0.0,0.0,0.0,0.0,0.0,0.0,-0.05368,-0.041479999999999996,1.011136,0.6300000000000001,-0.35000000000000003,0.14,25.0,3.24,3.29,3.19,3.22,3.26,3.24,3.26,3.3,3.27,3.28,3.27,3.26,3.26,3.28,3.21,3.25,3.27,3.26,3.27,3.23,3.29,3.28,3.28,3.27,3.3,3.19,0.0,1.0,2.0,0.0,0.0,19923845,0.0,78.23000000000002,5905.531938676121
1765915413906,0.0,0.0,1.0,10.0,0.0,0.0,0.0,0.0,0.0,0.0,0.0,0.0,0.0,0.0,0.0,0.0,0.0,0.0,-0.054534,-0.042212,1.011746,0.6300000000000001,-0.35000000000000003,0.14,25.0,3.24,3.29,3.19,3.22,3.26,3.24,3.26,3.3,3.27,3.28,3.27,3.26,3.26,3.28,3.21,3.25,3.27,3.26,3.27,3.23,3.29,3.28,3.28,3.27,3.3,3.19,0.0,1.0,2.0,0.0,0.0,19923894,0.0,78.23000000000002,5905.531938676121
1765915413923,0.0,0.0,1.0,10.0,0.0,0.0,0.0,0.0,0.0,0.0,0.0,0.0,0.0,0.0,0.0,0.0,0.0,0.0,-0.054534,-0.042212,1.011746,0.6300000000000001,-0.35000000000000003,0.14,25.0,3.24,3.29,3.19,3.22,3.26,3.24,3.26,3.3,3.27,3.28,3.27,3.26,3.26,3.28,3.21,3.25,3.27,3.26,3.27,3.23,3.29,3.28,3.28,3.27,3.3,3.19,0.0,1.0,2.0,0.0,0.0,19923911,0.0,78.23000000000002,5905.531938676121
1765915413940,0.0,0.0,1.0,10.0,0.0,0.0,0.0,0.0,0.0,0.0,0.0,0.0,0.0,0.0,0.0,0.0,0.0,0.0,-0.054534,-0.042212,1.011746,0.6300000000000001,-0.28,0.14,25.0,3.24,3.29,3.19,3.22,3.26,3.24,3.26,3.3,3.27,3.28,3.27,3.26,3.26,3.28,3.21,3.25,3.27,3.26,3.27,3.23,3.29,3.28,3.28,3.27,3.3,3.19,0.0,1.0,2.0,0.0,0.0,19923928,0.0,78.23000000000002,5905.531938676121
1765915413957,0.0,0.0,1.0,10.0,0.0,0.0,0.0,0.0,0.0,0.0,0.0,0.0,0.0,0.0,0.0,0.0,0.0,0.0,-0.054534,-0.042212,1.011746,0.6300000000000001,-0.28,0.14,25.0,3.24,3.29,3.19,3.22,3.26,3.24,3.26,3.3,3.27,3.28,3.27,3.26,3.26,3.28,3.21,3.25,3.27,3.26,3.27,3.23,3.29,3.28,3.28,3.27,3.3,3.19,0.0,1.0,2.0,0.0,0.0,19923945,0.0,78.23000000000002,5905.531938676121
1765915413990,0.0,0.0,1.0,10.0,0.0,0.0,0.0,0.0,0.0,0.0,0.0,0.0,0.0,0.0,0.0,0.0,0.0,0.0,-0.054534,-0.042212,1.011746,0.6300000000000001,-0.28,0.14,25.0,3.24,3.29,3.19,3.22,3.26,3.24,3.26,3.3,3.27,3.28,3.27,3.26,3.26,3.28,3.21,3.25,3.27,3.26,3.27,3.23,3.29,3.28,3.28,3.27,3.3,3.19,0.0,1.0,2.0,0.0,0.0,19923978,0.0,78.23000000000002,5905.531938676121
1765915414006,0.0,0.0,1.0,10.0,0.0,0.0,0.0,0.0,0.0,0.0,0.0,0.0,0.0,0.0,0.0,0.0,0.0,0.0,-0.054534,-0.042212,1.011746,0.6300000000000001,-0.28,0.14,25.0,3.24,3.29,3.19,3.22,3.26,3.24,3.26,3.3,3.27,3.28,3.27,3.26,3.26,3.28,3.21,3.25,3.27,3.26,3.27,3.23,3.29,3.28,3.28,3.27,3.3,3.19,0.0,1.0,2.0,0.0,0.0,19923994,0.0,78.23000000000002,5905.531938676121
1765915414057,0.0,0.0,1.0,10.0,0.0,0.0,0.0,0.0,0.0,0.0,0.0,0.0,0.0,0.0,0.0,0.0,0.0,0.0,-0.054534,-0.042212,1.011746,0.6300000000000001,-0.28,0.14,25.0,3.24,3.29,3.19,3.22,3.26,3.24,3.26,3.3,3.27,3.28,3.27,3.26,3.26,3.28,3.21,3.25,3.27,3.26,3.27,3.23,3.29,3.28,3.28,3.27,3.3,3.19,0.0,1.0,2.0,0.0,0.0,19924045,0.0,78.23000000000002,5905.531938676121
1765915414107,0.0,0.0,1.0,10.0,0.0,0.0,0.0,0.0,0.0,0.0,0.0,0.0,0.0,0.0,0.0,0.0,0.0,0.0,-0.05368,-0.041358,1.01199,0.6300000000000001,-0.28,0.14,25.0,3.24,3.29,3.19,3.22,3.26,3.24,3.26,3.3,3.27,3.28,3.27,3.26,3.26,3.28,3.21,3.25,3.27,3.26,3.27,3.23,3.29,3.28,3.28,3.27,3.3,3.19,0.0,1.0,2.0,0.0,0.0,19924095,0.0,78.23000000000002,5905.531938676121
1765915414141,0.0,0.0,1.0,10.0,0.0,0.0,0.0,0.0,0.0,0.0,0.0,0.0,0.0,0.0,0.0,0.0,0.0,0.0,-0.05368,-0.041358,1.01199,0.6300000000000001,-0.42000000000000004,0.0,25.0,3.24,3.29,3.19,3.22,3.26,3.24,3.26,3.3,3.27,3.28,3.27,3.26,3.26,3.28,3.21,3.25,3.27,3.26,3.27,3.23,3.29,3.28,3.28,3.27,3.3,3.19,0.0,1.0,2.0,0.0,0.0,19924129,0.0,78.23000000000002,5905.531938676121
1765915414174,0.0,0.0,1.0,10.0,0.0,0.0,0.0,0.0,0.0,0.0,0.0,0.0,0.0,0.0,0.0,0.0,0.0,0.0,-0.054168,-0.0427,1.011624,0.6300000000000001,-0.42000000000000004,0.0,25.0,3.24,3.29,3.19,3.22,3.26,3.24,3.26,3.3,3.27,3.28,3.27,3.26,3.26,3.28,3.21,3.25,3.27,3.26,3.27,3.23,3.29,3.28,3.28,3.27,3.3,3.19,0.0,1.0,2.0,0.0,0.0,19924162,0.0,78.23000000000002,5905.531938676121
1765915414207,0.0,0.0,1.0,10.0,0.0,0.0,0.0,0.0,0.0,0.0,0.0,0.0,0.0,0.0,0.0,0.0,0.0,0.0,-0.054168,-0.0427,1.011624,0.6300000000000001,-0.42000000000000004,0.0,25.0,3.24,3.29,3.19,3.22,3.26,3.24,3.26,3.3,3.27,3.28,3.27,3.26,3.26,3.28,3.21,3.25,3.27,3.26,3.27,3.23,3.29,3.28,3.28,3.27,3.3,3.19,0.0,1.0,2.0,0.0,0.0,19924195,0.0,78.23000000000002,5905.531938676121
1765915414223,0.0,0.0,1.0,10.0,0.0,0.0,0.0,0.0,0.0,0.0,0.0,0.0,0.0,0.0,0.0,0.0,0.0,0.0,-0.054168,-0.0427,1.011624,0.6300000000000001,-0.28,0.07,25.0,3.24,3.29,3.19,3.22,3.26,3.24,3.26,3.3,3.27,3.28,3.27,3.26,3.26,3.28,3.21,3.25,3.27,3.26,3.27,3.23,3.29,3.28,3.28,3.27,3.3,3.19,0.0,1.0,2.0,0.0,0.0,19924211,0.0,78.23000000000002,5905.531938676121
1765915414240,0.0,0.0,1.0,10.0,0.0,0.0,0.0,0.0,0.0,0.0,0.0,0.0,0.0,0.0,0.0,0.0,0.0,0.0,-0.054168,-0.0427,1.011624,0.6300000000000001,-0.28,0.07,25.0,3.24,3.29,3.19,3.22,3.26,3.24,3.26,3.3,3.27,3.28,3.27,3.26,3.26,3.28,3.21,3.25,3.27,3.26,3.27,3.23,3.29,3.28,3.28,3.27,3.3,3.19,0.0,1.0,2.0,0.0,0.0,19924228,0.0,78.23000000000002,5905.531938676121
1765915414257,0.0,0.0,1.0,10.0,0.0,0.0,0.0,0.0,0.0,0.0,0.0,0.0,0.0,0.0,0.0,0.0,0.0,0.0,-0.054168,-0.0427,1.011624,0.6300000000000001,-0.28,0.07,25.0,3.24,3.29,3.19,3.22,3.26,3.24,3.26,3.3,3.27,3.28,3.27,3.26,3.26,3.28,3.21,3.25,3.27,3.26,3.27,3.23,3.29,3.28,3.28,3.27,3.3,3.19,0.0,1.0,2.0,0.0,0.0,19924245,0.0,78.23000000000002,5905.531938676121
1765915414273,0.0,0.0,1.0,10.0,0.0,0.0,0.0,0.0,0.0,0.0,0.0,0.0,0.0,0.0,0.0,0.0,0.0,0.0,-0.054168,-0.0427,1.011624,0.6300000000000001,-0.28,0.07,25.0,3.24,3.29,3.19,3.22,3.26,3.24,3.26,3.3,3.27,3.28,3.27,3.26,3.26,3.28,3.21,3.25,3.27,3.26,3.27,3.23,3.29,3.28,3.28,3.27,3.3,3.19,0.0,1.0,2.0,0.0,0.0,19924261,0.0,78.23000000000002,5905.531938676121
1765915414324,0.0,0.0,1.0,10.0,0.0,0.0,0.0,0.0,0.0,0.0,0.0,0.0,0.0,0.0,0.0,0.0,0.0,0.0,-0.054168,-0.0427,1.011624,0.6300000000000001,-0.28,0.07,25.0,3.24,3.29,3.19,3.22,3.26,3.24,3.26,3.3,3.27,3.28,3.27,3.26,3.26,3.28,3.21,3.25,3.27,3.26,3.27,3.23,3.29,3.28,3.28,3.27,3.3,3.19,0.0,1.0,2.0,0.0,0.0,19924312,0.0,78.23000000000002,5905.531938676121
1765915414340,0.0,0.0,1.0,10.0,0.0,0.0,0.0,0.0,0.0,0.0,0.0,0.0,0.0,0.0,0.0,0.0,0.0,0.0,-0.054168,-0.0427,1.011624,0.6300000000000001,-0.28,0.07,25.0,3.24,3.29,3.19,3.22,3.26,3.24,3.26,3.3,3.27,3.28,3.27,3.26,3.26,3.28,3.21,3.25,3.27,3.26,3.27,3.23,3.29,3.28,3.28,3.27,3.3,3.19,0.0,1.0,2.0,0.0,0.0,19924328,0.0,78.23000000000002,5905.531938676121
1765915414356,0.0,0.0,1.0,10.0,0.0,0.0,0.0,0.0,0.0,0.0,0.0,0.0,0.0,0.0,0.0,0.0,0.0,0.0,-0.054168,-0.0427,1.011624,0.6300000000000001,-0.28,0.07,25.0,3.24,3.29,3.19,3.22,3.26,3.24,3.26,3.3,3.27,3.28,3.27,3.26,3.26,3.28,3.21,3.25,3.27,3.26,3.27,3.23,3.29,3.28,3.28,3.27,3.3,3.19,0.0,1.0,2.0,0.0,0.0,19924344,0.0,78.23000000000002,5905.531938676121
1765915414407,0.0,0.0,1.0,10.0,0.0,0.0,0.0,0.0,0.0,0.0,0.0,0.0,0.0,0.0,0.0,0.0,0.0,0.0,-0.054168,-0.0427,1.011624,0.6300000000000001,-0.28,0.07,25.0,3.24,3.29,3.19,3.22,3.26,3.24,3.26,3.3,3.27,3.28,3.27,3.26,3.26,3.28,3.21,3.25,3.27,3.26,3.27,3.23,3.29,3.28,3.28,3.27,3.3,3.19,0.0,1.0,2.0,0.0,0.0,19924395,0.0,78.23000000000002,5905.531938676121
1765915414473,0.0,0.0,1.0,10.0,0.0,0.0,0.0,0.0,0.0,0.0,0.0,0.0,0.0,0.0,0.0,0.0,0.0,0.0,-0.052216,-0.043554,1.011258,0.6300000000000001,-0.28,0.07,25.0,3.24,3.29,3.19,3.22,3.26,3.24,3.26,3.3,3.27,3.28,3.27,3.26,3.26,3.28,3.21,3.25,3.27,3.26,3.27,3.23,3.29,3.28,3.28,3.27,3.3,3.19,0.0,1.0,2.0,0.0,0.0,19924461,0.0,78.23000000000002,5905.531938676121
1765915414490,0.0,0.0,1.0,10.0,0.0,0.0,0.0,0.0,0.0,0.0,0.0,0.0,0.0,0.0,0.0,0.0,0.0,0.0,-0.052216,-0.043554,1.011258,0.56,-0.42000000000000004,0.0,25.0,3.24,3.29,3.19,3.22,3.26,3.24,3.26,3.3,3.27,3.28,3.27,3.26,3.26,3.28,3.21,3.25,3.27,3.26,3.27,3.23,3.29,3.28,3.28,3.27,3.3,3.19,0.0,1.0,2.0,0.0,0.0,19924478,0.0,78.23000000000002,5905.531938676121
1765915414507,0.0,0.0,1.0,10.0,0.0,0.0,0.0,0.0,0.0,0.0,0.0,0.0,0.0,0.0,0.0,0.0,0.0,0.0,-0.052216,-0.043554,1.011258,0.56,-0.42000000000000004,0.0,25.0,3.24,3.29,3.19,3.22,3.26,3.24,3.26,3.3,3.27,3.28,3.27,3.26,3.26,3.28,3.21,3.25,3.27,3.26,3.27,3.23,3.29,3.28,3.28,3.27,3.3,3.19,0.0,1.0,2.0,0.0,0.0,19924495,0.0,78.23000000000002,5905.531938676121
1765915414541,111.0,0.0,1.0,10.0,0.0,0.0,0.0,0.0,0.0,0.0,0.0,0.0,0.0,0.0,0.0,0.0,0.0,0.0,-0.058072,-0.043676,1.010648,0.56,-0.42000000000000004,0.0,25.0,3.24,3.29,3.19,3.22,3.26,3.24,3.26,3.3,3.27,3.28,3.27,3.26,3.26,3.28,3.21,3.25,3.27,3.26,3.27,3.23,3.29,3.28,3.28,3.27,3.3,3.19,0.0,1.0,2.0,0.0,0.0,19924529,0.0,78.23000000000002,5905.531938676121
1765915414574,111.0,0.0,1.0,10.0,0.0,0.0,0.0,0.0,0.0,0.0,0.0,0.0,0.0,0.0,0.0,0.0,0.0,0.0,-0.058072,-0.043676,1.010648,0.56,-0.42000000000000004,0.0,25.0,3.24,3.29,3.19,3.22,3.26,3.24,3.26,3.3,3.27,3.28,3.27,3.26,3.26,3.28,3.21,3.25,3.27,3.26,3.27,3.23,3.29,3.28,3.28,3.27,3.3,3.19,0.0,1.0,2.0,0.0,0.0,19924562,0.0,78.23000000000002,5905.531938676121
1765915414590,111.0,0.0,1.0,10.0,0.0,0.0,0.0,0.0,0.0,0.0,0.0,0.0,0.0,0.0,0.0,0.0,0.0,0.0,-0.058072,-0.043676,1.010648,0.56,-0.42000000000000004,0.0,25.0,3.24,3.29,3.19,3.22,3.26,3.24,3.26,3.3,3.27,3.28,3.27,3.26,3.26,3.28,3.21,3.25,3.27,3.26,3.27,3.23,3.29,3.28,3.28,3.27,3.3,3.19,0.0,1.0,2.0,0.0,0.0,19924578,0.0,78.23000000000002,5905.531938676121
1765915414608,111.0,0.0,1.0,10.0,0.0,0.0,0.0,0.0,0.0,0.0,0.0,0.0,0.0,0.0,0.0,0.0,0.0,0.0,-0.058072,-0.043676,1.010648,0.6300000000000001,-0.42000000000000004,0.07,25.0,3.24,3.29,3.19,3.22,3.26,3.24,3.26,3.3,3.27,3.28,3.27,3.26,3.26,3.28,3.21,3.25,3.27,3.26,3.27,3.23,3.29,3.28,3.28,3.27,3.3,3.19,0.0,1.0,2.0,0.0,0.0,19924596,0.0,78.23000000000002,5905.531938676121
1765915414639,111.0,0.0,1.0,10.0,0.0,0.0,0.0,0.0,0.0,0.0,0.0,0.0,0.0,0.0,0.0,0.0,0.0,0.0,-0.058072,-0.043676,1.010648,0.6300000000000001,-0.42000000000000004,0.07,25.0,3.24,3.29,3.19,3.22,3.26,3.24,3.26,3.3,3.27,3.28,3.27,3.26,3.26,3.28,3.21,3.25,3.27,3.26,3.27,3.23,3.29,3.28,3.28,3.27,3.3,3.19,0.0,1.0,2.0,0.0,0.0,19924627,0.0,78.23000000000002,5905.531938676121
1765915414673,111.0,0.0,1.0,10.0,0.0,0.0,0.0,0.0,0.0,0.0,0.0,0.0,0.0,0.0,0.0,0.0,0.0,0.0,-0.058072,-0.043676,1.010648,0.6300000000000001,-0.42000000000000004,0.07,25.0,3.24,3.29,3.19,3.22,3.26,3.24,3.26,3.3,3.27,3.28,3.27,3.26,3.26,3.28,3.21,3.25,3.27,3.26,3.27,3.23,3.29,3.28,3.28,3.27,3.3,3.19,0.0,1.0,2.0,0.0,0.0,19924661,0.0,78.23000000000002,5905.531938676121
1765915414690,111.0,0.0,1.0,10.0,0.0,0.0,0.0,0.0,0.0,0.0,0.0,0.0,0.0,0.0,0.0,0.0,0.0,0.0,-0.058072,-0.043676,1.010648,0.6300000000000001,-0.42000000000000004,0.07,25.0,3.24,3.29,3.19,3.22,3.26,3.24,3.26,3.3,3.27,3.28,3.27,3.26,3.26,3.28,3.21,3.25,3.27,3.26,3.27,3.23,3.29,3.28,3.28,3.27,3.3,3.19,0.0,1.0,2.0,0.0,0.0,19924678,0.0,78.23000000000002,5905.531938676121
1765915414774,111.0,0.0,1.0,10.0,0.0,0.0,0.0,0.0,0.0,0.0,0.0,0.0,0.0,0.0,0.0,0.0,0.0,0.0,-0.059047999999999996,-0.040992,1.011624,0.6300000000000001,-0.28,0.07,25.0,3.24,3.29,3.19,3.22,3.26,3.24,3.26,3.3,3.27,3.28,3.27,3.26,3.26,3.28,3.21,3.25,3.27,3.26,3.27,3.23,3.29,3.28,3.28,3.27,3.3,3.19,0.0,1.0,2.0,0.0,0.0,19924762,0.0,78.23000000000002,5905.531938676121
1765915414790,111.0,0.0,1.0,10.0,0.0,0.0,0.0,0.0,0.0,0.0,0.0,0.0,0.0,0.0,0.0,0.0,0.0,0.0,-0.059047999999999996,-0.040992,1.011624,0.6300000000000001,-0.28,0.07,25.0,3.24,3.29,3.19,3.22,3.26,3.24,3.26,3.3,3.27,3.28,3.27,3.26,3.26,3.28,3.21,3.25,3.27,3.26,3.27,3.23,3.29,3.28,3.28,3.27,3.3,3.19,0.0,1.0,2.0,0.0,0.0,19924778,0.0,78.23000000000002,5905.531938676121
1765915414824,0.0,0.0,1.0,10.0,0.0,0.0,0.0,0.0,0.0,0.0,0.0,0.0,0.0,0.0,0.0,0.0,0.0,0.0,-0.059047999999999996,-0.040992,1.011624,0.6300000000000001,-0.28,0.07,25.0,3.24,3.29,3.19,3.22,3.26,3.24,3.26,3.3,3.27,3.28,3.27,3.26,3.26,3.28,3.21,3.25,3.27,3.26,3.27,3.23,3.29,3.28,3.28,3.27,3.3,3.19,0.0,1.0,2.0,0.0,0.0,19924812,0.0,78.23000000000002,5905.531938676121
1765915414840,0.0,0.0,1.0,10.0,0.0,0.0,0.0,0.0,0.0,0.0,0.0,0.0,0.0,0.0,0.0,0.0,0.0,0.0,-0.059047999999999996,-0.040992,1.011624,0.6300000000000001,-0.28,0.07,25.0,3.24,3.29,3.19,3.22,3.26,3.24,3.26,3.3,3.27,3.28,3.27,3.26,3.26,3.28,3.21,3.25,3.27,3.26,3.27,3.23,3.29,3.28,3.28,3.27,3.3,3.19,0.0,1.0,2.0,0.0,0.0,19924828,0.0,78.23000000000002,5905.531938676121
1765915414857,0.0,0.0,1.0,10.0,0.0,0.0,0.0,0.0,0.0,0.0,0.0,0.0,0.0,0.0,0.0,0.0,0.0,0.0,-0.059047999999999996,-0.040992,1.011624,0.6300000000000001,-0.28,0.07,25.0,3.24,3.29,3.19,3.22,3.26,3.24,3.26,3.3,3.27,3.28,3.27,3.26,3.26,3.28,3.21,3.25,3.27,3.26,3.27,3.23,3.29,3.28,3.28,3.27,3.3,3.19,0.0,1.0,2.0,0.0,0.0,19924845,0.0,78.23000000000002,5905.531938676121
1765915414874,0.0,0.0,1.0,10.0,0.0,0.0,0.0,0.0,0.0,0.0,0.0,0.0,0.0,0.0,0.0,0.0,0.0,0.0,-0.059047999999999996,-0.040992,1.011624,0.6300000000000001,-0.28,0.07,25.0,3.24,3.29,3.19,3.22,3.26,3.24,3.26,3.3,3.27,3.28,3.27,3.26,3.26,3.28,3.21,3.25,3.27,3.26,3.27,3.23,3.29,3.28,3.28,3.27,3.3,3.19,0.0,1.0,2.0,0.0,0.0,19924862,0.0,78.23000000000002,5905.531938676121
1765915414891,0.0,0.0,1.0,10.0,0.0,0.0,0.0,0.0,0.0,0.0,0.0,0.0,0.0,0.0,0.0,0.0,0.0,0.0,-0.056608,-0.041968,1.0126,0.6300000000000001,-0.28,0.07,25.0,3.24,3.29,3.19,3.22,3.26,3.24,3.26,3.3,3.27,3.28,3.27,3.26,3.26,3.28,3.21,3.25,3.27,3.26,3.27,3.23,3.29,3.28,3.28,3.27,3.3,3.19,0.0,1.0,2.0,0.0,0.0,19924879,0.0,78.23000000000002,5905.531938676121
1765915414907,0.0,0.0,1.0,10.0,0.0,0.0,0.0,0.0,0.0,0.0,0.0,0.0,0.0,0.0,0.0,0.0,0.0,0.0,-0.056608,-0.041968,1.0126,0.6300000000000001,-0.28,0.07,25.0,3.24,3.29,3.19,3.22,3.26,3.24,3.26,3.3,3.27,3.28,3.27,3.26,3.26,3.28,3.21,3.25,3.27,3.26,3.27,3.23,3.29,3.28,3.28,3.27,3.3,3.19,0.0,1.0,2.0,0.0,0.0,19924895,0.0,78.23000000000002,5905.531938676121
1765915414923,0.0,0.0,1.0,10.0,0.0,0.0,0.0,0.0,0.0,0.0,0.0,0.0,0.0,0.0,0.0,0.0,0.0,0.0,-0.056608,-0.041968,1.0126,0.56,-0.42000000000000004,0.14,25.0,3.24,3.29,3.19,3.22,3.26,3.24,3.26,3.3,3.27,3.28,3.27,3.26,3.26,3.28,3.21,3.25,3.27,3.26,3.27,3.23,3.29,3.28,3.28,3.27,3.3,3.19,0.0,1.0,2.0,0.0,0.0,19924911,0.0,78.23000000000002,5905.531938676121
1765915415024,0.0,0.0,1.0,10.0,0.0,0.0,0.0,0.0,0.0,0.0,0.0,0.0,0.0,0.0,0.0,0.0,0.0,0.0,-0.056608,-0.041968,1.0126,0.56,-0.42000000000000004,0.14,25.0,3.24,3.29,3.19,3.22,3.26,3.24,3.26,3.3,3.27,3.28,3.27,3.26,3.26,3.28,3.21,3.25,3.27,3.26,3.27,3.23,3.29,3.28,3.28,3.27,3.3,3.19,0.0,1.0,2.0,0.0,0.0,19925012,0.0,78.23000000000002,5905.531938676121
1765915415090,0.0,0.0,1.0,10.0,0.0,0.0,0.0,0.0,0.0,0.0,0.0,0.0,0.0,0.0,0.0,0.0,0.0,0.0,-0.050873999999999996,-0.043066,1.010282,0.6300000000000001,-0.35000000000000003,0.14,25.0,3.24,3.29,3.19,3.22,3.26,3.24,3.26,3.3,3.27,3.28,3.27,3.26,3.26,3.28,3.21,3.25,3.27,3.26,3.27,3.23,3.29,3.28,3.28,3.27,3.3,3.19,0.0,1.0,2.0,0.0,0.0,19925078,0.0,78.23000000000002,5905.531938676121
1765915415107,0.0,0.0,1.0,10.0,0.0,0.0,0.0,0.0,0.0,0.0,0.0,0.0,0.0,0.0,0.0,0.0,0.0,0.0,-0.050873999999999996,-0.043066,1.010282,0.6300000000000001,-0.35000000000000003,0.14,25.0,3.24,3.29,3.19,3.22,3.26,3.24,3.26,3.3,3.27,3.28,3.27,3.26,3.26,3.28,3.21,3.25,3.27,3.26,3.27,3.23,3.29,3.28,3.28,3.27,3.3,3.19,0.0,1.0,2.0,0.0,0.0,19925095,0.0,78.23000000000002,5905.531938676121
1765915415141,0.0,0.0,1.0,10.0,0.0,0.0,0.0,0.0,0.0,0.0,0.0,0.0,0.0,0.0,0.0,0.0,0.0,0.0,-0.050873999999999996,-0.043066,1.010282,0.6300000000000001,-0.35000000000000003,0.14,25.0,3.24,3.29,3.19,3.22,3.26,3.24,3.26,3.3,3.27,3.28,3.27,3.26,3.26,3.28,3.21,3.25,3.27,3.26,3.27,3.23,3.29,3.28,3.28,3.27,3.3,3.19,0.0,1.0,2.0,0.0,0.0,19925129,0.0,78.23000000000002,5905.531938676121
1765915415157,0.0,0.0,1.0,10.0,0.0,0.0,0.0,0.0,0.0,0.0,0.0,0.0,0.0,0.0,0.0,0.0,0.0,0.0,-0.050873999999999996,-0.043066,1.010282,0.6300000000000001,-0.35000000000000003,0.14,25.0,3.24,3.29,3.19,3.22,3.26,3.24,3.26,3.3,3.27,3.28,3.27,3.26,3.26,3.28,3.21,3.25,3.27,3.26,3.27,3.23,3.29,3.28,3.28,3.27,3.3,3.19,0.0,1.0,2.0,0.0,0.0,19925145,0.0,78.23000000000002,5905.531938676121
1765915415174,0.0,0.0,1.0,10.0,0.0,0.0,0.0,0.0,0.0,0.0,0.0,0.0,0.0,0.0,0.0,0.0,0.0,0.0,-0.050873999999999996,-0.043066,1.010282,0.6300000000000001,-0.35000000000000003,0.14,25.0,3.24,3.29,3.19,3.22,3.26,3.24,3.26,3.3,3.27,3.28,3.27,3.26,3.26,3.28,3.21,3.25,3.27,3.26,3.27,3.23,3.29,3.28,3.28,3.27,3.3,3.19,0.0,1.0,2.0,0.0,0.0,19925162,0.0,78.23000000000002,5905.531938676121
1765915415190,0.0,0.0,1.0,10.0,0.0,0.0,0.0,0.0,0.0,0.0,0.0,0.0,0.0,0.0,0.0,0.0,0.0,0.0,-0.053924,-0.041724,1.013576,0.6300000000000001,-0.35000000000000003,0.14,25.0,3.24,3.29,3.19,3.22,3.26,3.24,3.26,3.3,3.27,3.28,3.27,3.26,3.26,3.28,3.21,3.25,3.27,3.26,3.27,3.23,3.29,3.28,3.28,3.27,3.3,3.19,0.0,1.0,2.0,0.0,0.0,19925178,0.0,78.23000000000002,5905.531938676121
1765915415207,0.0,0.0,1.0,10.0,0.0,0.0,0.0,0.0,0.0,0.0,0.0,0.0,0.0,0.0,0.0,0.0,0.0,0.0,-0.053924,-0.041724,1.013576,0.6300000000000001,-0.35000000000000003,0.14,25.0,3.24,3.29,3.19,3.22,3.26,3.24,3.26,3.3,3.27,3.28,3.27,3.26,3.26,3.28,3.21,3.25,3.27,3.26,3.27,3.23,3.29,3.28,3.28,3.27,3.3,3.19,0.0,1.0,2.0,0.0,0.0,19925195,0.0,78.23000000000002,5905.531938676121
1765915415223,0.0,0.0,1.0,10.0,0.0,0.0,0.0,0.0,0.0,0.0,0.0,0.0,0.0,0.0,0.0,0.0,0.0,0.0,-0.053924,-0.041724,1.013576,0.6300000000000001,-0.35000000000000003,0.14,25.0,3.24,3.29,3.19,3.22,3.26,3.24,3.26,3.3,3.27,3.28,3.27,3.26,3.26,3.28,3.21,3.25,3.27,3.26,3.27,3.23,3.29,3.28,3.28,3.27,3.3,3.19,0.0,1.0,2.0,0.0,0.0,19925211,0.0,78.23000000000002,5905.531938676121
1765915415241,0.0,0.0,1.0,10.0,0.0,0.0,0.0,0.0,0.0,0.0,0.0,0.0,0.0,0.0,0.0,0.0,0.0,0.0,-0.053924,-0.041724,1.013576,0.6300000000000001,-0.28,0.07,25.0,3.24,3.29,3.19,3.22,3.26,3.24,3.26,3.3,3.27,3.28,3.27,3.26,3.26,3.28,3.21,3.25,3.27,3.26,3.27,3.23,3.29,3.28,3.28,3.27,3.3,3.19,0.0,1.0,2.0,0.0,0.0,19925229,0.0,78.23000000000002,5905.531938676121
1765915415290,0.0,0.0,1.0,10.0,0.0,0.0,0.0,0.0,0.0,0.0,0.0,0.0,0.0,0.0,0.0,0.0,0.0,0.0,-0.053924,-0.041724,1.013576,0.6300000000000001,-0.28,0.07,25.0,3.24,3.29,3.19,3.22,3.26,3.24,3.26,3.3,3.27,3.28,3.27,3.26,3.26,3.28,3.21,3.25,3.27,3.26,3.27,3.23,3.29,3.28,3.28,3.27,3.3,3.19,0.0,1.0,2.0,0.0,0.0,19925278,0.0,78.23000000000002,5905.531938676121
1765915415307,0.0,0.0,1.0,10.0,0.0,0.0,0.0,0.0,0.0,0.0,0.0,0.0,0.0,0.0,0.0,0.0,0.0,0.0,-0.053924,-0.041724,1.013576,0.6300000000000001,-0.28,0.07,25.0,3.24,3.29,3.19,3.22,3.26,3.24,3.26,3.3,3.27,3.28,3.27,3.26,3.26,3.28,3.21,3.25,3.27,3.26,3.27,3.23,3.29,3.28,3.28,3.27,3.3,3.19,0.0,1.0,2.0,0.0,0.0,19925295,0.0,78.23000000000002,5905.531938676121
1765915415374,0.0,0.0,1.0,10.0,0.0,0.0,0.0,0.0,0.0,0.0,0.0,0.0,0.0,0.0,0.0,0.0,0.0,0.0,-0.056119999999999996,-0.041602,1.01138,0.6300000000000001,-0.28,0.07,25.0,3.24,3.29,3.19,3.22,3.26,3.24,3.26,3.3,3.27,3.28,3.27,3.26,3.26,3.28,3.21,3.25,3.27,3.26,3.27,3.23,3.29,3.28,3.28,3.27,3.3,3.19,0.0,1.0,2.0,0.0,0.0,19925362,0.0,78.23000000000002,5905.531938676121
