timestamp,THROTTLE,BRAKE,ECU_MODE_ID,TORQUE_GAIN,TORQUE_REF_LEFT_MOTOR,TORQUE_REF_RIGHT_MOTOR,LEFT_MOTOR_RPM,LEFT_MOTOR_TORQUE,LEFT_MOTOR_CURRENT,RIGHT_MOTOR_RPM,RIGHT_MOTOR_TORQUE,RIGHT_MOTOR_CURRENT,REAR_LEFT_WHEEL_SPEED,REAR_RIGHT_WHEEL_SPEED,FRONT_LEFT_WHEEL_SPEED,FRONT_RIGHT_WHEEL_SPEED,ACCEL_LONGITUDINAL,ACCEL_LATERAL,ACCEL_NORMAL,VEL_ANGULAR_YAW,VEL_ANGULAR_PITCH,VEL_ANGULAR_ROLL,ELETROBUILD_TEMPERATURE,STACK_1_CELL_1,STACK_1_CELL_2,STACK_1_CELL_3,STACK_1_CELL_4,STACK_2_CELL_1,STACK_2_CELL_2,STACK_2_CELL_3,STACK_2_CELL_4,STACK_3_CELL_1,STACK_3_CELL_2,STACK_3_CELL_3,STACK_3_CELL_4,STACK_4_CELL_1,STACK_4_CELL_2,STACK_4_CELL_3,STACK_4_CELL_4,STACK_5_CELL_1,STACK_5_CELL_2,STACK_5_CELL_3,STACK_5_CELL_4,STACK_6_CELL_1,STACK_6_CELL_2,STACK_6_CELL_3,STACK_6_CELL_4,MAX_VOLTAGE,MIN_VOLTAGE,SHUNT_CURRENT,BMS_MODE_ID,BMS_ERROR_ID,AIR_P,AIR_N,BMS_ERROR_FLAG_STACK,BMS_ERROR_FLAG_CELL,BMS_ERROR_FLAG_VOLTAGE,LTC_ERROR_SLAVE_1,LTC_ERROR_SLAVE_2,LTC_ERROR_SLAVE_3,LTC_ERROR_SLAVE_4,LTC_ERROR_SLAVE_5,LTC_ERROR_SLAVE_6,LTC_ERROR_OVERVOLTAGE,LTC_ERROR_UNDERVOLTAGE,GLV,t,VEHICLE_SPEED,VEHICLE_WHEEL_SPEED,TOTAL_VOLTAGE,HODOMETRO
1768831190000,0.0,0.0,2.0,25.0,0.0,0.0,0.0,0.0,0.0,0.0,0.0,0.0,0.0,0.0,0.0,0.0,-0.058072,-0.102968,1.023336,1.33,-0.6300000000000001,0.21000000000000002,22.5859375,3.27,3.3,3.29,3.25,3.3,3.29,3.3,3.32,3.31,3.31,3.31,3.31,3.3,3.3,3.3,3.3,3.31,3.3,3.31,3.31,3.31,3.31,3.31,3.31,3.32,3.25,11.0,1.0,0.0,1.0,1.0,0.0,0.0,0.0,0.0,0.0,0.0,0.0,0.0,0.0,0.0,0.0,16.2,169997,0.0,0.0,79.23,122.09365972222233
1768831190017,0.0,0.0,2.0,25.0,0.0,0.0,0.0,0.0,0.0,0.0,0.0,0.0,0.0,0.0,0.0,0.0,-0.058072,-0.102968,1.023336,1.33,-0.6300000000000001,0.21000000000000002,22.640625,3.27,3.3,3.29,3.25,3.3,3.29,3.3,3.32,3.31,3.31,3.31,3.31,3.3,3.3,3.3,3.3,3.32,3.32,3.32,3.32,3.31,3.31,3.31,3.31,3.32,3.25,11.0,1.0,0.0,1.0,1.0,0.0,0.0,0.0,0.0,0.0,0.0,0.0,0.0,0.0,0.0,0.0,16.2,170014,0.0,0.0,79.28,122.09365972222233
1768831190099,0.0,0.0,2.0,25.0,0.0,0.0,0.0,0.0,0.0,0.0,0.0,0.0,0.0,0.0,0.0,0.0,-0.04026,-0.10467599999999999,1.01748,1.33,-0.6300000000000001,0.21000000000000002,22.640625,3.27,3.3,3.29,3.25,3.3,3.29,3.3,3.32,3.31,3.31,3.31,3.31,3.3,3.3,3.3,3.3,3.32,3.32,3.32,3.32,3.31,3.31,3.31,3.31,3.32,3.25,11.0,1.0,0.0,1.0,1.0,0.0,0.0,0.0,0.0,0.0,0.0,0.0,0.0,0.0,0.0,0.0,16.2,170096,0.0,0.0,79.28,122.09365972222233
1768831190116,0.0,0.0,2.0,25.0,0.0,0.0,0.0,0.0,0.0,0.0,0.0,0.0,0.0,0.0,0.0,0.0,-0.04026,-0.10467599999999999,1.01748,1.2600000000000002,-0.7000000000000001,0.14,22.640625,3.27,3.3,3.29,3.25,3.3,3.29,3.3,3.32,3.31,3.31,3.31,3.31,3.3,3.3,3.3,3.3,3.32,3.32,3.32,3.32,3.31,3.31,3.31,3.31,3.32,3.25,11.0,1.0,0.0,1.0,1.0,0.0,0.0,0.0,0.0,0.0,0.0,0.0,0.0,0.0,0.0,0.0,16.2,170113,0.0,0.0,79.28,122.09365972222233
1768831190133,0.0,0.0,2.0,25.0,0.0,0.0,0.0,0.0,0.0,0.0,0.0,0.0,0.0,0.0,0.0,0.0,-0.04026,-0.10467599999999999,1.01748,1.2600000000000002,-0.7000000000000001,0.14,22.640625,3.27,3.3,3.29,3.25,3.3,3.29,3.3,3.32,3.31,3.31,3.31,3.31,3.31,3.32,3.32,3.31,3.32,3.32,3.32,3.32,3.31,3.31,3.31,3.31,3.32,3.25,11.0,1.0,0.0,1.0,1.0,0.0,0.0,0.0,0.0,0.0,0.0,0.0,0.0,0.0,0.0,0.0,16.2,170130,0.0,0.0,79.34000000000002,122.09365972222233
1768831190151,0.0,0.0,2.0,25.0,0.0,0.0,0.0,0.0,0.0,0.0,0.0,0.0,0.0,0.0,0.0,0.0,-0.04026,-0.10467599999999999,1.01748,1.1900000000000002,-0.7000000000000001,0.14,22.640625,3.27,3.3,3.29,3.25,3.3,3.29,3.3,3.32,3.31,3.31,3.31,3.31,3.31,3.32,3.32,3.31,3.32,3.32,3.32,3.32,3.31,3.31,3.31,3.31,3.32,3.25,11.0,1.0,0.0,1.0,1.0,0.0,0.0,0.0,0.0,0.0,0.0,0.0,0.0,0.0,0.0,0.0,16.2,170148,0.0,0.0,79.34000000000002,122.09365972222233
1768831190185,0.0,0.0,2.0,25.0,0.0,0.0,0.0,0.0,0.0,0.0,0.0,0.0,0.0,0.0,0.0,0.0,-0.04026,-0.10467599999999999,1.01748,1.1900000000000002,-0.7000000000000001,0.14,22.640625,3.27,3.3,3.29,3.25,3.3,3.29,3.3,3.32,3.31,3.31,3.31,3.31,3.31,3.32,3.32,3.31,3.32,3.32,3.32,3.32,3.31,3.31,3.31,3.31,3.32,3.25,11.0,1.0,0.0,1.0,1.0,0.0,0.0,0.0,0.0,0.0,0.0,0.0,0.0,0.0,0.0,0.0,16.2,170182,0.0,0.0,79.34000000000002,122.09365972222233
1768831190201,0.0,0.0,2.0,25.0,0.0,0.0,0.0,0.0,0.0,0.0,0.0,0.0,0.0,0.0,0.0,0.0,-0.040992,-0.10577399999999999,1.017968,1.1900000000000002,-0.7000000000000001,0.14,22.640625,3.27,3.3,3.29,3.25,3.3,3.29,3.3,3.32,3.31,3.31,3.31,3.31,3.31,3.32,3.32,3.31,3.32,3.32,3.32,3.32,3.31,3.31,3.31,3.31,3.32,3.25,11.0,1.0,0.0,1.0,1.0,0.0,0.0,0.0,0.0,0.0,0.0,0.0,0.0,0.0,0.0,0.0,16.2,170198,0.0,0.0,79.34000000000002,122.09365972222233
1768831190233,0.0,0.0,2.0,25.0,0.0,0.0,0.0,0.0,0.0,0.0,0.0,0.0,0.0,0.0,0.0,0.0,-0.040992,-0.10577399999999999,1.017968,1.1900000000000002,-0.7000000000000001,0.14,22.640625,3.27,3.3,3.29,3.25,3.3,3.29,3.3,3.32,3.31,3.31,3.31,3.31,3.31,3.32,3.32,3.31,3.32,3.32,3.32,3.32,3.31,3.31,3.31,3.31,3.32,3.25,11.0,1.0,0.0,1.0,1.0,0.0,0.0,0.0,0.0,0.0,0.0,0.0,0.0,0.0,0.0,0.0,16.2,170230,0.0,0.0,79.34000000000002,122.09365972222233
1768831190250,0.0,0.0,2.0,25.0,0.0,0.0,0.0,0.0,0.0,0.0,0.0,0.0,0.0,0.0,0.0,0.0,-0.040992,-0.10577399999999999,1.017968,1.1900000000000002,-0.7000000000000001,0.14,22.640625,3.29,3.31,3.31,3.27,3.31,3.31,3.32,3.32,3.31,3.31,3.31,3.31,3.31,3.32,3.32,3.31,3.32,3.32,3.32,3.32,3.31,3.31,3.31,3.31,3.32,3.25,11.0,1.0,0.0,1.0,1.0,0.0,0.0,0.0,0.0,0.0,0.0,0.0,0.0,0.0,0.0,0.0,16.2,170247,0.0,0.0,79.46000000000001,122.09365972222233
1768831190267,0.0,0.0,2.0,25.0,0.0,0.0,0.0,0.0,0.0,0.0,0.0,0.0,0.0,0.0,0.0,0.0,-0.040992,-0.10577399999999999,1.017968,1.33,-0.7000000000000001,0.14,22.640625,3.29,3.31,3.31,3.27,3.31,3.31,3.32,3.32,3.31,3.31,3.31,3.31,3.31,3.32,3.32,3.31,3.32,3.32,3.32,3.32,3.31,3.31,3.31,3.31,3.32,3.25,11.0,1.0,0.0,1.0,1.0,0.0,0.0,0.0,0.0,0.0,0.0,0.0,0.0,0.0,0.0,0.0,16.2,170264,0.0,0.0,79.46000000000001,122.09365972222233
1768831190284,0.0,0.0,2.0,25.0,0.0,0.0,0.0,0.0,0.0,0.0,0.0,0.0,0.0,0.0,0.0,0.0,-0.040992,-0.10577399999999999,1.017968,1.33,-0.7000000000000001,0.14,22.640625,3.29,3.31,3.31,3.27,3.31,3.31,3.32,3.32,3.32,3.33,3.33,3.32,3.31,3.32,3.32,3.31,3.32,3.32,3.32,3.32,3.31,3.31,3.31,3.31,3.32,3.25,11.0,1.0,0.0,1.0,1.0,0.0,0.0,0.0,0.0,0.0,0.0,0.0,0.0,0.0,0.0,0.0,16.2,170281,0.0,0.0,79.52000000000001,122.09365972222233
1768831190301,0.0,0.0,1.0,10.0,0.0,0.0,0.0,0.0,0.0,0.0,0.0,0.0,0.0,0.0,0.0,0.0,-0.040992,-0.10577399999999999,1.017968,1.33,-0.7000000000000001,0.14,22.640625,3.29,3.31,3.31,3.27,3.31,3.31,3.32,3.32,3.32,3.33,3.33,3.32,3.31,3.32,3.32,3.31,3.32,3.32,3.32,3.32,3.31,3.31,3.31,3.31,3.32,3.25,11.0,1.0,0.0,1.0,1.0,0.0,0.0,0.0,0.0,0.0,0.0,0.0,0.0,0.0,0.0,0.0,16.2,170298,0.0,0.0,79.52000000000001,122.09365972222233
1768831190317,0.0,0.0,1.0,10.0,0.0,0.0,0.0,0.0,0.0,0.0,0.0,0.0,0.0,0.0,0.0,0.0,-0.040992,-0.10577399999999999,1.017968,1.33,-0.7000000000000001,0.14,22.640625,3.29,3.31,3.31,3.27,3.31,3.31,3.32,3.32,3.32,3.33,3.33,3.32,3.31,3.32,3.32,3.31,3.32,3.32,3.32,3.32,3.31,3.31,3.31,3.31,3.32,3.25,11.0,1.0,0.0,1.0,1.0,0.0,0.0,0.0,0.0,0.0,0.0,0.0,0.0,0.0,0.0,0.0,16.2,170314,0.0,0.0,79.52000000000001,122.09365972222233
1768831190334,0.0,0.0,1.0,10.0,0.0,0.0,0.0,0.0,0.0,0.0,0.0,0.0,0.0,0.0,0.0,0.0,-0.040992,-0.10577399999999999,1.017968,1.33,-0.7000000000000001,0.14,22.640625,3.29,3.31,3.31,3.27,3.31,3.31,3.32,3.32,3.32,3.33,3.33,3.32,3.31,3.32,3.32,3.31,3.32,3.32,3.32,3.32,3.33,3.33,3.33,3.33,3.32,3.25,11.0,1.0,0.0,1.0,1.0,0.0,0.0,0.0,0.0,0.0,0.0,0.0,0.0,0.0,0.0,0.0,16.2,170331,0.0,0.0,79.6,122.09365972222233
1768831190351,0.0,0.0,1.0,10.0,0.0,0.0,0.0,0.0,0.0,0.0,0.0,0.0,0.0,0.0,0.0,0.0,-0.040992,-0.10577399999999999,1.017968,1.33,-0.7000000000000001,0.14,22.640625,3.29,3.31,3.31,3.27,3.31,3.31,3.32,3.32,3.32,3.33,3.33,3.32,3.31,3.32,3.32,3.31,3.32,3.32,3.32,3.32,3.33,3.33,3.33,3.33,3.32,3.25,11.0,1.0,0.0,1.0,1.0,0.0,0.0,0.0,0.0,0.0,0.0,0.0,0.0,0.0,0.0,0.0,16.1,170348,0.0,0.0,79.6,122.09365972222233
1768831190366,0.0,0.0,1.0,10.0,0.0,0.0,0.0,0.0,0.0,0.0,0.0,0.0,0.0,0.0,0.0,0.0,-0.040992,-0.10577399999999999,1.017968,1.33,-0.7000000000000001,0.14,22.640625,3.29,3.31,3.31,3.27,3.31,3.31,3.32,3.32,3.32,3.33,3.33,3.32,3.31,3.32,3.32,3.31,3.32,3.32,3.32,3.32,3.33,3.33,3.33,3.33,3.32,3.25,11.0,1.0,0.0,1.0,1.0,0.0,0.0,0.0,0.0,0.0,0.0,0.0,0.0,0.0,0.0,0.0,16.1,170363,0.0,0.0,79.6,122.09365972222233
1768831190383,0.0,0.0,1.0,10.0,0.0,0.0,0.0,0.0,0.0,0.0,0.0,0.0,0.0,0.0,0.0,0.0,-0.040992,-0.10577399999999999,1.017968,1.33,-0.7000000000000001,0.14,22.640625,3.29,3.31,3.31,3.27,3.31,3.31,3.32,3.32,3.32,3.33,3.33,3.32,3.31,3.32,3.32,3.31,3.32,3.32,3.32,3.32,3.33,3.33,3.33,3.33,3.33,3.27,11.0,1.0,0.0,1.0,1.0,0.0,0.0,0.0,0.0,0.0,0.0,0.0,0.0,0.0,0.0,0.0,16.1,170380,0.0,0.0,79.6,122.09365972222233
1768831190416,0.0,0.0,1.0,10.0,0.0,0.0,0.0,0.0,0.0,0.0,0.0,0.0,0.0,0.0,0.0,0.0,-0.040992,-0.10577399999999999,1.017968,1.33,-0.7000000000000001,0.14,22.640625,3.29,3.31,3.31,3.27,3.31,3.31,3.32,3.32,3.32,3.33,3.33,3.32,3.31,3.32,3.32,3.31,3.32,3.32,3.32,3.32,3.33,3.33,3.33,3.33,3.33,3.27,11.0,1.0,0.0,1.0,1.0,0.0,0.0,0.0,0.0,0.0,0.0,0.0,0.0,0.0,0.0,0.0,16.1,170413,0.0,0.0,79.6,122.09365972222233
1768831190467,0.0,0.0,1.0,10.0,0.0,0.0,0.0,0.0,0.0,0.0,0.0,0.0,0.0,0.0,0.0,0.0,-0.040992,-0.10577399999999999,1.017968,1.33,-0.7000000000000001,0.14,22.65625,3.29,3.31,3.31,3.27,3.31,3.31,3.32,3.32,3.32,3.33,3.33,3.32,3.31,3.32,3.32,3.31,3.32,3.32,3.32,3.32,3.33,3.33,3.33,3.33,3.33,3.27,11.0,1.0,0.0,1.0,1.0,0.0,0.0,0.0,0.0,0.0,0.0,0.0,0.0,0.0,0.0,0.0,16.1,170464,0.0,0.0,79.6,122.09365972222233
1768831190550,0.0,0.0,1.0,10.0,0.0,0.0,0.0,0.0,0.0,0.0,0.0,0.0,0.0,0.0,0.0,0.0,-0.040626,-0.10638399999999999,1.020774,1.33,-0.7000000000000001,0.14,22.65625,3.29,3.31,3.31,3.27,3.31,3.31,3.32,3.32,3.32,3.33,3.33,3.32,3.31,3.32,3.32,3.31,3.32,3.32,3.32,3.32,3.33,3.33,3.33,3.33,3.33,3.27,11.0,1.0,0.0,1.0,1.0,0.0,0.0,0.0,0.0,0.0,0.0,0.0,0.0,0.0,0.0,0.0,16.1,170547,0.0,0.0,79.6,122.09365972222233
1768831190566,0.0,0.0,1.0,10.0,0.0,0.0,0.0,0.0,0.0,0.0,0.0,0.0,0.0,0.0,0.0,0.0,-0.040626,-0.10638399999999999,1.020774,1.33,-0.7000000000000001,0.14,22.65625,3.29,3.31,3.31,3.27,3.31,3.31,3.32,3.32,3.32,3.33,3.33,3.32,3.31,3.32,3.32,3.31,3.32,3.32,3.32,3.32,3.33,3.33,3.33,3.33,3.33,3.27,11.0,1.0,0.0,1.0,1.0,0.0,0.0,0.0,0.0,0.0,0.0,0.0,0.0,0.0,0.0,0.0,16.1,170563,0.0,0.0,79.6,122.09365972222233
1768831190584,0.0,0.0,1.0,10.0,0.0,0.0,0.0,0.0,0.0,0.0,0.0,0.0,0.0,0.0,0.0,0.0,-0.040626,-0.10638399999999999,1.020774,1.33,-0.7000000000000001,0.14,22.65625,3.29,3.31,3.31,3.27,3.31,3.31,3.32,3.32,3.32,3.33,3.33,3.32,3.31,3.32,3.32,3.31,3.32,3.32,3.32,3.32,3.33,3.33,3.33,3.33,3.33,3.27,11.0,1.0,0.0,1.0,1.0,0.0,0.0,0.0,0.0,0.0,0.0,0.0,0.0,0.0,0.0,0.0,16.1,170581,0.0,0.0,79.6,122.09365972222233
1768831190600,0.0,0.0,1.0,10.0,0.0,0.0,0.0,0.0,0.0,0.0,0.0,0.0,0.0,0.0,0.0,0.0,-0.040626,-0.10638399999999999,1.020774,1.33,-0.7000000000000001,0.14,22.65625,3.29,3.31,3.31,3.27,3.31,3.31,3.32,3.32,3.32,3.33,3.33,3.32,3.31,3.32,3.32,3.31,3.32,3.32,3.32,3.32,3.33,3.33,3.33,3.33,3.33,3.27,11.0,1.0,0.0,1.0,1.0,0.0,0.0,0.0,0.0,0.0,0.0,0.0,0.0,0.0,0.0,0.0,16.1,170597,0.0,0.0,79.6,122.09365972222233
1768831190617,0.0,0.0,1.0,10.0,0.0,0.0,0.0,0.0,0.0,0.0,0.0,0.0,0.0,0.0,0.0,0.0,-0.040626,-0.10638399999999999,1.020774,1.33,-0.7000000000000001,0.14,22.65625,3.29,3.31,3.31,3.27,3.31,3.31,3.32,3.32,3.32,3.33,3.33,3.32,3.31,3.32,3.32,3.31,3.32,3.32,3.32,3.32,3.33,3.33,3.33,3.33,3.33,3.27,11.0,1.0,0.0,1.0,1.0,0.0,0.0,0.0,0.0,0.0,0.0,0.0,0.0,0.0,0.0,0.0,16.1,170614,0.0,0.0,79.6,122.09365972222233
1768831190634,0.0,0.0,1.0,10.0,0.0,0.0,0.0,0.0,0.0,0.0,0.0,0.0,0.0,0.0,0.0,0.0,-0.040626,-0.10638399999999999,1.020774,1.33,-0.7000000000000001,0.14,22.65625,3.29,3.31,3.31,3.27,3.31,3.31,3.32,3.32,3.32,3.33,3.33,3.32,3.31,3.32,3.32,3.31,3.32,3.32,3.32,3.32,3.33,3.33,3.33,3.33,3.33,3.27,11.0,1.0,0.0,1.0,1.0,0.0,0.0,0.0,0.0,0.0,0.0,0.0,0.0,0.0,0.0,0.0,16.1,170631,0.0,0.0,79.6,122.09365972222233
1768831190651,0.0,0.0,1.0,10.0,0.0,0.0,0.0,0.0,0.0,0.0,0.0,0.0,0.0,0.0,0.0,0.0,-0.040626,-0.10638399999999999,1.020774,1.33,-0.7000000000000001,0.14,22.65625,3.29,3.31,3.31,3.27,3.31,3.31,3.32,3.32,3.32,3.33,3.33,3.32,3.31,3.32,3.32,3.31,3.32,3.32,3.32,3.32,3.33,3.33,3.33,3.33,3.33,3.27,12.0,1.0,0.0,1.0,1.0,0.0,0.0,0.0,0.0,0.0,0.0,0.0,0.0,0.0,0.0,0.0,16.1,170648,0.0,0.0,79.6,122.09365972222233
1768831190668,0.0,0.0,1.0,10.0,0.0,0.0,0.0,0.0,0.0,0.0,0.0,0.0,0.0,0.0,0.0,0.0,-0.040626,-0.10638399999999999,1.020774,1.33,-0.7000000000000001,0.14,22.65625,3.29,3.31,3.31,3.27,3.31,3.31,3.32,3.32,3.32,3.33,3.33,3.32,3.31,3.32,3.32,3.31,3.32,3.32,3.32,3.32,3.33,3.33,3.33,3.33,3.33,3.27,12.0,1.0,0.0,1.0,1.0,0.0,0.0,0.0,0.0,0.0,0.0,0.0,0.0,0.0,0.0,0.0,16.1,170665,0.0,0.0,79.6,122.09365972222233
1768831190700,0.0,0.0,1.0,10.0,0.0,0.0,0.0,0.0,0.0,0.0,0.0,0.0,0.0,0.0,0.0,0.0,-0.040626,-0.10638399999999999,1.020774,1.1900000000000002,-0.6300000000000001,0.14,22.65625,3.29,3.31,3.31,3.27,3.31,3.31,3.32,3.32,3.32,3.33,3.33,3.32,3.31,3.32,3.32,3.31,3.32,3.32,3.32,3.32,3.33,3.33,3.33,3.33,3.33,3.27,12.0,1.0,0.0,1.0,1.0,0.0,0.0,0.0,0.0,0.0,0.0,0.0,0.0,0.0,0.0,0.0,16.1,170697,0.0,0.0,79.6,122.09365972222233
1768831190733,0.0,0.0,1.0,10.0,0.0,0.0,0.0,0.0,0.0,0.0,0.0,0.0,0.0,0.0,0.0,0.0,-0.040626,-0.10638399999999999,1.020774,1.1900000000000002,-0.6300000000000001,0.14,22.65625,3.29,3.31,3.31,3.27,3.31,3.31,3.32,3.32,3.32,3.33,3.33,3.32,3.31,3.32,3.32,3.31,3.32,3.32,3.32,3.32,3.33,3.33,3.33,3.33,3.33,3.27,12.0,1.0,0.0,1.0,1.0,0.0,0.0,0.0,0.0,0.0,0.0,0.0,0.0,0.0,0.0,0.0,16.1,170730,0.0,0.0,79.6,122.09365972222233
1768831190750,0.0,0.0,1.0,10.0,0.0,0.0,0.0,0.0,0.0,0.0,0.0,0.0,0.0,0.0,0.0,0.0,-0.040626,-0.10638399999999999,1.020774,1.1900000000000002,-0.6300000000000001,0.14,22.65625,3.29,3.31,3.31,3.27,3.31,3.31,3.32,3.32,3.32,3.33,3.33,3.32,3.31,3.32,3.32,3.31,3.32,3.32,3.32,3.32,3.33,3.33,3.33,3.33,3.33,3.27,12.0,1.0,0.0,1.0,1.0,0.0,0.0,0.0,0.0,0.0,0.0,0.0,0.0,0.0,0.0,0.0,16.1,170747,0.0,0.0,79.6,122.09365972222233
1768831190766,0.0,0.0,1.0,10.0,0.0,0.0,0.0,0.0,0.0,0.0,0.0,0.0,0.0,0.0,0.0,0.0,-0.040626,-0.10638399999999999,1.020774,1.1900000000000002,-0.6300000000000001,0.14,22.65625,3.29,3.31,3.31,3.27,3.31,3.31,3.32,3.32,3.32,3.33,3.33,3.32,3.31,3.32,3.32,3.31,3.32,3.32,3.32,3.32,3.33,3.33,3.33,3.33,3.33,3.27,12.0,1.0,0.0,1.0,1.0,0.0,0.0,0.0,0.0,0.0,0.0,0.0,0.0,0.0,0.0,0.0,16.1,170763,0.0,0.0,79.6,122.09365972222233
1768831190801,0.0,0.0,1.0,10.0,0.0,0.0,0.0,0.0,0.0,0.0,0.0,0.0,0.0,0.0,0.0,0.0,-0.040626,-0.10638399999999999,1.020774,1.1900000000000002,-0.6300000000000001,0.14,22.65625,3.29,3.31,3.31,3.27,3.31,3.31,3.32,3.32,3.32,3.33,3.33,3.32,3.31,3.32,3.32,3.31,3.32,3.32,3.32,3.32,3.33,3.33,3.33,3.33,3.33,3.27,12.0,1.0,0.0,1.0,1.0,0.0,0.0,0.0,0.0,0.0,0.0,0.0,0.0,0.0,0.0,0.0,16.1,170798,0.0,0.0,79.6,122.09365972222233
1768831190833,0.0,0.0,1.0,10.0,0.0,0.0,0.0,0.0,0.0,0.0,0.0,0.0,0.0,0.0,0.0,0.0,-0.042212,-0.109068,1.015772,1.1900000000000002,-0.6300000000000001,0.14,22.65625,3.29,3.31,3.31,3.27,3.31,3.31,3.32,3.32,3.32,3.33,3.33,3.32,3.31,3.32,3.32,3.31,3.32,3.32,3.32,3.32,3.33,3.33,3.33,3.33,3.33,3.27,12.0,1.0,0.0,1.0,1.0,0.0,0.0,0.0,0.0,0.0,0.0,0.0,0.0,0.0,0.0,0.0,16.1,170830,0.0,0.0,79.6,122.09365972222233
1768831190849,0.0,0.0,1.0,10.0,0.0,0.0,0.0,0.0,0.0,0.0,0.0,0.0,0.0,0.0,0.0,0.0,-0.042212,-0.109068,1.015772,1.1900000000000002,-0.6300000000000001,0.14,22.65625,3.29,3.31,3.31,3.27,3.31,3.31,3.32,3.32,3.32,3.33,3.33,3.32,3.31,3.32,3.32,3.31,3.32,3.32,3.32,3.32,3.33,3.33,3.33,3.33,3.33,3.27,12.0,1.0,0.0,1.0,1.0,0.0,0.0,0.0,0.0,0.0,0.0,0.0,0.0,0.0,0.0,0.0,16.1,170846,0.0,0.0,79.6,122.09365972222233
1768831190866,0.0,0.0,1.0,10.0,0.0,0.0,0.0,0.0,0.0,0.0,0.0,0.0,0.0,0.0,0.0,0.0,-0.042212,-0.109068,1.015772,1.1900000000000002,-0.6300000000000001,0.14,22.65625,3.29,3.31,3.31,3.27,3.31,3.31,3.32,3.32,3.32,3.33,3.33,3.32,3.31,3.32,3.32,3.31,3.32,3.32,3.32,3.32,3.33,3.33,3.33,3.33,3.33,3.27,12.0,1.0,0.0,1.0,1.0,0.0,0.0,0.0,0.0,0.0,0.0,0.0,0.0,0.0,0.0,0.0,16.1,170863,0.0,0.0,79.6,122.09365972222233
1768831190882,0.0,0.0,1.0,10.0,0.0,0.0,0.0,0.0,0.0,0.0,0.0,0.0,0.0,0.0,0.0,0.0,-0.042212,-0.109068,1.015772,1.1900000000000002,-0.6300000000000001,0.14,22.65625,3.29,3.31,3.31,3.27,3.31,3.31,3.32,3.32,3.32,3.33,3.33,3.32,3.31,3.32,3.32,3.31,3.32,3.32,3.32,3.32,3.33,3.33,3.33,3.33,3.33,3.27,12.0,1.0,0.0,1.0,1.0,0.0,0.0,0.0,0.0,0.0,0.0,0.0,0.0,0.0,0.0,0.0,16.1,170879,0.0,0.0,79.6,122.09365972222233
1768831190899,0.0,0.0,1.0,10.0,0.0,0.0,0.0,0.0,0.0,0.0,0.0,0.0,0.0,0.0,0.0,0.0,-0.042212,-0.109068,1.015772,1.1900000000000002,-0.6300000000000001,0.14,22.65625,3.29,3.31,3.31,3.27,3.31,3.31,3.32,3.32,3.32,3.33,3.33,3.32,3.31,3.32,3.32,3.31,3.32,3.32,3.32,3.32,3.33,3.33,3.33,3.33,3.33,3.27,12.0,1.0,0.0,1.0,1.0,0.0,0.0,0.0,0.0,0.0,0.0,0.0,0.0,0.0,0.0,0.0,16.1,170896,0.0,0.0,79.6,122.09365972222233
1768831190916,0.0,0.0,1.0,10.0,0.0,0.0,0.0,0.0,0.0,0.0,0.0,0.0,0.0,0.0,0.0,0.0,-0.042212,-0.109068,1.015772,1.1900000000000002,-0.6300000000000001,0.14,22.65625,3.29,3.31,3.31,3.27,3.31,3.31,3.32,3.32,3.32,3.33,3.33,3.32,3.31,3.32,3.32,3.31,3.32,3.32,3.32,3.32,3.33,3.33,3.33,3.33,3.33,3.27,12.0,1.0,0.0,1.0,1.0,0.0,0.0,0.0,0.0,0.0,0.0,0.0,0.0,0.0,0.0,0.0,16.1,170913,0.0,0.0,79.6,122.09365972222233
1768831190934,0.0,0.0,1.0,10.0,0.0,0.0,0.0,0.0,0.0,0.0,0.0,0.0,0.0,0.0,0.0,0.0,-0.042212,-0.109068,1.015772,1.1900000000000002,-0.6300000000000001,0.14,22.65625,3.29,3.31,3.31,3.27,3.31,3.31,3.32,3.32,3.32,3.33,3.33,3.32,3.31,3.32,3.32,3.31,3.32,3.32,3.32,3.32,3.33,3.33,3.33,3.33,3.33,3.27,12.0,1.0,0.0,1.0,1.0,0.0,0.0,0.0,0.0,0.0,0.0,0.0,0.0,0.0,0.0,0.0,16.1,170931,0.0,0.0,79.6,122.09365972222233
1768831190951,0.0,0.0,1.0,10.0,0.0,0.0,0.0,0.0,0.0,0.0,0.0,0.0,0.0,0.0,0.0,0.0,-0.042212,-0.109068,1.015772,1.1900000000000002,-0.6300000000000001,0.14,22.65625,3.29,3.31,3.31,3.27,3.31,3.31,3.32,3.32,3.32,3.33,3.33,3.32,3.31,3.32,3.32,3.31,3.32,3.32,3.32,3.32,3.33,3.33,3.33,3.33,3.33,3.27,12.0,1.0,0.0,1.0,1.0,0.0,0.0,0.0,0.0,0.0,0.0,0.0,0.0,0.0,0.0,0.0,16.2,170948,0.0,0.0,79.6,122.09365972222233
1768831191000,0.0,0.0,1.0,10.0,0.0,0.0,0.0,0.0,0.0,0.0,0.0,0.0,0.0,0.0,0.0,0.0,-0.042212,-0.109068,1.015772,1.2600000000000002,-0.77,0.14,22.65625,3.29,3.31,3.31,3.27,3.31,3.31,3.32,3.32,3.32,3.33,3.33,3.32,3.31,3.32,3.32,3.31,3.32,3.32,3.32,3.32,3.33,3.33,3.33,3.33,3.33,3.27,12.0,1.0,0.0,1.0,1.0,0.0,0.0,0.0,0.0,0.0,0.0,0.0,0.0,0.0,0.0,0.0,16.2,170997,0.0,0.0,79.6,122.09365972222233
1768831191035,0.0,0.0,1.0,10.0,0.0,0.0,0.0,0.0,0.0,0.0,0.0,0.0,0.0,0.0,0.0,0.0,-0.042212,-0.109068,1.015772,1.2600000000000002,-0.77,0.14,22.65625,3.29,3.31,3.31,3.27,3.31,3.31,3.32,3.32,3.32,3.33,3.33,3.32,3.31,3.32,3.32,3.31,3.32,3.32,3.32,3.32,3.33,3.33,3.33,3.33,3.33,3.27,12.0,1.0,0.0,1.0,1.0,0.0,0.0,0.0,0.0,0.0,0.0,0.0,0.0,0.0,0.0,0.0,16.2,171032,0.0,0.0,79.6,122.09365972222233
1768831191050,0.0,0.0,1.0,10.0,0.0,0.0,0.0,0.0,0.0,0.0,0.0,0.0,0.0,0.0,0.0,0.0,-0.042212,-0.109068,1.015772,1.2600000000000002,-0.77,0.14,22.65625,3.29,3.31,3.31,3.27,3.31,3.31,3.32,3.32,3.32,3.33,3.33,3.32,3.31,3.32,3.32,3.31,3.32,3.32,3.32,3.32,3.33,3.33,3.33,3.33,3.33,3.27,12.0,1.0,0.0,1.0,1.0,0.0,0.0,0.0,0.0,0.0,0.0,0.0,0.0,0.0,0.0,0.0,16.2,171047,0.0,0.0,79.6,122.09365972222233
1768831191067,0.0,0.0,1.0,10.0,0.0,0.0,0.0,0.0,0.0,0.0,0.0,0.0,0.0,0.0,0.0,0.0,-0.042212,-0.109068,1.015772,1.2600000000000002,-0.77,0.14,22.65625,3.29,3.31,3.31,3.27,3.31,3.31,3.32,3.32,3.32,3.33,3.33,3.32,3.31,3.32,3.32,3.31,3.32,3.32,3.32,3.32,3.33,3.33,3.33,3.33,3.33,3.27,12.0,1.0,0.0,1.0,1.0,0.0,0.0,0.0,0.0,0.0,0.0,0.0,0.0,0.0,0.0,0.0,16.2,171064,0.0,0.0,79.6,122.09365972222233
1768831191083,0.0,0.0,1.0,10.0,0.0,0.0,0.0,0.0,0.0,0.0,0.0,0.0,0.0,0.0,0.0,0.0,-0.042212,-0.109068,1.015772,1.2600000000000002,-0.77,0.14,22.65625,3.29,3.31,3.31,3.27,3.31,3.31,3.32,3.32,3.32,3.33,3.33,3.32,3.31,3.32,3.32,3.31,3.32,3.32,3.32,3.32,3.33,3.33,3.33,3.33,3.33,3.27,12.0,1.0,0.0,1.0,1.0,0.0,0.0,0.0,0.0,0.0,0.0,0.0,0.0,0.0,0.0,0.0,16.2,171080,0.0,0.0,79.6,122.09365972222233
1768831191102,0.0,0.0,1.0,10.0,0.0,0.0,0.0,0.0,0.0,0.0,0.0,0.0,0.0,0.0,0.0,0.0,-0.042212,-0.109068,1.015772,1.2600000000000002,-0.77,0.14,22.65625,3.29,3.31,3.31,3.27,3.31,3.31,3.32,3.32,3.32,3.33,3.33,3.32,3.31,3.32,3.32,3.31,3.32,3.32,3.32,3.32,3.33,3.33,3.33,3.33,3.33,3.27,12.0,1.0,0.0,1.0,1.0,0.0,0.0,0.0,0.0,0.0,0.0,0.0,0.0,0.0,0.0,0.0,16.1,171099,0.0,0.0,79.6,122.09365972222233
1768831191117,0.0,0.0,1.0,10.0,0.0,0.0,0.0,0.0,0.0,0.0,0.0,0.0,0.0,0.0,0.0,0.0,-0.042212,-0.109068,1.015772,1.1900000000000002,-0.7000000000000001,0.07,22.6640625,3.29,3.31,3.31,3.27,3.31,3.31,3.32,3.32,3.32,3.33,3.33,3.32,3.31,3.32,3.32,3.31,3.32,3.32,3.32,3.32,3.33,3.33,3.33,3.33,3.33,3.27,12.0,1.0,0.0,1.0,1.0,0.0,0.0,0.0,0.0,0.0,0.0,0.0,0.0,0.0,0.0,0.0,16.1,171114,0.0,0.0,79.6,122.09365972222233
1768831191167,0.0,0.0,1.0,10.0,0.0,0.0,0.0,0.0,0.0,0.0,0.0,0.0,0.0,0.0,0.0,0.0,-0.042456,-0.107116,1.019188,1.1900000000000002,-0.7000000000000001,0.07,22.6640625,3.29,3.31,3.31,3.27,3.31,3.31,3.32,3.32,3.32,3.33,3.33,3.32,3.31,3.32,3.32,3.31,3.32,3.32,3.32,3.32,3.33,3.33,3.33,3.33,3.33,3.27,12.0,1.0,0.0,1.0,1.0,0.0,0.0,0.0,0.0,0.0,0.0,0.0,0.0,0.0,0.0,0.0,16.1,171164,0.0,0.0,79.6,122.09365972222233
1768831191183,0.0,0.0,1.0,10.0,0.0,0.0,0.0,0.0,0.0,0.0,0.0,0.0,0.0,0.0,0.0,0.0,-0.042456,-0.107116,1.019188,1.1900000000000002,-0.7000000000000001,0.07,22.6640625,3.29,3.31,3.31,3.27,3.31,3.31,3.32,3.32,3.32,3.33,3.33,3.32,3.31,3.32,3.32,3.31,3.32,3.32,3.32,3.32,3.33,3.33,3.33,3.33,3.33,3.27,12.0,1.0,0.0,1.0,1.0,0.0,0.0,0.0,0.0,0.0,0.0,0.0,0.0,0.0,0.0,0.0,16.1,171180,0.0,0.0,79.6,122.09365972222233
1768831191216,0.0,0.0,1.0,10.0,0.0,0.0,0.0,0.0,0.0,0.0,0.0,0.0,0.0,0.0,0.0,0.0,-0.042456,-0.107116,1.019188,1.1900000000000002,-0.7000000000000001,0.07,22.6640625,3.29,3.31,3.31,3.27,3.31,3.31,3.32,3.32,3.32,3.33,3.33,3.32,3.31,3.32,3.32,3.31,3.32,3.32,3.32,3.32,3.33,3.33,3.33,3.33,3.33,3.27,12.0,1.0,0.0,1.0,1.0,0.0,0.0,0.0,0.0,0.0,0.0,0.0,0.0,0.0,0.0,0.0,16.1,171213,0.0,0.0,79.6,122.09365972222233
1768831191233,0.0,0.0,1.0,10.0,0.0,0.0,0.0,0.0,0.0,0.0,0.0,0.0,0.0,0.0,0.0,0.0,-0.042456,-0.107116,1.019188,1.2600000000000002,-0.7000000000000001,0.07,22.6640625,3.29,3.31,3.31,3.27,3.31,3.31,3.32,3.32,3.32,3.33,3.33,3.32,3.31,3.32,3.32,3.31,3.32,3.32,3.32,3.32,3.33,3.33,3.33,3.33,3.33,3.27,12.0,1.0,0.0,1.0,1.0,0.0,0.0,0.0,0.0,0.0,0.0,0.0,0.0,0.0,0.0,0.0,16.1,171230,0.0,0.0,79.6,122.09365972222233
1768831191250,0.0,0.0,1.0,10.0,0.0,0.0,0.0,0.0,0.0,0.0,0.0,0.0,0.0,0.0,0.0,0.0,-0.042456,-0.107116,1.019188,1.2600000000000002,-0.7000000000000001,0.07,22.6640625,3.29,3.31,3.31,3.27,3.31,3.31,3.32,3.32,3.32,3.33,3.33,3.32,3.31,3.32,3.32,3.31,3.32,3.32,3.32,3.32,3.33,3.33,3.33,3.33,3.33,3.27,12.0,1.0,0.0,1.0,1.0,0.0,0.0,0.0,0.0,0.0,0.0,0.0,0.0,0.0,0.0,0.0,16.1,171247,0.0,0.0,79.6,122.09365972222233
1768831191267,0.0,0.0,1.0,10.0,0.0,0.0,0.0,0.0,0.0,0.0,0.0,0.0,0.0,0.0,0.0,0.0,-0.042456,-0.107116,1.019188,1.2600000000000002,-0.7000000000000001,0.07,22.6484375,3.29,3.31,3.31,3.27,3.31,3.31,3.32,3.32,3.32,3.33,3.33,3.32,3.31,3.32,3.32,3.31,3.32,3.32,3.32,3.32,3.33,3.33,3.33,3.33,3.33,3.27,12.0,1.0,0.0,1.0,1.0,0.0,0.0,0.0,0.0,0.0,0.0,0.0,0.0,0.0,0.0,0.0,16.1,171264,0.0,0.0,79.6,122.09365972222233
1768831191316,0.0,0.0,1.0,10.0,0.0,0.0,0.0,0.0,0.0,0.0,0.0,0.0,0.0,0.0,0.0,0.0,-0.042456,-0.107116,1.019188,1.2600000000000002,-0.7000000000000001,0.07,22.6484375,3.29,3.31,3.31,3.27,3.31,3.31,3.32,3.32,3.32,3.33,3.33,3.32,3.31,3.32,3.32,3.31,3.32,3.32,3.32,3.32,3.33,3.33,3.33,3.33,3.33,3.27,12.0,1.0,0.0,1.0,1.0,0.0,0.0,0.0,0.0,0.0,0.0,0.0,0.0,0.0,0.0,0.0,16.1,171313,0.0,0.0,79.6,122.09365972222233
1768831191384,0.0,0.0,1.0,10.0,0.0,0.0,0.0,0.0,0.0,0.0,0.0,0.0,0.0,0.0,0.0,0.0,-0.041358,-0.104798,1.019676,1.2600000000000002,-0.7000000000000001,0.07,22.6484375,3.29,3.31,3.31,3.27,3.31,3.31,3.32,3.32,3.32,3.33,3.33,3.32,3.31,3.32,3.32,3.31,3.32,3.32,3.32,3.32,3.33,3.33,3.33,3.33,3.33,3.27,12.0,1.0,0.0,1.0,1.0,0.0,0.0,0.0,0.0,0.0,0.0,0.0,0.0,0.0,0.0,0.0,16.1,171381,0.0,0.0,79.6,122.09365972222233
1768831191399,0.0,0.0,1.0,10.0,0.0,0.0,0.0,0.0,0.0,0.0,0.0,0.0,0.0,0.0,0.0,0.0,-0.041358,-0.104798,1.019676,1.2600000000000002,-0.7000000000000001,0.07,22.6484375,3.29,3.31,3.31,3.27,3.31,3.31,3.32,3.32,3.32,3.33,3.33,3.32,3.31,3.32,3.32,3.31,3.32,3.32,3.32,3.32,3.33,3.33,3.33,3.33,3.33,3.27,12.0,1.0,0.0,1.0,1.0,0.0,0.0,0.0,0.0,0.0,0.0,0.0,0.0,0.0,0.0,0.0,16.1,171396,0.0,0.0,79.6,122.09365972222233
1768831191416,0.0,0.0,1.0,10.0,0.0,0.0,0.0,0.0,0.0,0.0,0.0,0.0,0.0,0.0,0.0,0.0,-0.041358,-0.104798,1.019676,1.2600000000000002,-0.7000000000000001,0.07,22.6484375,3.29,3.31,3.31,3.27,3.31,3.31,3.32,3.32,3.32,3.33,3.33,3.32,3.31,3.32,3.32,3.31,3.32,3.32,3.32,3.32,3.33,3.33,3.33,3.33,3.33,3.27,12.0,1.0,0.0,1.0,1.0,0.0,0.0,0.0,0.0,0.0,0.0,0.0,0.0,0.0,0.0,0.0,16.1,171413,0.0,0.0,79.6,122.09365972222233
1768831191467,0.0,0.0,1.0,10.0,0.0,0.0,0.0,0.0,0.0,0.0,0.0,0.0,0.0,0.0,0.0,0.0,-0.041358,-0.104798,1.019676,1.2600000000000002,-0.7000000000000001,0.07,22.640625,3.29,3.31,3.31,3.27,3.31,3.31,3.32,3.32,3.32,3.33,3.33,3.32,3.31,3.32,3.32,3.31,3.32,3.32,3.32,3.32,3.33,3.33,3.33,3.33,3.33,3.27,12.0,1.0,0.0,1.0,1.0,0.0,0.0,0.0,0.0,0.0,0.0,0.0,0.0,0.0,0.0,0.0,16.1,171464,0.0,0.0,79.6,122.09365972222233
1768831191516,0.0,0.0,1.0,10.0,0.0,0.0,0.0,0.0,0.0,0.0,0.0,0.0,0.0,0.0,0.0,0.0,-0.041358,-0.104798,1.019676,1.2600000000000002,-0.7000000000000001,0.07,22.640625,3.29,3.31,3.31,3.27,3.31,3.31,3.32,3.32,3.32,3.33,3.33,3.32,3.31,3.32,3.32,3.31,3.32,3.32,3.32,3.32,3.33,3.33,3.33,3.33,3.33,3.27,12.0,1.0,0.0,1.0,1.0,0.0,0.0,0.0,0.0,0.0,0.0,0.0,0.0,0.0,0.0,0.0,16.1,171513,0.0,0.0,79.6,122.09365972222233
1768831191534,0.0,0.0,1.0,10.0,0.0,0.0,0.0,0.0,0.0,0.0,0.0,0.0,0.0,0.0,0.0,0.0,-0.041358,-0.104798,1.019676,1.2600000000000002,-0.7000000000000001,0.07,22.640625,3.29,3.31,3.31,3.27,3.31,3.31,3.32,3.32,3.32,3.33,3.33,3.32,3.31,3.32,3.32,3.31,3.32,3.32,3.32,3.32,3.33,3.33,3.33,3.33,3.33,3.27,12.0,1.0,0.0,1.0,1.0,0.0,0.0,0.0,0.0,0.0,0.0,0.0,0.0,0.0,0.0,0.0,16.1,171531,0.0,0.0,79.6,122.09365972222233
1768831191549,0.0,0.0,1.0,10.0,0.0,0.0,0.0,0.0,0.0,0.0,0.0,0.0,0.0,0.0,0.0,0.0,-0.041358,-0.104798,1.019676,1.2600000000000002,-0.7000000000000001,0.07,22.640625,3.29,3.31,3.31,3.27,3.31,3.31,3.32,3.32,3.32,3.33,3.33,3.32,3.31,3.32,3.32,3.31,3.32,3.32,3.32,3.32,3.33,3.33,3.33,3.33,3.33,3.27,12.0,1.0,0.0,1.0,1.0,0.0,0.0,0.0,0.0,0.0,0.0,0.0,0.0,0.0,0.0,0.0,16.1,171546,0.0,0.0,79.6,122.09365972222233
1768831191566,0.0,0.0,1.0,10.0,0.0,0.0,0.0,0.0,0.0,0.0,0.0,0.0,0.0,0.0,0.0,0.0,-0.041358,-0.104798,1.019676,1.2600000000000002,-0.7000000000000001,0.07,22.640625,3.29,3.31,3.31,3.27,3.31,3.31,3.32,3.32,3.32,3.33,3.33,3.32,3.31,3.32,3.32,3.31,3.32,3.32,3.32,3.32,3.33,3.33,3.33,3.33,3.33,3.27,12.0,1.0,0.0,1.0,1.0,0.0,0.0,0.0,0.0,0.0,0.0,0.0,0.0,0.0,0.0,0.0,16.1,171563,0.0,0.0,79.6,122.09365972222233
1768831191583,0.0,0.0,1.0,10.0,0.0,0.0,0.0,0.0,0.0,0.0,0.0,0.0,0.0,0.0,0.0,0.0,-0.041358,-0.104798,1.019676,1.2600000000000002,-0.7000000000000001,0.07,22.640625,3.29,3.31,3.31,3.27,3.31,3.31,3.32,3.32,3.32,3.33,3.33,3.32,3.31,3.32,3.32,3.31,3.32,3.32,3.32,3.32,3.33,3.33,3.33,3.33,3.33,3.27,12.0,1.0,0.0,1.0,1.0,0.0,0.0,0.0,0.0,0.0,0.0,0.0,0.0,0.0,0.0,0.0,16.1,171580,0.0,0.0,79.6,122.09365972222233
1768831191599,0.0,0.0,1.0,10.0,0.0,0.0,0.0,0.0,0.0,0.0,0.0,0.0,0.0,0.0,0.0,0.0,-0.041358,-0.104798,1.019676,1.2600000000000002,-0.7000000000000001,0.07,22.640625,3.29,3.31,3.31,3.27,3.31,3.31,3.32,3.32,3.32,3.33,3.33,3.32,3.31,3.32,3.32,3.31,3.32,3.32,3.32,3.32,3.33,3.33,3.33,3.33,3.33,3.27,12.0,1.0,0.0,1.0,1.0,0.0,0.0,0.0,0.0,0.0,0.0,0.0,0.0,0.0,0.0,0.0,16.2,171596,0.0,0.0,79.6,122.09365972222233
1768831191616,0.0,0.0,1.0,10.0,0.0,0.0,0.0,0.0,0.0,0.0,0.0,0.0,0.0,0.0,0.0,0.0,-0.040992,-0.10760399999999999,1.019188,1.2600000000000002,-0.7000000000000001,0.07,22.640625,3.29,3.31,3.31,3.27,3.31,3.31,3.32,3.32,3.32,3.33,3.33,3.32,3.31,3.32,3.32,3.31,3.32,3.32,3.32,3.32,3.33,3.33,3.33,3.33,3.33,3.27,11.0,1.0,0.0,1.0,1.0,0.0,0.0,0.0,0.0,0.0,0.0,0.0,0.0,0.0,0.0,0.0,16.2,171613,0.0,0.0,79.6,122.09365972222233
1768831191632,0.0,0.0,1.0,10.0,0.0,0.0,0.0,0.0,0.0,0.0,0.0,0.0,0.0,0.0,0.0,0.0,-0.040992,-0.10760399999999999,1.019188,1.2600000000000002,-0.7000000000000001,0.07,22.640625,3.29,3.31,3.31,3.27,3.31,3.31,3.32,3.32,3.32,3.33,3.33,3.32,3.31,3.32,3.32,3.31,3.32,3.32,3.32,3.32,3.33,3.33,3.33,3.33,3.33,3.27,11.0,1.0,0.0,1.0,1.0,0.0,0.0,0.0,0.0,0.0,0.0,0.0,0.0,0.0,0.0,0.0,16.2,171629,0.0,0.0,79.6,122.09365972222233
1768831191666,0.0,0.0,1.0,10.0,0.0,0.0,0.0,0.0,0.0,0.0,0.0,0.0,0.0,0.0,0.0,0.0,-0.040992,-0.10760399999999999,1.019188,1.2600000000000002,-0.7000000000000001,0.07,22.640625,3.29,3.31,3.31,3.27,3.31,3.31,3.32,3.32,3.32,3.33,3.33,3.32,3.31,3.32,3.32,3.31,3.32,3.32,3.32,3.32,3.33,3.33,3.33,3.33,3.33,3.27,11.0,1.0,0.0,1.0,1.0,0.0,0.0,0.0,0.0,0.0,0.0,0.0,0.0,0.0,0.0,0.0,16.2,171663,0.0,0.0,79.6,122.09365972222233
1768831191683,0.0,0.0,1.0,10.0,0.0,0.0,0.0,0.0,0.0,0.0,0.0,0.0,0.0,0.0,0.0,0.0,-0.040992,-0.10760399999999999,1.019188,1.2600000000000002,-0.7000000000000001,0.07,22.6796875,3.29,3.31,3.31,3.27,3.31,3.31,3.32,3.32,3.32,3.33,3.33,3.32,3.31,3.32,3.32,3.31,3.32,3.32,3.32,3.32,3.33,3.33,3.33,3.33,3.33,3.27,11.0,1.0,0.0,1.0,1.0,0.0,0.0,0.0,0.0,0.0,0.0,0.0,0.0,0.0,0.0,0.0,16.2,171680,0.0,0.0,79.6,122.09365972222233
1768831191700,0.0,0.0,1.0,10.0,0.0,0.0,0.0,0.0,0.0,0.0,0.0,0.0,0.0,0.0,0.0,0.0,-0.040992,-0.10760399999999999,1.019188,1.2600000000000002,-0.7000000000000001,0.07,22.6796875,3.29,3.31,3.31,3.27,3.31,3.31,3.32,3.32,3.32,3.33,3.33,3.32,3.31,3.32,3.32,3.31,3.32,3.32,3.32,3.32,3.33,3.33,3.33,3.33,3.33,3.27,11.0,1.0,0.0,1.0,1.0,0.0,0.0,0.0,0.0,0.0,0.0,0.0,0.0,0.0,0.0,0.0,16.2,171697,0.0,0.0,79.6,122.09365972222233
1768831191716,0.0,0.0,1.0,10.0,0.0,0.0,0.0,0.0,0.0,0.0,0.0,0.0,0.0,0.0,0.0,0.0,-0.040992,-0.10760399999999999,1.019188,1.2600000000000002,-0.7000000000000001,0.07,22.6796875,3.29,3.31,3.31,3.27,3.31,3.31,3.32,3.32,3.32,3.33,3.33,3.32,3.31,3.32,3.32,3.31,3.32,3.32,3.32,3.32,3.33,3.33,3.33,3.33,3.33,3.27,11.0,1.0,0.0,1.0,1.0,0.0,0.0,0.0,0.0,0.0,0.0,0.0,0.0,0.0,0.0,0.0,16.2,171713,0.0,0.0,79.6,122.09365972222233
1768831191734,0.0,0.0,1.0,10.0,0.0,0.0,0.0,0.0,0.0,0.0,0.0,0.0,0.0,0.0,0.0,0.0,-0.040992,-0.10760399999999999,1.019188,1.2600000000000002,-0.7000000000000001,0.07,22.6796875,3.29,3.31,3.31,3.27,3.31,3.31,3.32,3.32,3.32,3.33,3.33,3.32,3.31,3.32,3.32,3.31,3.32,3.32,3.32,3.32,3.33,3.33,3.33,3.33,3.33,3.27,11.0,1.0,0.0,1.0,1.0,0.0,0.0,0.0,0.0,0.0,0.0,0.0,0.0,0.0,0.0,0.0,16.2,171731,0.0,0.0,79.6,122.09365972222233
1768831191799,0.0,0.0,1.0,10.0,0.0,0.0,0.0,0.0,0.0,0.0,0.0,0.0,0.0,0.0,0.0,0.0,-0.040992,-0.10760399999999999,1.019188,1.2600000000000002,-0.7000000000000001,0.07,22.6796875,3.29,3.31,3.31,3.27,3.31,3.31,3.32,3.32,3.32,3.33,3.33,3.32,3.31,3.32,3.32,3.31,3.32,3.32,3.32,3.32,3.33,3.33,3.33,3.33,3.33,3.27,11.0,1.0,0.0,1.0,1.0,0.0,0.0,0.0,0.0,0.0,0.0,0.0,0.0,0.0,0.0,0.0,16.2,171796,0.0,0.0,79.6,122.09365972222233
1768831191816,0.0,0.0,1.0,10.0,0.0,0.0,0.0,0.0,0.0,0.0,0.0,0.0,0.0,0.0,0.0,0.0,-0.042456,-0.105286,1.018334,1.2600000000000002,-0.7000000000000001,0.07,22.6796875,3.29,3.31,3.31,3.27,3.31,3.31,3.32,3.32,3.32,3.33,3.33,3.32,3.31,3.32,3.32,3.31,3.32,3.32,3.32,3.32,3.33,3.33,3.33,3.33,3.33,3.27,11.0,1.0,0.0,1.0,1.0,0.0,0.0,0.0,0.0,0.0,0.0,0.0,0.0,0.0,0.0,0.0,16.2,171813,0.0,0.0,79.6,122.09365972222233
1768831191850,0.0,0.0,1.0,10.0,0.0,0.0,0.0,0.0,0.0,0.0,0.0,0.0,0.0,0.0,0.0,0.0,-0.042456,-0.105286,1.018334,1.2600000000000002,-0.77,0.14,22.6796875,3.29,3.31,3.31,3.27,3.31,3.31,3.32,3.32,3.32,3.33,3.33,3.32,3.31,3.32,3.32,3.31,3.32,3.32,3.32,3.32,3.33,3.33,3.33,3.33,3.33,3.27,11.0,1.0,0.0,1.0,1.0,0.0,0.0,0.0,0.0,0.0,0.0,0.0,0.0,0.0,0.0,0.0,16.2,171847,0.0,0.0,79.6,122.09365972222233
1768831191882,0.0,0.0,1.0,10.0,0.0,0.0,0.0,0.0,0.0,0.0,0.0,0.0,0.0,0.0,0.0,0.0,-0.042456,-0.105286,1.018334,1.2600000000000002,-0.77,0.14,22.6796875,3.29,3.31,3.31,3.27,3.31,3.31,3.32,3.32,3.32,3.33,3.33,3.32,3.31,3.32,3.32,3.31,3.32,3.32,3.32,3.32,3.33,3.33,3.33,3.33,3.33,3.27,11.0,1.0,0.0,1.0,1.0,0.0,0.0,0.0,0.0,0.0,0.0,0.0,0.0,0.0,0.0,0.0,16.2,171879,0.0,0.0,79.6,122.09365972222233
1768831191899,0.0,0.0,1.0,10.0,0.0,0.0,0.0,0.0,0.0,0.0,0.0,0.0,0.0,0.0,0.0,0.0,-0.042456,-0.105286,1.018334,1.2600000000000002,-0.77,0.14,22.6796875,3.29,3.31,3.31,3.27,3.31,3.31,3.32,3.32,3.32,3.33,3.33,3.32,3.31,3.32,3.32,3.31,3.32,3.32,3.32,3.32,3.33,3.33,3.33,3.33,3.33,3.27,11.0,1.0,0.0,1.0,1.0,0.0,0.0,0.0,0.0,0.0,0.0,0.0,0.0,0.0,0.0,0.0,16.2,171896,0.0,0.0,79.6,122.09365972222233
1768831191916,0.0,0.0,1.0,10.0,0.0,0.0,0.0,0.0,0.0,0.0,0.0,0.0,0.0,0.0,0.0,0.0,-0.042456,-0.105286,1.018334,1.2600000000000002,-0.77,0.14,22.6796875,3.29,3.31,3.31,3.27,3.31,3.31,3.32,3.32,3.32,3.33,3.33,3.32,3.31,3.32,3.32,3.31,3.32,3.32,3.32,3.32,3.33,3.33,3.33,3.33,3.33,3.27,11.0,1.0,0.0,1.0,1.0,0.0,0.0,0.0,0.0,0.0,0.0,0.0,0.0,0.0,0.0,0.0,16.2,171913,0.0,0.0,79.6,122.09365972222233
1768831191933,0.0,0.0,1.0,10.0,0.0,0.0,0.0,0.0,0.0,0.0,0.0,0.0,0.0,0.0,0.0,0.0,-0.042456,-0.105286,1.018334,1.2600000000000002,-0.77,0.14,22.6796875,3.29,3.31,3.31,3.27,3.31,3.31,3.32,3.32,3.32,3.33,3.33,3.32,3.31,3.32,3.32,3.31,3.32,3.32,3.32,3.32,3.33,3.33,3.33,3.33,3.33,3.27,11.0,1.0,0.0,1.0,1.0,0.0,0.0,0.0,0.0,0.0,0.0,0.0,0.0,0.0,0.0,0.0,16.1,171930,0.0,0.0,79.6,122.09365972222233
1768831191966,0.0,0.0,1.0,10.0,0.0,0.0,0.0,0.0,0.0,0.0,0.0,0.0,0.0,0.0,0.0,0.0,-0.040748,-0.105164,1.019676,1.2600000000000002,-0.77,0.14,22.6796875,3.29,3.31,3.31,3.27,3.31,3.31,3.32,3.32,3.32,3.33,3.33,3.32,3.31,3.32,3.32,3.31,3.32,3.32,3.32,3.32,3.33,3.33,3.33,3.33,3.33,3.27,11.0,1.0,0.0,1.0,1.0,0.0,0.0,0.0,0.0,0.0,0.0,0.0,0.0,0.0,0.0,0.0,16.1,171963,0.0,0.0,79.6,122.09365972222233
1768831191984,0.0,0.0,1.0,10.0,0.0,0.0,0.0,0.0,0.0,0.0,0.0,0.0,0.0,0.0,0.0,0.0,-0.040748,-0.105164,1.019676,1.2600000000000002,-0.7000000000000001,0.07,22.6796875,3.29,3.31,3.31,3.27,3.31,3.31,3.32,3.32,3.32,3.33,3.33,3.32,3.31,3.32,3.32,3.31,3.32,3.32,3.32,3.32,3.33,3.33,3.33,3.33,3.33,3.27,11.0,1.0,0.0,1.0,1.0,0.0,0.0,0.0,0.0,0.0,0.0,0.0,0.0,0.0,0.0,0.0,16.1,171981,0.0,0.0,79.6,122.09365972222233
1768831192001,0.0,0.0,1.0,10.0,0.0,0.0,0.0,0.0,0.0,0.0,0.0,0.0,0.0,0.0,0.0,0.0,-0.040748,-0.105164,1.019676,1.2600000000000002,-0.7000000000000001,0.07,22.6640625,3.29,3.31,3.31,3.27,3.31,3.31,3.32,3.32,3.32,3.33,3.33,3.32,3.31,3.32,3.32,3.31,3.32,3.32,3.32,3.32,3.33,3.33,3.33,3.33,3.33,3.27,11.0,1.0,0.0,1.0,1.0,0.0,0.0,0.0,0.0,0.0,0.0,0.0,0.0,0.0,0.0,0.0,16.1,171998,0.0,0.0,79.6,122.09365972222233
1768831192034,0.0,0.0,1.0,10.0,0.0,0.0,0.0,0.0,0.0,0.0,0.0,0.0,0.0,0.0,0.0,0.0,-0.041236,-0.10467599999999999,1.01992,1.2600000000000002,-0.7000000000000001,0.07,22.6640625,3.29,3.31,3.31,3.27,3.31,3.31,3.32,3.32,3.32,3.33,3.33,3.32,3.31,3.32,3.32,3.31,3.32,3.32,3.32,3.32,3.33,3.33,3.33,3.33,3.33,3.27,11.0,1.0,0.0,1.0,1.0,0.0,0.0,0.0,0.0,0.0,0.0,0.0,0.0,0.0,0.0,0.0,16.1,172031,0.0,0.0,79.6,122.09365972222233
1768831192052,0.0,0.0,1.0,10.0,0.0,0.0,0.0,0.0,0.0,0.0,0.0,0.0,0.0,0.0,0.0,0.0,-0.041236,-0.10467599999999999,1.01992,1.2600000000000002,-0.7000000000000001,0.07,22.6640625,3.29,3.31,3.31,3.27,3.31,3.31,3.32,3.32,3.32,3.33,3.33,3.32,3.31,3.32,3.32,3.31,3.32,3.32,3.32,3.32,3.33,3.33,3.33,3.33,3.33,3.27,11.0,1.0,0.0,1.0,1.0,0.0,0.0,0.0,0.0,0.0,0.0,0.0,0.0,0.0,0.0,0.0,16.1,172049,0.0,0.0,79.6,122.09365972222233
1768831192067,0.0,0.0,1.0,10.0,0.0,0.0,0.0,0.0,0.0,0.0,0.0,0.0,0.0,0.0,0.0,0.0,-0.041236,-0.10467599999999999,1.01992,1.2600000000000002,-0.7000000000000001,0.07,22.6640625,3.29,3.31,3.31,3.27,3.31,3.31,3.32,3.32,3.32,3.33,3.33,3.32,3.31,3.32,3.32,3.31,3.32,3.32,3.32,3.32,3.33,3.33,3.33,3.33,3.33,3.27,11.0,1.0,0.0,1.0,1.0,0.0,0.0,0.0,0.0,0.0,0.0,0.0,0.0,0.0,0.0,0.0,16.1,172064,0.0,0.0,79.6,122.09365972222233
1768831192083,0.0,0.0,1.0,10.0,0.0,0.0,0.0,0.0,0.0,0.0,0.0,0.0,0.0,0.0,0.0,0.0,-0.041236,-0.10467599999999999,1.01992,1.2600000000000002,-0.6300000000000001,0.14,22.6640625,3.29,3.31,3.31,3.27,3.31,3.31,3.32,3.32,3.32,3.33,3.33,3.32,3.31,3.32,3.32,3.31,3.32,3.32,3.32,3.32,3.33,3.33,3.33,3.33,3.33,3.27,11.0,1.0,0.0,1.0,1.0,0.0,0.0,0.0,0.0,0.0,0.0,0.0,0.0,0.0,0.0,0.0,16.1,172080,0.0,0.0,79.6,122.09365972222233
1768831192101,0.0,0.0,1.0,10.0,0.0,0.0,0.0,0.0,0.0,0.0,0.0,0.0,0.0,0.0,0.0,0.0,-0.041236,-0.10467599999999999,1.01992,1.2600000000000002,-0.6300000000000001,0.14,22.6640625,3.29,3.31,3.31,3.27,3.31,3.31,3.32,3.32,3.32,3.33,3.33,3.32,3.31,3.32,3.32,3.31,3.32,3.32,3.32,3.32,3.33,3.33,3.33,3.33,3.33,3.27,11.0,1.0,0.0,1.0,1.0,0.0,0.0,0.0,0.0,0.0,0.0,0.0,0.0,0.0,0.0,0.0,16.1,172098,0.0,0.0,79.6,122.09365972222233
1768831192134,0.0,0.0,1.0,10.0,0.0,0.0,0.0,0.0,0.0,0.0,0.0,0.0,0.0,0.0,0.0,0.0,-0.041236,-0.10467599999999999,1.01992,1.2600000000000002,-0.6300000000000001,0.14,22.65625,3.29,3.31,3.31,3.27,3.31,3.31,3.32,3.32,3.32,3.33,3.33,3.32,3.31,3.32,3.32,3.31,3.32,3.32,3.32,3.32,3.33,3.33,3.33,3.33,3.33,3.27,11.0,1.0,0.0,1.0,1.0,0.0,0.0,0.0,0.0,0.0,0.0,0.0,0.0,0.0,0.0,0.0,16.1,172131,0.0,0.0,79.6,122.09365972222233
1768831192151,0.0,0.0,1.0,10.0,0.0,0.0,0.0,0.0,0.0,0.0,0.0,0.0,0.0,0.0,0.0,0.0,-0.041236,-0.10467599999999999,1.01992,1.2600000000000002,-0.6300000000000001,0.14,22.65625,3.29,3.31,3.31,3.27,3.31,3.31,3.32,3.32,3.32,3.33,3.33,3.32,3.31,3.32,3.32,3.31,3.32,3.32,3.32,3.32,3.33,3.33,3.33,3.33,3.33,3.27,11.0,1.0,0.0,1.0,1.0,0.0,0.0,0.0,0.0,0.0,0.0,0.0,0.0,0.0,0.0,0.0,16.1,172148,0.0,0.0,79.6,122.09365972222233
1768831192201,0.0,0.0,1.0,10.0,0.0,0.0,0.0,0.0,0.0,0.0,0.0,0.0,0.0,0.0,0.0,0.0,-0.041236,-0.10467599999999999,1.01992,1.2600000000000002,-0.6300000000000001,0.14,22.65625,3.29,3.31,3.31,3.27,3.31,3.31,3.32,3.32,3.32,3.33,3.33,3.32,3.31,3.32,3.32,3.31,3.32,3.32,3.32,3.32,3.33,3.33,3.33,3.33,3.33,3.27,11.0,1.0,0.0,1.0,1.0,0.0,0.0,0.0,0.0,0.0,0.0,0.0,0.0,0.0,0.0,0.0,16.1,172198,0.0,0.0,79.6,122.09365972222233
1768831192250,0.0,0.0,1.0,10.0,0.0,0.0,0.0,0.0,0.0,0.0,0.0,0.0,0.0,0.0,0.0,0.0,-0.041236,-0.10467599999999999,1.01992,1.2600000000000002,-0.6300000000000001,0.14,22.65625,3.29,3.31,3.31,3.27,3.31,3.31,3.32,3.32,3.32,3.33,3.33,3.32,3.31,3.32,3.32,3.31,3.32,3.32,3.32,3.32,3.33,3.33,3.33,3.33,3.33,3.27,11.0,1.0,0.0,1.0,1.0,0.0,0.0,0.0,0.0,0.0,0.0,0.0,0.0,0.0,0.0,0.0,16.1,172247,0.0,0.0,79.6,122.09365972222233
1768831192266,0.0,0.0,1.0,10.0,0.0,0.0,0.0,0.0,0.0,0.0,0.0,0.0,0.0,0.0,0.0,0.0,-0.041236,-0.107482,1.017236,1.2600000000000002,-0.6300000000000001,0.14,22.65625,3.29,3.31,3.31,3.27,3.31,3.31,3.32,3.32,3.32,3.33,3.33,3.32,3.31,3.32,3.32,3.31,3.32,3.32,3.32,3.32,3.33,3.33,3.33,3.33,3.33,3.27,11.0,1.0,0.0,1.0,1.0,0.0,0.0,0.0,0.0,0.0,0.0,0.0,0.0,0.0,0.0,0.0,16.1,172263,0.0,0.0,79.6,122.09365972222233
1768831192284,0.0,0.0,1.0,10.0,0.0,0.0,0.0,0.0,0.0,0.0,0.0,0.0,0.0,0.0,0.0,0.0,-0.041236,-0.107482,1.017236,1.2600000000000002,-0.6300000000000001,0.14,22.65625,3.29,3.31,3.31,3.27,3.31,3.31,3.32,3.32,3.32,3.33,3.33,3.32,3.31,3.32,3.32,3.31,3.32,3.32,3.32,3.32,3.33,3.33,3.33,3.33,3.33,3.27,11.0,1.0,0.0,1.0,1.0,0.0,0.0,0.0,0.0,0.0,0.0,0.0,0.0,0.0,0.0,0.0,16.1,172281,0.0,0.0,79.6,122.09365972222233
1768831192319,0.0,0.0,1.0,10.0,0.0,0.0,0.0,0.0,0.0,0.0,0.0,0.0,0.0,0.0,0.0,0.0,-0.041236,-0.107482,1.017236,1.2600000000000002,-0.6300000000000001,0.14,22.65625,3.29,3.31,3.31,3.27,3.31,3.31,3.32,3.32,3.32,3.33,3.33,3.32,3.31,3.32,3.32,3.31,3.32,3.32,3.32,3.32,3.33,3.33,3.33,3.33,3.33,3.27,11.0,1.0,0.0,1.0,1.0,0.0,0.0,0.0,0.0,0.0,0.0,0.0,0.0,0.0,0.0,0.0,16.1,172316,0.0,0.0,79.6,122.09365972222233
1768831192335,0.0,0.0,1.0,10.0,0.0,0.0,0.0,0.0,0.0,0.0,0.0,0.0,0.0,0.0,0.0,0.0,-0.041236,-0.107482,1.017236,1.2600000000000002,-0.6300000000000001,0.14,22.640625,3.29,3.31,3.31,3.27,3.31,3.31,3.32,3.32,3.32,3.33,3.33,3.32,3.31,3.32,3.32,3.31,3.32,3.32,3.32,3.32,3.33,3.33,3.33,3.33,3.33,3.27,11.0,1.0,0.0,1.0,1.0,0.0,0.0,0.0,0.0,0.0,0.0,0.0,0.0,0.0,0.0,0.0,16.1,172332,0.0,0.0,79.6,122.09365972222233
1768831192384,0.0,0.0,1.0,10.0,0.0,0.0,0.0,0.0,0.0,0.0,0.0,0.0,0.0,0.0,0.0,0.0,-0.041236,-0.107482,1.017236,1.2600000000000002,-0.6300000000000001,0.14,22.640625,3.29,3.31,3.31,3.27,3.31,3.31,3.32,3.32,3.32,3.33,3.33,3.32,3.31,3.32,3.32,3.31,3.32,3.32,3.32,3.32,3.33,3.33,3.33,3.33,3.33,3.27,11.0,1.0,0.0,1.0,1.0,0.0,0.0,0.0,0.0,0.0,0.0,0.0,0.0,0.0,0.0,0.0,16.1,172381,0.0,0.0,79.6,122.09365972222233
1768831192401,0.0,0.0,1.0,10.0,0.0,0.0,0.0,0.0,0.0,0.0,0.0,0.0,0.0,0.0,0.0,0.0,-0.041236,-0.107482,1.017236,1.2600000000000002,-0.6300000000000001,0.14,22.640625,3.29,3.31,3.31,3.27,3.31,3.31,3.32,3.32,3.32,3.33,3.33,3.32,3.31,3.32,3.32,3.31,3.32,3.32,3.32,3.32,3.33,3.33,3.33,3.33,3.33,3.27,11.0,1.0,0.0,1.0,1.0,0.0,0.0,0.0,0.0,0.0,0.0,0.0,0.0,0.0,0.0,0.0,16.1,172398,0.0,0.0,79.6,122.09365972222233
1768831192417,0.0,0.0,1.0,10.0,0.0,0.0,0.0,0.0,0.0,0.0,0.0,0.0,0.0,0.0,0.0,0.0,-0.041236,-0.107482,1.017236,1.2600000000000002,-0.6300000000000001,0.14,22.640625,3.29,3.31,3.31,3.27,3.31,3.31,3.32,3.32,3.32,3.33,3.33,3.32,3.31,3.32,3.32,3.31,3.32,3.32,3.32,3.32,3.33,3.33,3.33,3.33,3.33,3.27,11.0,1.0,0.0,1.0,1.0,0.0,0.0,0.0,0.0,0.0,0.0,0.0,0.0,0.0,0.0,0.0,16.1,172414,0.0,0.0,79.6,122.09365972222233
1768831192433,0.0,0.0,1.0,10.0,0.0,0.0,0.0,0.0,0.0,0.0,0.0,0.0,0.0,0.0,0.0,0.0,-0.041236,-0.107482,1.017236,1.2600000000000002,-0.6300000000000001,0.14,22.640625,3.29,3.31,3.31,3.27,3.31,3.31,3.32,3.32,3.32,3.33,3.33,3.32,3.31,3.32,3.32,3.31,3.32,3.32,3.32,3.32,3.33,3.33,3.33,3.33,3.33,3.27,11.0,1.0,0.0,1.0,1.0,0.0,0.0,0.0,0.0,0.0,0.0,0.0,0.0,0.0,0.0,0.0,16.1,172430,0.0,0.0,79.6,122.09365972222233
1768831192450,0.0,0.0,1.0,10.0,0.0,0.0,0.0,0.0,0.0,0.0,0.0,0.0,0.0,0.0,0.0,0.0,-0.041236,-0.107482,1.017236,1.2600000000000002,-0.6300000000000001,0.14,22.640625,3.29,3.31,3.31,3.27,3.31,3.31,3.32,3.32,3.32,3.33,3.33,3.32,3.31,3.32,3.32,3.31,3.32,3.32,3.32,3.32,3.33,3.33,3.33,3.33,3.33,3.27,11.0,1.0,0.0,1.0,1.0,0.0,0.0,0.0,0.0,0.0,0.0,0.0,0.0,0.0,0.0,0.0,16.2,172447,0.0,0.0,79.6,122.09365972222233
1768831192483,0.0,0.0,1.0,10.0,0.0,0.0,0.0,0.0,0.0,0.0,0.0,0.0,0.0,0.0,0.0,0.0,-0.040382,-0.10187,1.018578,1.2600000000000002,-0.6300000000000001,0.14,22.640625,3.29,3.31,3.31,3.27,3.31,3.31,3.32,3.32,3.32,3.33,3.33,3.32,3.31,3.32,3.32,3.31,3.32,3.32,3.32,3.32,3.33,3.33,3.33,3.33,3.33,3.27,11.0,1.0,0.0,1.0,1.0,0.0,0.0,0.0,0.0,0.0,0.0,0.0,0.0,0.0,0.0,0.0,16.2,172480,0.0,0.0,79.6,122.09365972222233
1768831192500,0.0,0.0,1.0,10.0,0.0,0.0,0.0,0.0,0.0,0.0,0.0,0.0,0.0,0.0,0.0,0.0,-0.040382,-0.10187,1.018578,1.2600000000000002,-0.49000000000000005,0.0,22.640625,3.29,3.31,3.31,3.27,3.31,3.31,3.32,3.32,3.32,3.33,3.33,3.32,3.31,3.32,3.32,3.31,3.32,3.32,3.32,3.32,3.33,3.33,3.33,3.33,3.33,3.27,11.0,1.0,0.0,1.0,1.0,0.0,0.0,0.0,0.0,0.0,0.0,0.0,0.0,0.0,0.0,0.0,16.2,172497,0.0,0.0,79.6,122.09365972222233
1768831192517,262.0,0.0,1.0,10.0,0.0,0.0,0.0,0.0,0.0,0.0,0.0,0.0,0.0,0.0,0.0,0.0,-0.040382,-0.10187,1.018578,1.2600000000000002,-0.49000000000000005,0.0,22.640625,3.29,3.31,3.31,3.27,3.31,3.31,3.32,3.32,3.32,3.33,3.33,3.32,3.31,3.32,3.32,3.31,3.32,3.32,3.32,3.32,3.33,3.33,3.33,3.33,3.33,3.27,11.0,1.0,0.0,1.0,1.0,0.0,0.0,0.0,0.0,0.0,0.0,0.0,0.0,0.0,0.0,0.0,16.2,172514,0.0,0.0,79.6,122.09365972222233
1768831192534,262.0,0.0,1.0,10.0,0.0,0.0,0.0,0.0,0.0,0.0,0.0,0.0,0.0,0.0,0.0,0.0,-0.040382,-0.10187,1.018578,1.2600000000000002,-0.49000000000000005,0.0,22.640625,3.29,3.31,3.31,3.27,3.31,3.31,3.32,3.32,3.32,3.33,3.33,3.32,3.31,3.32,3.32,3.31,3.32,3.32,3.32,3.32,3.33,3.33,3.33,3.33,3.33,3.27,11.0,1.0,0.0,1.0,1.0,0.0,0.0,0.0,0.0,0.0,0.0,0.0,0.0,0.0,0.0,0.0,16.2,172531,0.0,0.0,79.6,122.09365972222233
1768831192550,262.0,0.0,1.0,10.0,253.0,253.0,0.0,0.0,0.0,0.0,0.0,0.0,0.0,0.0,0.0,0.0,-0.040382,-0.10187,1.018578,1.2600000000000002,-0.49000000000000005,0.0,22.640625,3.29,3.31,3.31,3.27,3.31,3.31,3.32,3.32,3.32,3.33,3.33,3.32,3.31,3.32,3.32,3.31,3.32,3.32,3.32,3.32,3.33,3.33,3.33,3.33,3.33,3.27,11.0,1.0,0.0,1.0,1.0,0.0,0.0,0.0,0.0,0.0,0.0,0.0,0.0,0.0,0.0,0.0,16.2,172547,0.0,0.0,79.6,122.09365972222233
1768831192566,262.0,0.0,1.0,10.0,253.0,253.0,0.0,0.0,0.0,0.0,0.0,0.0,0.0,0.0,0.0,0.0,-0.040382,-0.10187,1.018578,1.2600000000000002,-0.49000000000000005,0.0,22.6796875,3.29,3.31,3.31,3.27,3.31,3.31,3.32,3.32,3.32,3.33,3.33,3.32,3.31,3.32,3.32,3.31,3.32,3.32,3.32,3.32,3.33,3.33,3.33,3.33,3.33,3.27,11.0,1.0,0.0,1.0,1.0,0.0,0.0,0.0,0.0,0.0,0.0,0.0,0.0,0.0,0.0,0.0,16.2,172563,0.0,0.0,79.6,122.09365972222233
1768831192583,262.0,0.0,1.0,10.0,253.0,253.0,0.0,0.0,0.0,0.0,0.0,0.0,1.0,0.0,0.0,0.0,-0.040382,-0.10187,1.018578,1.2600000000000002,-0.49000000000000005,0.0,22.6796875,3.29,3.31,3.31,3.27,3.31,3.31,3.32,3.32,3.32,3.33,3.33,3.32,3.31,3.32,3.32,3.31,3.32,3.32,3.32,3.32,3.33,3.33,3.33,3.33,3.33,3.27,11.0,1.0,0.0,1.0,1.0,0.0,0.0,0.0,0.0,0.0,0.0,0.0,0.0,0.0,0.0,0.0,16.2,172580,0.0,0.0,79.6,122.09365972222233
1768831192600,262.0,0.0,1.0,10.0,253.0,253.0,1.0,0.026,0.1,0.0,0.0,0.0,1.0,0.0,0.0,0.0,-0.040382,-0.10187,1.018578,1.2600000000000002,-0.49000000000000005,0.0,22.6796875,3.29,3.31,3.31,3.27,3.31,3.31,3.32,3.32,3.32,3.33,3.33,3.32,3.31,3.32,3.32,3.31,3.32,3.32,3.32,3.32,3.33,3.33,3.33,3.33,3.33,3.27,11.0,1.0,0.0,1.0,1.0,0.0,0.0,0.0,0.0,0.0,0.0,0.0,0.0,0.0,0.0,0.0,16.2,172597,0.0055200642857142854,0.0,79.6,122.09365972222233
1768831192650,262.0,0.0,1.0,10.0,253.0,253.0,1.0,0.026,0.1,0.0,0.0,0.5,1.0,0.0,0.0,0.0,-0.040382,-0.10187,1.018578,1.2600000000000002,-0.49000000000000005,0.0,22.6796875,3.29,3.31,3.31,3.27,3.31,3.31,3.32,3.32,3.32,3.33,3.33,3.32,3.31,3.32,3.32,3.31,3.32,3.32,3.32,3.32,3.33,3.33,3.33,3.33,3.33,3.27,11.0,1.0,0.0,1.0,1.0,0.0,0.0,0.0,0.0,0.0,0.0,0.0,0.0,0.0,0.0,0.0,16.2,172647,0.0055200642857142854,0.0,79.6,122.09365972222233
1768831192683,262.0,0.0,1.0,10.0,253.0,253.0,1.0,0.026,0.1,0.0,0.0,0.5,1.0,0.0,0.0,0.0,-0.042456,-0.10858,1.019432,1.2600000000000002,-0.49000000000000005,0.0,22.6796875,3.29,3.31,3.31,3.27,3.31,3.31,3.32,3.32,3.32,3.33,3.33,3.32,3.31,3.32,3.32,3.31,3.32,3.32,3.32,3.32,3.33,3.33,3.33,3.33,3.33,3.27,11.0,1.0,0.0,1.0,1.0,0.0,0.0,0.0,0.0,0.0,0.0,0.0,0.0,0.0,0.0,0.0,16.2,172680,0.0055200642857142854,0.0,79.6,122.09365972222233
1768831192734,262.0,0.0,1.0,10.0,253.0,253.0,1.0,0.026,0.1,0.0,0.0,0.5,1.0,0.0,0.0,0.0,-0.042456,-0.10858,1.019432,1.12,-0.77,0.07,22.6640625,3.29,3.31,3.31,3.27,3.31,3.31,3.32,3.32,3.32,3.33,3.33,3.32,3.31,3.32,3.32,3.31,3.32,3.32,3.32,3.32,3.33,3.33,3.33,3.33,3.33,3.27,11.0,1.0,0.0,1.0,1.0,0.0,0.0,0.0,0.0,0.0,0.0,0.0,0.0,0.0,0.0,0.0,16.2,172731,0.0055200642857142854,0.0,79.6,122.09365972222233
1768831192768,262.0,0.0,1.0,10.0,253.0,253.0,1.0,0.026,0.1,0.0,0.0,0.5,1.0,0.0,0.0,0.0,-0.042456,-0.10858,1.019432,1.12,-0.77,0.07,22.6640625,3.29,3.31,3.31,3.27,3.31,3.31,3.32,3.32,3.32,3.33,3.33,3.32,3.31,3.32,3.32,3.31,3.32,3.32,3.32,3.32,3.33,3.33,3.33,3.33,3.33,3.27,11.0,1.0,0.0,1.0,1.0,0.0,0.0,0.0,0.0,0.0,0.0,0.0,0.0,0.0,0.0,0.0,16.2,172765,0.0055200642857142854,0.0,79.6,122.09365972222233
1768831192817,262.0,0.0,1.0,10.0,253.0,253.0,1.0,0.026,0.1,0.0,0.0,0.5,1.0,0.0,0.0,0.0,-0.045018,-0.105408,1.021872,1.12,-0.77,0.07,22.6640625,3.29,3.31,3.31,3.27,3.31,3.31,3.32,3.32,3.32,3.33,3.33,3.32,3.31,3.32,3.32,3.31,3.32,3.32,3.32,3.32,3.33,3.33,3.33,3.33,3.33,3.27,11.0,1.0,0.0,1.0,1.0,0.0,0.0,0.0,0.0,0.0,0.0,0.0,0.0,0.0,0.0,0.0,16.2,172814,0.0055200642857142854,0.0,79.6,122.09365972222233
1768831192833,262.0,0.0,1.0,10.0,253.0,253.0,1.0,0.026,0.1,0.0,0.0,0.5,1.0,0.0,0.0,0.0,-0.045018,-0.105408,1.021872,1.1900000000000002,-0.77,0.0,22.6640625,3.29,3.31,3.31,3.27,3.31,3.31,3.32,3.32,3.32,3.33,3.33,3.32,3.31,3.32,3.32,3.31,3.32,3.32,3.32,3.32,3.33,3.33,3.33,3.33,3.33,3.27,11.0,1.0,0.0,1.0,1.0,0.0,0.0,0.0,0.0,0.0,0.0,0.0,0.0,0.0,0.0,0.0,16.2,172830,0.0055200642857142854,0.0,79.6,122.09365972222233
1768831192869,262.0,0.0,1.0,10.0,253.0,253.0,1.0,0.026,0.1,0.0,0.0,0.5,1.0,0.0,0.0,0.0,-0.045018,-0.105408,1.021872,1.1900000000000002,-0.77,0.0,22.65625,3.29,3.31,3.31,3.27,3.31,3.31,3.32,3.32,3.32,3.33,3.33,3.32,3.31,3.32,3.32,3.31,3.32,3.32,3.32,3.32,3.33,3.33,3.33,3.33,3.33,3.27,11.0,1.0,0.0,1.0,1.0,0.0,0.0,0.0,0.0,0.0,0.0,0.0,0.0,0.0,0.0,0.0,16.2,172866,0.0055200642857142854,0.0,79.6,122.09365972222233
1768831192885,262.0,0.0,1.0,10.0,253.0,253.0,1.0,0.026,0.1,0.0,0.0,0.5,1.0,0.0,0.0,0.0,-0.045018,-0.105408,1.021872,1.1900000000000002,-0.77,0.0,22.65625,3.29,3.31,3.31,3.27,3.31,3.31,3.32,3.32,3.32,3.33,3.33,3.32,3.31,3.32,3.32,3.31,3.32,3.32,3.32,3.32,3.33,3.33,3.33,3.33,3.33,3.27,11.0,1.0,0.0,1.0,1.0,0.0,0.0,0.0,0.0,0.0,0.0,0.0,0.0,0.0,0.0,0.0,16.2,172882,0.0055200642857142854,0.0,79.6,122.09365972222233
1768831192900,262.0,0.0,1.0,10.0,253.0,253.0,1.0,0.026,0.1,0.0,0.0,0.5,1.0,0.0,0.0,0.0,-0.045018,-0.105408,1.021872,1.1900000000000002,-0.77,0.0,22.65625,3.29,3.31,3.31,3.27,3.31,3.31,3.32,3.32,3.32,3.33,3.33,3.32,3.31,3.32,3.32,3.31,3.32,3.32,3.32,3.32,3.33,3.33,3.33,3.33,3.33,3.27,11.0,1.0,0.0,1.0,1.0,0.0,0.0,0.0,0.0,0.0,0.0,0.0,0.0,0.0,0.0,0.0,16.2,172897,0.0055200642857142854,0.0,79.6,122.09365972222233
1768831192918,262.0,0.0,1.0,10.0,253.0,253.0,1.0,0.026,0.1,0.0,0.0,0.5,1.0,0.0,0.0,0.0,-0.045018,-0.105408,1.021872,1.1900000000000002,-0.77,0.0,22.65625,3.29,3.31,3.31,3.27,3.31,3.31,3.32,3.32,3.32,3.33,3.33,3.32,3.31,3.32,3.32,3.31,3.32,3.32,3.32,3.32,3.33,3.33,3.33,3.33,3.33,3.27,11.0,1.0,0.0,1.0,1.0,0.0,0.0,0.0,0.0,0.0,0.0,0.0,0.0,0.0,0.0,0.0,16.2,172915,0.0055200642857142854,0.0,79.6,122.09365972222233
1768831192932,262.0,0.0,1.0,10.0,253.0,253.0,1.0,0.026,0.1,0.0,0.0,0.5,1.0,0.0,0.0,0.0,-0.045018,-0.105408,1.021872,1.1900000000000002,-0.77,0.0,22.65625,3.29,3.31,3.31,3.27,3.31,3.31,3.32,3.32,3.32,3.33,3.33,3.32,3.31,3.32,3.32,3.31,3.32,3.32,3.32,3.32,3.33,3.33,3.33,3.33,3.33,3.27,11.0,1.0,0.0,1.0,1.0,0.0,0.0,0.0,0.0,0.0,0.0,0.0,0.0,0.0,0.0,0.0,16.2,172929,0.0055200642857142854,0.0,79.6,122.09365972222233
1768831192951,262.0,0.0,1.0,10.0,253.0,253.0,1.0,0.026,0.1,0.0,0.0,0.5,1.0,0.0,0.0,0.0,-0.045018,-0.105408,1.021872,1.1900000000000002,-0.77,0.0,22.65625,3.29,3.31,3.31,3.27,3.31,3.31,3.32,3.32,3.32,3.33,3.33,3.32,3.31,3.32,3.32,3.31,3.32,3.32,3.32,3.32,3.33,3.33,3.33,3.33,3.33,3.27,11.0,1.0,0.0,1.0,1.0,0.0,0.0,0.0,0.0,0.0,0.0,0.0,0.0,0.0,0.0,0.0,16.1,172948,0.0055200642857142854,0.0,79.6,122.09365972222233
1768831192968,375.0,0.0,1.0,10.0,253.0,253.0,1.0,0.026,0.1,0.0,0.0,0.5,1.0,0.0,0.0,0.0,-0.045018,-0.105408,1.021872,1.1900000000000002,-0.77,0.0,22.65625,3.29,3.31,3.31,3.27,3.31,3.31,3.32,3.32,3.32,3.33,3.33,3.32,3.31,3.32,3.32,3.31,3.32,3.32,3.32,3.32,3.33,3.33,3.33,3.33,3.33,3.27,11.0,1.0,0.0,1.0,1.0,0.0,0.0,0.0,0.0,0.0,0.0,0.0,0.0,0.0,0.0,0.0,16.1,172965,0.0055200642857142854,0.0,79.6,122.09365972222233
1768831192983,375.0,0.0,1.0,10.0,253.0,253.0,1.0,0.026,0.1,0.0,0.0,0.5,1.0,0.0,0.0,0.0,-0.045018,-0.105408,1.021872,1.1900000000000002,-0.77,0.0,22.65625,3.29,3.31,3.31,3.27,3.31,3.31,3.32,3.32,3.32,3.33,3.33,3.32,3.31,3.32,3.32,3.31,3.32,3.32,3.32,3.32,3.33,3.33,3.33,3.33,3.33,3.27,11.0,1.0,0.0,1.0,1.0,0.0,0.0,0.0,0.0,0.0,0.0,0.0,0.0,0.0,0.0,0.0,16.1,172980,0.0055200642857142854,0.0,79.6,122.09365972222233
1768831193000,375.0,0.0,1.0,10.0,372.0,372.0,1.0,0.026,0.1,0.0,0.0,0.5,1.0,0.0,0.0,0.0,-0.045018,-0.105408,1.021872,1.1900000000000002,-0.77,0.0,22.65625,3.29,3.31,3.31,3.27,3.31,3.31,3.32,3.32,3.32,3.33,3.33,3.32,3.31,3.32,3.32,3.31,3.32,3.32,3.32,3.32,3.33,3.33,3.33,3.33,3.33,3.27,11.0,1.0,0.0,1.0,1.0,0.0,0.0,0.0,0.0,0.0,0.0,0.0,0.0,0.0,0.0,0.0,16.1,172997,0.0055200642857142854,0.0,79.6,122.09365972222233
1768831193017,375.0,0.0,1.0,10.0,372.0,372.0,1.0,0.026,0.1,0.0,0.0,0.5,1.0,0.0,0.0,0.0,-0.045018,-0.105408,1.021872,1.1900000000000002,-0.77,0.0,22.65625,3.29,3.31,3.31,3.27,3.31,3.31,3.32,3.32,3.32,3.33,3.33,3.32,3.31,3.32,3.32,3.31,3.32,3.32,3.32,3.32,3.33,3.33,3.33,3.33,3.33,3.27,11.0,1.0,0.0,1.0,1.0,0.0,0.0,0.0,0.0,0.0,0.0,0.0,0.0,0.0,0.0,0.0,16.1,173014,0.0055200642857142854,0.0,79.6,122.09365972222233
1768831193050,375.0,0.0,1.0,10.0,372.0,372.0,1.0,0.091,0.2,0.0,0.0,0.5,1.0,0.0,0.0,0.0,-0.045018,-0.105408,1.021872,1.1900000000000002,-0.77,0.0,22.65625,3.29,3.31,3.31,3.27,3.31,3.31,3.32,3.32,3.32,3.33,3.33,3.32,3.31,3.32,3.32,3.31,3.32,3.32,3.32,3.32,3.33,3.33,3.33,3.33,3.33,3.27,11.0,1.0,0.0,1.0,1.0,0.0,0.0,0.0,0.0,0.0,0.0,0.0,0.0,0.0,0.0,0.0,16.1,173047,0.0055200642857142854,0.0,79.6,122.09365972222233
1768831193066,375.0,0.0,1.0,10.0,372.0,372.0,1.0,0.091,0.2,0.0,0.0,0.5,1.0,0.0,0.0,0.0,-0.041358,-0.106506,1.014796,1.1900000000000002,-0.77,0.0,22.65625,3.29,3.31,3.31,3.27,3.31,3.31,3.32,3.32,3.32,3.33,3.33,3.32,3.31,3.32,3.32,3.31,3.32,3.32,3.32,3.32,3.33,3.33,3.33,3.33,3.33,3.27,11.0,1.0,0.0,1.0,1.0,0.0,0.0,0.0,0.0,0.0,0.0,0.0,0.0,0.0,0.0,0.0,16.1,173063,0.0055200642857142854,0.0,79.6,122.09365972222233
1768831193117,375.0,0.0,1.0,10.0,372.0,372.0,1.0,0.091,0.2,0.0,-0.013,0.7000000000000001,1.0,0.0,0.0,0.0,-0.041358,-0.106506,1.014796,1.33,-0.7000000000000001,0.07,22.65625,3.29,3.31,3.31,3.27,3.31,3.31,3.32,3.32,3.32,3.33,3.33,3.32,3.31,3.32,3.32,3.31,3.32,3.32,3.32,3.32,3.33,3.33,3.33,3.33,3.33,3.27,11.0,1.0,0.0,1.0,1.0,0.0,0.0,0.0,0.0,0.0,0.0,0.0,0.0,0.0,0.0,0.0,16.1,173114,0.0055200642857142854,0.0,79.6,122.09365972222233
1768831193150,375.0,0.0,1.0,10.0,372.0,372.0,1.0,0.091,0.2,0.0,-0.013,0.7000000000000001,1.0,0.0,0.0,0.0,-0.041358,-0.106506,1.014796,1.33,-0.7000000000000001,0.07,22.6796875,3.29,3.31,3.31,3.27,3.31,3.31,3.32,3.32,3.32,3.33,3.33,3.32,3.31,3.32,3.32,3.31,3.32,3.32,3.32,3.32,3.33,3.33,3.33,3.33,3.33,3.27,11.0,1.0,0.0,1.0,1.0,0.0,0.0,0.0,0.0,0.0,0.0,0.0,0.0,0.0,0.0,0.0,16.1,173147,0.0055200642857142854,0.0,79.6,122.09365972222233
1768831193216,375.0,0.0,1.0,10.0,372.0,372.0,1.0,0.091,0.2,0.0,-0.013,0.7000000000000001,1.0,0.0,0.0,0.0,-0.041602,-0.106628,1.02114,1.33,-0.7000000000000001,0.07,22.6796875,3.29,3.31,3.31,3.27,3.31,3.31,3.32,3.32,3.32,3.33,3.33,3.32,3.31,3.32,3.32,3.31,3.32,3.32,3.32,3.32,3.33,3.33,3.33,3.33,3.33,3.27,11.0,1.0,0.0,1.0,1.0,0.0,0.0,0.0,0.0,0.0,0.0,0.0,0.0,0.0,0.0,0.0,16.1,173213,0.0055200642857142854,0.0,79.6,122.09365972222233
1768831193234,375.0,0.0,1.0,10.0,372.0,372.0,1.0,0.091,0.2,0.0,-0.013,0.7000000000000001,1.0,0.0,0.0,0.0,-0.041602,-0.106628,1.02114,1.33,-0.7000000000000001,0.07,22.6796875,3.29,3.31,3.31,3.27,3.31,3.31,3.32,3.32,3.32,3.33,3.33,3.32,3.31,3.32,3.32,3.31,3.32,3.32,3.32,3.32,3.33,3.33,3.33,3.33,3.33,3.27,11.0,1.0,0.0,1.0,1.0,0.0,0.0,0.0,0.0,0.0,0.0,0.0,0.0,0.0,0.0,0.0,16.1,173231,0.0055200642857142854,0.0,79.6,122.09365972222233
1768831193253,375.0,0.0,1.0,10.0,372.0,372.0,1.0,0.091,0.2,0.0,-0.013,0.7000000000000001,1.0,0.0,0.0,0.0,-0.041602,-0.106628,1.02114,1.33,-0.7000000000000001,0.07,22.6796875,3.29,3.31,3.31,3.27,3.31,3.31,3.32,3.32,3.32,3.33,3.33,3.32,3.31,3.32,3.32,3.31,3.32,3.32,3.32,3.32,3.33,3.33,3.33,3.33,3.33,3.27,11.0,1.0,0.0,1.0,1.0,0.0,0.0,0.0,0.0,0.0,0.0,0.0,0.0,0.0,0.0,0.0,16.1,173250,0.0055200642857142854,0.0,79.6,122.09365972222233
1768831193267,375.0,0.0,1.0,10.0,372.0,372.0,1.0,0.091,0.2,0.0,-0.013,0.7000000000000001,1.0,0.0,0.0,0.0,-0.041602,-0.106628,1.02114,1.33,-0.7000000000000001,0.07,22.6796875,3.29,3.31,3.31,3.27,3.31,3.31,3.32,3.32,3.32,3.33,3.33,3.32,3.31,3.32,3.32,3.31,3.32,3.32,3.32,3.32,3.33,3.33,3.33,3.33,3.33,3.27,11.0,1.0,0.0,1.0,1.0,0.0,0.0,0.0,0.0,0.0,0.0,0.0,0.0,0.0,0.0,0.0,16.1,173264,0.0055200642857142854,0.0,79.6,122.09365972222233
1768831193283,375.0,0.0,1.0,10.0,372.0,372.0,1.0,0.091,0.2,0.0,-0.013,0.7000000000000001,1.0,0.0,0.0,0.0,-0.041602,-0.106628,1.02114,1.33,-0.7000000000000001,0.07,22.6796875,3.29,3.31,3.31,3.27,3.31,3.31,3.32,3.32,3.32,3.33,3.33,3.32,3.31,3.32,3.32,3.31,3.32,3.32,3.32,3.32,3.33,3.33,3.33,3.33,3.33,3.27,11.0,1.0,0.0,1.0,1.0,0.0,0.0,0.0,0.0,0.0,0.0,0.0,0.0,0.0,0.0,0.0,16.1,173280,0.0055200642857142854,0.0,79.6,122.09365972222233
1768831193300,375.0,0.0,1.0,10.0,372.0,372.0,1.0,0.091,0.2,0.0,-0.013,0.7000000000000001,1.0,0.0,0.0,0.0,-0.041602,-0.106628,1.02114,1.33,-0.7000000000000001,0.07,22.6796875,3.29,3.31,3.31,3.27,3.31,3.31,3.32,3.32,3.32,3.33,3.33,3.32,3.31,3.32,3.32,3.31,3.32,3.32,3.32,3.32,3.33,3.33,3.33,3.33,3.33,3.27,11.0,1.0,0.0,1.0,1.0,0.0,0.0,0.0,0.0,0.0,0.0,0.0,0.0,0.0,0.0,0.0,16.1,173297,0.0055200642857142854,0.0,79.6,122.09365972222233
1768831193316,375.0,0.0,1.0,10.0,372.0,372.0,1.0,0.091,0.2,0.0,-0.013,0.7000000000000001,1.0,0.0,0.0,0.0,-0.041602,-0.106628,1.02114,1.33,-0.7000000000000001,0.07,22.6796875,3.29,3.31,3.31,3.27,3.31,3.31,3.32,3.32,3.32,3.33,3.33,3.32,3.31,3.32,3.32,3.31,3.32,3.32,3.32,3.32,3.33,3.33,3.33,3.33,3.33,3.27,20.0,1.0,0.0,1.0,1.0,0.0,0.0,0.0,0.0,0.0,0.0,0.0,0.0,0.0,0.0,0.0,16.1,173313,0.0055200642857142854,0.0,79.6,122.09365972222233
1768831193333,375.0,0.0,1.0,10.0,372.0,372.0,1.0,0.091,0.2,0.0,-0.013,0.7000000000000001,1.0,0.0,0.0,0.0,0.002196,-0.099796,1.01687,1.33,-0.7000000000000001,0.07,22.6796875,3.29,3.31,3.31,3.27,3.31,3.31,3.32,3.32,3.32,3.33,3.33,3.32,3.31,3.32,3.32,3.31,3.32,3.32,3.32,3.32,3.33,3.33,3.33,3.33,3.33,3.27,20.0,1.0,0.0,1.0,1.0,0.0,0.0,0.0,0.0,0.0,0.0,0.0,0.0,0.0,0.0,0.0,16.1,173330,0.0055200642857142854,0.0,79.6,122.09365972222233
1768831193349,375.0,0.0,1.0,10.0,372.0,372.0,1.0,0.091,0.2,0.0,-0.013,0.7000000000000001,1.0,0.0,0.0,0.0,0.002196,-0.099796,1.01687,1.4700000000000002,-0.9800000000000001,0.14,22.6796875,3.29,3.31,3.31,3.27,3.31,3.31,3.32,3.32,3.32,3.33,3.33,3.32,3.31,3.32,3.32,3.31,3.32,3.32,3.32,3.32,3.33,3.33,3.33,3.33,3.33,3.27,20.0,1.0,0.0,1.0,1.0,0.0,0.0,0.0,0.0,0.0,0.0,0.0,0.0,0.0,0.0,0.0,16.1,173346,0.0055200642857142854,0.0,79.6,122.09365972222233
1768831193383,434.0,0.0,1.0,10.0,372.0,372.0,1.0,0.091,0.2,0.0,-0.013,0.7000000000000001,1.0,0.0,0.0,0.0,0.002196,-0.099796,1.01687,1.4700000000000002,-0.9800000000000001,0.14,22.640625,3.29,3.31,3.31,3.27,3.31,3.31,3.32,3.32,3.32,3.33,3.33,3.32,3.31,3.32,3.32,3.31,3.32,3.32,3.32,3.32,3.33,3.33,3.33,3.33,3.33,3.27,20.0,1.0,0.0,1.0,1.0,0.0,0.0,0.0,0.0,0.0,0.0,0.0,0.0,0.0,0.0,0.0,16.1,173380,0.0055200642857142854,0.0,79.6,122.09365972222233
1768831193400,434.0,0.0,1.0,10.0,430.0,430.0,1.0,0.091,0.2,0.0,-0.013,0.7000000000000001,1.0,0.0,0.0,0.0,0.002196,-0.099796,1.01687,1.4700000000000002,-0.9800000000000001,0.14,22.640625,3.29,3.31,3.31,3.27,3.31,3.31,3.32,3.32,3.32,3.33,3.33,3.32,3.31,3.32,3.32,3.31,3.32,3.32,3.32,3.32,3.33,3.33,3.33,3.33,3.33,3.27,20.0,1.0,0.0,1.0,1.0,0.0,0.0,0.0,0.0,0.0,0.0,0.0,0.0,0.0,0.0,0.0,16.1,173397,0.0055200642857142854,0.0,79.6,122.09365972222233
1768831193417,434.0,0.0,1.0,10.0,430.0,430.0,1.0,0.091,0.2,0.0,-0.013,0.7000000000000001,222.0,227.0,0.0,0.0,0.002196,-0.099796,1.01687,1.4700000000000002,-0.9800000000000001,0.14,22.640625,3.29,3.31,3.31,3.27,3.31,3.31,3.32,3.32,3.32,3.33,3.33,3.32,3.31,3.32,3.32,3.31,3.32,3.32,3.32,3.32,3.33,3.33,3.33,3.33,3.33,3.27,20.0,1.0,0.0,1.0,1.0,0.0,0.0,0.0,0.0,0.0,0.0,0.0,0.0,0.0,0.0,0.0,16.1,173414,0.0055200642857142854,0.0,79.6,122.09365972222233
1768831193450,434.0,0.0,1.0,10.0,430.0,430.0,1.0,0.091,0.2,0.0,-0.013,0.7000000000000001,222.0,227.0,0.0,0.0,0.002196,-0.099796,1.01687,1.4700000000000002,-0.9800000000000001,0.14,22.640625,3.29,3.31,3.31,3.27,3.31,3.31,3.32,3.32,3.32,3.33,3.33,3.32,3.31,3.32,3.32,3.31,3.32,3.32,3.32,3.32,3.33,3.33,3.33,3.33,3.33,3.27,20.0,1.0,0.0,1.0,1.0,0.0,0.0,0.0,0.0,0.0,0.0,0.0,0.0,0.0,0.0,0.0,16.1,173447,0.0055200642857142854,0.0,79.6,122.09365972222233
1768831193466,434.0,0.0,1.0,10.0,430.0,430.0,211.0,1.001,36.4,0.0,-0.013,0.7000000000000001,222.0,227.0,0.0,0.0,0.002196,-0.099796,1.01687,1.4700000000000002,-0.9800000000000001,0.14,22.640625,3.29,3.31,3.31,3.27,3.31,3.31,3.32,3.32,3.32,3.33,3.33,3.32,3.31,3.32,3.32,3.31,3.32,3.32,3.32,3.32,3.33,3.33,3.33,3.33,3.33,3.27,20.0,1.0,0.0,1.0,1.0,0.0,0.0,0.0,0.0,0.0,0.0,0.0,0.0,0.0,0.0,0.0,16.1,173463,1.1647335642857144,0.0,79.6,122.09365972222233
1768831193483,434.0,0.0,1.0,10.0,430.0,430.0,211.0,1.001,36.4,0.0,-0.013,0.7000000000000001,222.0,227.0,0.0,0.0,0.002196,-0.099796,1.01687,1.4700000000000002,-0.9800000000000001,0.14,22.640625,3.29,3.31,3.31,3.27,3.31,3.31,3.32,3.32,3.32,3.33,3.33,3.32,3.31,3.32,3.32,3.31,3.32,3.32,3.32,3.32,3.33,3.33,3.33,3.33,3.33,3.27,20.0,1.0,0.0,1.0,1.0,0.0,0.0,0.0,0.0,0.0,0.0,0.0,0.0,0.0,0.0,0.0,16.1,173480,1.1647335642857144,0.0,79.6,122.09365972222233
1768831193502,434.0,0.0,1.0,10.0,430.0,430.0,211.0,1.001,36.4,0.0,-0.013,0.7000000000000001,222.0,227.0,0.0,0.0,0.002196,-0.099796,1.01687,1.4700000000000002,-0.9800000000000001,0.14,22.640625,3.29,3.31,3.31,3.27,3.31,3.31,3.32,3.32,3.32,3.33,3.33,3.32,3.31,3.32,3.32,3.31,3.32,3.32,3.32,3.32,3.33,3.33,3.33,3.33,3.33,3.27,20.0,1.0,0.0,1.0,1.0,0.0,0.0,0.0,0.0,0.0,0.0,0.0,0.0,0.0,0.0,0.0,16.1,173499,1.1647335642857144,0.0,79.6,122.09365972222233
