timestamp,ACCEL_LONGITUDINAL,ACCEL_LATERAL,ACCEL_NORMAL,VEL_ANGULAR_YAW,VEL_ANGULAR_PITCH,VEL_ANGULAR_ROLL,AIR_MINUS,AIR_PLUS,GLV_VOLTAGE,SHUNT_CURRENT,MAX_CELL_VOLTAGE,MIN_CELL_VOLTAGE,MAX_CELL_TEMP,TRACTIVE_VOLTAGE,GNSS_TIMESTAMP,LATITUDE,LONGITUDE,SPEED_AVG,STEERING_WHEEL,THROTTLE,BRAKE,TORQUE_GAIN,TORQUE_DECREASE_R,TORQUE_DECREASE_L,SPEED_FL,SPEED_FR,SPEED_RL,SPEED_RR,RPM_L_MOTOR,TORQUE_L_MOTOR,POWER_L_MOTOR,LEFT_MOTOR_CURRENT,RPM_R_MOTOR,TORQUE_R_MOTOR,POWER_R_MOTOR,RIGHT_MOTOR_CURRENT,ENERGY_R_MOTOR,OVERLOAD_R_MOTOR,TEMPERATURE1_R,TEMPERATURE2_R,LOST_MSG_R_MOTOR,BUS_OFF_R_MOTOR,CAN_STATE_R_MOTOR,INV_STATE_R_MOTOR,FAILURE_R_MOTOR,ALARM_R_MOTOR,BMS_ERRORMASK,BMS_ERROR_LOG1,BMS_ERROR_LOG2,BMS_ERROR_LOG3,BMS_ERROR_LOG4,BMS_ERROR_LOG5,ERROR_SUM_S1,ERROR_SUM_S2,ERROR_SUM_S3,ERROR_SUM_S4,ERROR_SUM_S5,BMS_MODE,ADDR_CELL_VOLT_MIN,ADDR_STACK_VOLT_MIN,ADDR_MIN_VOLTAGE,ADDR_CELL_VOLT_MAX,ADDR_STACK_VOLT_MAX,ADDR_MAX_VOLTAGE,ADDR_CELL_TEMP_MAX,ADDR_STACK_TEMP_MAX,ADDR_MAX_TEMPERATURE,DESIRED_YAW,MAX_YAW,ECU_MODE,CONTROL_EVENT_FLAG_1,CONTROL_EVENT_FLAG_2,DISTANCE_P_ODOM,DISTANCE_T_ODOM,SET_POINT_LONGITUDINAL,SET_POINT_LATERAL,KP,TI,SLIP,RIGHT_MOTOR_TEMPERATURE,LEFT_MOTOR_TEMPERATURE,STACK_1_CELL_1_VOLTAGE,STACK_1_CELL_2_VOLTAGE,STACK_1_CELL_3_VOLTAGE,STACK_1_CELL_4_VOLTAGE,STACK_2_CELL_1_VOLTAGE,STACK_2_CELL_2_VOLTAGE,STACK_2_CELL_3_VOLTAGE,STACK_2_CELL_4_VOLTAGE,STACK_3_CELL_1_VOLTAGE,STACK_3_CELL_2_VOLTAGE,STACK_3_CELL_3_VOLTAGE,STACK_3_CELL_4_VOLTAGE,STACK_4_CELL_1_VOLTAGE,STACK_4_CELL_2_VOLTAGE,STACK_4_CELL_3_VOLTAGE,STACK_4_CELL_4_VOLTAGE,STACK_5_CELL_1_VOLTAGE,STACK_5_CELL_2_VOLTAGE,STACK_5_CELL_3_VOLTAGE,STACK_5_CELL_4_VOLTAGE,STACK_6_CELL_1_VOLTAGE,STACK_6_CELL_2_VOLTAGE,STACK_6_CELL_3_VOLTAGE,STACK_6_CELL_4_VOLTAGE,STACK_1_CELL_1_TEMPERATURE,STACK_1_CELL_2_TEMPERATURE,STACK_1_CELL_3_TEMPERATURE,STACK_1_CELL_4_TEMPERATURE,STACK_2_CELL_1_TEMPERATURE,STACK_2_CELL_2_TEMPERATURE,STACK_2_CELL_3_TEMPERATURE,STACK_2_CELL_4_TEMPERATURE,STACK_3_CELL_1_TEMPERATURE,STACK_3_CELL_2_TEMPERATURE,STACK_3_CELL_3_TEMPERATURE,STACK_3_CELL_4_TEMPERATURE,STACK_4_CELL_1_TEMPERATURE,STACK_4_CELL_2_TEMPERATURE,STACK_4_CELL_3_TEMPERATURE,STACK_4_CELL_4_TEMPERATURE,STACK_5_CELL_1_TEMPERATURE,STACK_5_CELL_2_TEMPERATURE,STACK_5_CELL_3_TEMPERATURE,STACK_5_CELL_4_TEMPERATURE,STACK_6_CELL_1_TEMPERATURE,STACK_6_CELL_2_TEMPERATURE,STACK_6_CELL_3_TEMPERATURE,STACK_6_CELL_4_TEMPERATURE,t,HODOMETRO
1782566013928,0,0,0,0,0,0,0,0,0,0,0.0,0.0,0.0,0,0,0,0,0,0,0,0,0.0,0.0,0.0,0.0,0.0,0.0,0.0,0,0.0,0,0.0,0,0.0,0,0.0,0,0,0.0,0,0,0,0,0,0,0,0,0,0,0,0,0,0,0,0,0,0,0,0,0,0,0,0,0,0,0,0,0,0,0,0,0,0,0,0,0,0,0,0,0,0,0,0,0,0,0,0,0,0,0,0,0,0,0,0,0,0,0,0,0,0,0,0,0,0,0,0,0,0,0,0,0,0,0,0,0,0,0,0,0,0,0,0,0,0,0,0,0,0,0,0.0
1782566013944,0,0,0,0,0,0,0,0,0,0,0.0,0.0,0.0,0,0,-19.8643,0,0,0,0,0,0.0,0.0,0.0,0.0,0.0,0.0,0.0,1.0,0.065,0,0.0,0,0.0,0,0.0,0,0,0.0,0,0,0,0,0,0,0,0,0,0,0,0,0,0,0,0,0,0,0,0,0,0,0,0,0,0,0,0,0,0,0,0,0,0,0,0,0,0,0,0,0,0,0,0,0,0,0,0,0,0,0,0,0,0,0,0,0,0,0,0,0,0,0,0,0,0,0,0,0,0,0,0,0,0,0,0,0,0,0,0,0,0,0,0,0,0,0,0,0,0,16,0.0
1782566013960,0,0,0,0,0,0,0,0,0,0,0.0,0.0,0.0,0,0,-19.8643,-43.9724,0,0,0,0,0.0,0.0,0.0,0.0,0.0,0.0,0.0,1.0,0.065,0,0.2,0,0.0,0,0.0,0,0,0.0,0,0,0,0,0,0,0,0,0,0,0,0,0,0,0,0,0,0,0,0,0,0,0,0,0,0,0,0,0,0,0,0,0,0,0,0,0,0,0,0,0,0,0,0,0,0,0,0,0,0,0,0,0,0,0,0,0,0,0,0,0,0,0,0,0,0,0,0,0,0,0,0,0,0,0,0,0,0,0,0,0,0,0,0,0,0,0,0,0,0,32,0.0
1782566013978,1.01,0.05,-0.03,0,0,0,0,0,0,0,0.0,0.0,0.0,0,0,-19.8643,-43.9724,0,0,0,0,0.0,0.0,0.0,0.0,0.0,0.0,0.0,1.0,0.065,0,0.2,0,0.0,0,0.0,0,0,0.0,0,0,0,0,0,0,0,0,0,0,0,0,0,0,0,0,0,0,0,0,0,0,0,0,0,0,0,0,0,0,0,0,0,0,0,0,0,0,0,0,0,0,0,0,0,0,0,0,0,0,0,0,0,0,0,0,0,0,0,0,0,0,0,0,0,0,0,0,0,0,0,0,0,0,0,0,0,0,0,0,0,0,0,0,0,0,0,0,0,0,50,0.0
1782566013994,1.01,0.05,-0.03,-0.63,0.35,-0.07,0,0,0,0,0.0,0.0,0.0,0,17825600000.0,-19.8643,-43.9724,0,0,0,0,0.0,0.0,0.0,0.0,0.0,0.0,0.0,1.0,0.065,0,0.2,0,0.0,0,0.0,0,0,0.0,0,0,0,0,0,0,0,0,0,0,0,0,0,0,0,0,0,0,0,0,0,0,0,0,0,0,0,0,0,0,0,0,0,0,0,0,0,0,0,0,0,0,0,0,0,0,0,0,0,0,0,0,0,0,0,0,0,0,0,0,0,0,0,0,0,0,0,0,0,0,0,0,0,0,0,0,0,0,0,0,0,0,0,0,0,0,0,0,0,0,66,0.0
1782566014061,1.01,0.05,-0.03,-0.63,0.28,-0.07,0,0,0,0,0.0,0.0,0.0,0,17825600000.0,-19.8643,-43.9724,0,0,0,0,0.0,0.0,0.0,0.0,0.0,0.0,0.0,1.0,0.065,0,0.2,0,0.0,0,0.0,0,0,0.0,0,0,0,0,0,0,0,0,0,0,0,0,0,0,0,0,0,0,0,0,0,0,0,0,0,0,0,0,0,0,0,0,0,0,0,0,0,0,0,0,0,0,0,0,0,0,0,0,0,0,0,0,0,0,0,0,0,0,0,0,0,0,0,0,0,0,0,0,0,0,0,0,0,0,0,0,0,0,0,0,0,0,0,0,0,0,0,0,0,0,133,0.0
1782566014077,1.01,0.05,-0.03,-0.63,0.28,-0.07,0,0,0,0,0.0,0.0,0.0,0,17825600000.0,-19.8643,-43.9724,0,0,0,0,0.0,0.0,0.0,0.0,0.0,0.0,0.0,1.0,0.065,0,0.2,1.0,0.0,0,0.6000000000000001,0,0,0.0,0,0,0,0,0,0,0,0,0,0,0,0,0,0,0,0,0,0,0,0,0,0,0,0,0,0,0,0,0,0,0,0,0,0,0,0,0,0,0,0,0,0,0,0,0,0,0,0,0,0,0,0,0,0,0,0,0,0,0,0,0,0,0,0,0,0,0,0,0,0,0,0,0,0,0,0,0,0,0,0,0,0,0,0,0,0,0,0,0,0,149,0.0
1782566014094,1.01,0.05,-0.03,-0.63,0.28,-0.07,0,0,0,0,0.0,0.0,0.0,0,17825600000.0,-19.8643,-43.9724,0,0,0,0,0.0,0.0,0.0,0.0,0.0,0.0,0.0,1.0,0.065,0,0.2,1.0,0.0,0,0.6000000000000001,0,0,0.0,0,0,0,0,0,0,0,0,0,0,0,0,0,0,0,0,0,0,0,0,0,0,0,0,0,0,0,0,0,0,0,0,0,0,0,0,0,0,0,0,0,0,0,0,0,0,0,0,0,0,0,0,0,0,0,0,0,0,0,0,0,0,0,0,0,0,0,0,0,0,0,0,0,0,0,0,0,0,0,0,0,0,0,0,0,0,0,0,0,0,166,0.0
1782566014111,1.01,0.05,-0.03,-0.56,0.28,-0.07,0,0,0,0,0.0,0.0,0.0,0,17825600000.0,-19.8643,-43.9724,0,0,0,0,0.0,0.0,0.0,0.0,0.0,0.0,0.0,1.0,0.065,0,0.2,1.0,0.0,0,0.6000000000000001,0.0,0.0,31.5,0.0,0,0,0,0,0,0,0,0,0,0,0,0,0,0,0,0,0,0,0,0,0,0,0,0,0,0,0,0,0,0,0,0,0,0,0,0,0,0,0,0,0,0,0,0,0,0,0,0,0,0,0,0,0,0,0,0,0,0,0,0,0,0,0,0,0,0,0,0,0,0,0,0,0,0,0,0,0,0,0,0,0,0,0,0,0,0,0,0,0,183,0.0
1782566014127,1.01,0.05,-0.03,-0.56,0.28,-0.07,0,0,0,0,0.0,0.0,0.0,0,17825600000.0,-19.8643,-43.9724,0,0,0,0,0.0,0.0,0.0,0.0,0.0,0.0,0.0,1.0,0.065,0,0.2,1.0,0.0,0,0.6000000000000001,0.0,0.0,31.5,0.0,0.0,0.0,2.0,0,0,0,0,0,0,0,0,0,0,0,0,0,0,0,0,0,0,0,0,0,0,0,0,0,0,0,0,0,0,0,0,0,0,0,0,0,0,0,0,0,0,0,0,0,0,0,0,0,0,0,0,0,0,0,0,0,0,0,0,0,0,0,0,0,0,0,0,0,0,0,0,0,0,0,0,0,0,0,0,0,0,0,0,0,0,199,0.0
1782566014144,1.01,0.05,-0.03,-0.56,0.28,-0.07,0,0,0,0,0.0,0.0,0.0,0,17825600000.0,-19.8643,-43.9724,0,0,0,0,0.0,0.0,0.0,0.0,0.0,0.0,0.0,1.0,0.065,0,0.2,1.0,0.0,0,0.6000000000000001,0.0,0.0,31.5,0.0,0.0,0.0,2.0,0.0,0.0,0.0,0,0,0,0,0,0,0,0,0,0,0,0,0,0,0,0,0,0,0,0,0,0,0,0,0,0,0,0,0,0,0,0,0,0,0,0,0,0,0,0,0,0,0,0,0,0,0,0,0,0,0,0,0,0,0,0,0,0,0,0,0,0,0,0,0,0,0,0,0,0,0,0,0,0,0,0,0,0,0,0,0,0,0,216,0.0
1782566014160,1.01,0.05,-0.03,-0.56,0.28,-0.07,0,0,0,0,0.0,0.0,0.0,0,17825600000.0,-19.8643,-43.9724,0,0,0,0,0.0,0.0,0.0,0.0,0.0,0.0,0.0,1.0,0.065,0,0.2,1.0,0.0,0,0.6000000000000001,0.0,0.0,31.5,0.0,0.0,0.0,2.0,0.0,0.0,0.0,0,0,0,0,0,0,0,0,0,0,0,0,0,0,0,0,0,0,0,0,0,0,0,0,0,0,0,0,0,0,0,0,0,0,0,3.29,3.29,3.29,3.29,3.29,3.3,3.3,3.29,0,0,0,0,0,0,0,0,0,0,0,0,0,0,0,0,0,0,0,0,0,0,0,0,0,0,0,0,0,0,0,0,0,0,0,0,0,0,0,0,232,0.0
1782566014177,1.01,0.05,-0.03,-0.56,0.28,-0.07,0,0,0,0,0.0,0.0,0.0,0,17825600000.0,-19.8643,-43.9724,0,0,0,0,7.319,7.319,0.0,0.0,0.0,0.0,0.0,1.0,0.065,0,0.2,1.0,0.0,0,0.6000000000000001,0.0,0.0,31.5,0.0,0.0,0.0,2.0,0.0,0.0,0.0,0,0,0,0,0,0,0,0,0,0,0,0,0,0,0,0,0,0,0,0,0,0,0,0,0,0,0,0,0,0,0,0,0,0,0,3.29,3.29,3.29,3.29,3.29,3.3,3.3,3.29,0,0,0,0,0,0,0,0,0,0,0,0,0,0,0,0,0,0,0,0,0,0,0,0,0,0,0,0,0,0,0,0,0,0,0,0,0,0,0,0,249,0.0
1782566014194,1.01,0.05,-0.03,-0.56,0.28,-0.07,0,0,0,0,0.0,0.0,0.0,0,17825600000.0,-19.8643,-43.9724,0,0,0,0,7.319,7.319,0.0,0.0,0.0,0.0,0.0,1.0,0.065,0,0.2,1.0,0.0,0,0.6000000000000001,0.0,0.0,31.5,0.0,0.0,0.0,2.0,0.0,0.0,0.0,0,0,0,0,0,0,0,0,0,0,0,0,0,0,0,0,0,0,0,0,0,0,0,0,0,0,0,0,0,0,0,0,0,0,0,3.29,3.29,3.29,3.29,3.29,3.3,3.3,3.29,3.33,3.33,3.33,3.33,3.29,3.3,3.29,3.29,0,0,0,0,0,0,0,0,0,0,0,0,0,0,0,0,0,0,0,0,0,0,0,0,0,0,0,0,0,0,0,0,266,0.0
1782566014210,1.01,0.05,-0.03,-0.56,0.28,-0.07,0,0,0,0,0.0,0.0,0.0,0,17825600000.0,-19.8643,-43.9724,0,0,0,0,7.319,7.319,0.0,0.0,0.0,0.0,0.0,1.0,0.065,0,0.2,1.0,0.0,0,0.6000000000000001,0.0,0.0,31.5,0.0,0.0,0.0,2.0,0.0,0.0,0.0,0,0,0,0,0,0,0,0,0,0,0,0,0,0,0,0,0,0,0,0,0,0,0,0,0,0,0,0,0,0,0,0,0,0,0,3.29,3.29,3.29,3.29,3.29,3.3,3.3,3.29,3.33,3.33,3.33,3.33,3.29,3.3,3.29,3.29,0,0,0,0,0,0,0,0,0,0,0,0,0,0,0,0,0,0,0,0,0,0,0,0,0,0,0,0,0,0,0,0,282,0.0
1782566014227,1.01,0.03,-0.03,-0.56,0.28,-0.07,0,0,0,0,0.0,0.0,0.0,0,17825600000.0,-19.8643,-43.9724,0,0,0,0,7.319,7.319,0.0,0.0,0.0,0.0,0.0,1.0,0.065,0,0.2,1.0,0.0,0,0.6000000000000001,0.0,0.0,31.5,0.0,0.0,0.0,2.0,0.0,0.0,0.0,0,0,0,0,0,0,0,0,0,0,0,0,0,0,0,0,0,0,0,0,0,0,0,0,0,0,0,0,0,0,0,0,0,0,0,3.29,3.29,3.29,3.29,3.29,3.3,3.3,3.29,3.33,3.33,3.33,3.33,3.29,3.3,3.29,3.29,3.33,3.33,3.33,3.33,0,0,0,0,0,0,0,0,0,0,0,0,0,0,0,0,0,0,0,0,0,0,0,0,0,0,0,0,299,0.0
1782566014244,1.01,0.03,-0.03,-0.56,0.28,-0.07,0,0,0,0,0.0,0.0,0.0,0,17825600000.0,-19.8643,-43.9724,0,0,0,0,7.319,7.319,0.0,0.0,0.0,0.0,0.0,326.0,0.091,0,0.2,1.0,0.0,0,0.6000000000000001,0.0,0.0,31.5,0.0,0.0,0.0,2.0,0.0,0.0,0.0,0,0,0,0,0,0,0,0,0,0,0,0,0,0,0,0,0,0,0,0,0,0,0,0,0,0,0,0,0,0,0,0,0,0,0,3.29,3.29,3.29,3.29,3.29,3.3,3.3,3.29,3.33,3.33,3.33,3.33,3.29,3.3,3.29,3.29,3.33,3.33,3.33,3.33,3.33,3.33,3.33,3.33,0,0,0,0,0,0,0,0,0,0,0,0,0,0,0,0,0,0,0,0,0,0,0,0,316,0.0
1782566014261,1.01,0.03,-0.03,-0.49,0.28,0.0,0,0,0,0,0.0,0.0,0.0,0,17825600000.0,-19.8643,-43.9724,0,0,0,0,7.319,7.319,0.0,0.0,0.0,0.0,0.0,326.0,0.091,0,0.2,1.0,0.0,0,0.6000000000000001,0.0,0.0,31.5,0.0,0.0,0.0,2.0,0.0,0.0,0.0,0,0,0,0,0,0,0,0,0,0,0,0,0,0,0,0,0,0,0,0,0,0,0,0,0,0,0,0,0,0,0,0,0,0,0,3.29,3.29,3.29,3.29,3.29,3.3,3.3,3.29,3.33,3.33,3.33,3.33,3.29,3.3,3.29,3.29,3.33,3.33,3.33,3.33,3.33,3.33,3.33,3.33,0,0,0,0,0,0,0,0,0,0,0,0,0,0,0,0,0,0,0,0,0,0,0,0,333,0.0
1782566014277,1.01,0.03,-0.03,-0.49,0.28,0.0,0,0,0,0,0.0,0.0,0.0,0,17825600000.0,-19.8643,-43.9724,0,0,0,0,7.319,7.319,0.0,0.0,0.0,0.0,0.0,326.0,0.091,0,31.700000000000003,1.0,0.0,0,0.6000000000000001,0.0,0.0,31.5,0.0,0.0,0.0,2.0,0.0,0.0,0.0,0,0,0,0,0,0,0,0,0,0,0,0,0,0,0,0,0,0,0,0,0,0,0,0,0,0,0,0,0,0,0,0,0,0,0,3.29,3.29,3.29,3.29,3.29,3.3,3.3,3.29,3.33,3.33,3.33,3.33,3.29,3.3,3.29,3.29,3.33,3.33,3.33,3.33,3.33,3.33,3.33,3.33,0,0,0,0,0,0,0,0,0,0,0,0,0,0,0,0,0,0,0,0,0,0,0,0,349,0.0
1782566014294,1.02,-0.04,-0.03,-0.14,0.21,0.0,0,0,0,0,0.0,0.0,0.0,0,17825600000.0,-19.8643,-43.9724,0,0,0,0,7.319,7.319,0.0,0.0,0.0,0.0,0.0,326.0,0.091,0,31.700000000000003,1.0,0.0,0,0.6000000000000001,0.0,0.0,31.5,0.0,0.0,0.0,2.0,0.0,0.0,0.0,0,0,0,0,0,0,0,0,0,0,0,0,0,0,0,0,0,0,0,0,0,0,0,0,0,0,0,0,0,0,0,0,0,0,0,3.29,3.29,3.29,3.29,3.29,3.3,3.3,3.29,3.33,3.33,3.33,3.33,3.29,3.3,3.29,3.29,3.33,3.33,3.33,3.33,3.33,3.33,3.33,3.33,0,0,0,0,0,0,0,0,0,0,0,0,0,0,0,0,0,0,0,0,0,0,0,0,366,0.0
1782566014327,1.02,-0.04,-0.03,-0.14,0.21,0.0,0,0,0,0,0.0,0.0,0.0,0,17825600000.0,-19.8643,-43.9724,0,0,0,0,7.319,7.319,0.0,0.0,0.0,0.0,0.0,326.0,0.091,0,31.700000000000003,1.0,0.0,0,0.6000000000000001,0.0,0.0,31.5,0.0,0.0,0.0,2.0,0.0,0.0,0.0,0,0,0,0,0,0,0,0,0,0,0,0,0,0,0,0,0,0,0,0,0,0,0,0,0,0,0,0,0,0,0,0,0,28.27,34.25,3.29,3.29,3.29,3.29,3.29,3.3,3.3,3.29,3.33,3.33,3.33,3.33,3.29,3.3,3.29,3.29,3.33,3.33,3.33,3.33,3.33,3.33,3.33,3.33,0,0,0,0,0,0,0,0,0,0,0,0,0,0,0,0,0,0,0,0,0,0,0,0,399,0.0
1782566014360,1.01,-0.06,-0.03,0.91,0.28,0.07,0,0,0,0,0.0,0.0,0.0,0,17825600000.0,-19.8643,-43.9724,0,0,0,0,7.319,7.319,0.0,0.0,0.0,0.0,0.0,326.0,0.091,0,31.700000000000003,1.0,0.0,0,0.6000000000000001,0.0,0.0,31.5,0.0,0.0,0.0,2.0,0.0,0.0,0.0,0,0,0,0,0,0,0,0,0,0,0,0,0,0,0,0,0,0,0,0,0,0,0,0,0,0,0,0,0,0,0,0,0,28.27,34.25,3.29,3.29,3.29,3.29,3.29,3.3,3.3,3.29,3.33,3.33,3.33,3.33,3.29,3.3,3.29,3.29,3.33,3.33,3.33,3.33,3.33,3.33,3.33,3.33,0,0,0,0,0,0,0,0,0,0,0,0,0,0,0,0,0,0,0,0,0,0,0,0,432,0.0
1782566014377,1.01,-0.06,-0.03,0.91,0.28,0.07,0,0,0,0,0.0,0.0,0.0,0,17825600000.0,-19.8643,-43.9724,0,0,0,0,7.319,7.319,0.0,0.0,0.0,0.0,0.0,326.0,0.091,0,31.700000000000003,253.0,0.40299999999999997,0,25.1,0.0,0.0,31.5,0.0,0.0,0.0,2.0,0.0,0.0,0.0,0,0,0,0,0,0,0,0,0,0,0,0,0,0,0,0,0,0,0,0,0,0,0,0,0,0,0,0,0,0,0,0,0,28.27,34.25,3.29,3.29,3.29,3.29,3.29,3.3,3.3,3.29,3.33,3.33,3.33,3.33,3.29,3.3,3.29,3.29,3.33,3.33,3.33,3.33,3.33,3.33,3.33,3.33,0,0,0,0,0,0,0,0,0,0,0,0,0,0,0,0,0,0,0,0,0,0,0,0,449,0.0
1782566014394,1.01,-0.06,-0.03,0.91,0.28,0.07,0,0,0,0,0.0,0.0,0.0,0,17825600000.0,-19.8643,-43.9724,0,0,0,0,7.319,7.319,0.0,0.0,0.0,0.0,0.0,326.0,0.091,0,31.700000000000003,253.0,0.40299999999999997,0,25.1,0.0,0.0,31.5,0.0,0.0,0.0,2.0,0.0,0.0,0.0,0,0,0,0,0,0,0,0,0,0,0,0,0,0,0,0,0,0,0,0,0,0,0,0,0,0,0,0,0,0,0,0,0,28.27,34.25,3.29,3.29,3.29,3.29,3.29,3.3,3.3,3.29,3.33,3.33,3.33,3.33,3.29,3.3,3.29,3.29,3.33,3.33,3.33,3.33,3.33,3.33,3.33,3.33,0,0,0,0,0,0,0,0,0,0,0,0,0,0,0,0,0,0,0,0,0,0,0,0,466,0.0
1782566014411,1.01,-0.12,-0.03,2.17,1.26,0.07,0,0,0,0,0.0,0.0,0.0,0,17825600000.0,-19.8643,-43.9724,0,0,0,0,7.319,7.319,0.0,0.0,0.0,0.0,0.0,326.0,0.091,0,31.700000000000003,253.0,0.40299999999999997,0,25.1,0.0,0.0,31.5,0.0,0.0,0.0,2.0,0.0,0.0,0.0,0,0,0,0,0,0,0,0,0,0,0,0,0,0,0,0,0,0,0,0,0,0,0,0,0,0,0,0,0,0,0,0,0,28.27,34.25,3.29,3.29,3.29,3.29,3.29,3.3,3.3,3.29,3.33,3.33,3.33,3.33,3.29,3.3,3.29,3.29,3.33,3.33,3.33,3.33,3.33,3.33,3.33,3.33,0,0,0,0,0,0,0,0,0,0,0,0,0,0,0,0,0,0,0,0,0,0,0,0,483,0.0
1782566014427,1.01,-0.12,-0.03,2.17,1.26,0.07,0,0,0,0,0.0,0.0,0.0,0,17825600000.0,-19.8643,-43.9724,0.0,3.61,546.0,0.0,7.319,7.319,0.0,0.0,0.0,0.0,0.0,326.0,0.091,0,31.700000000000003,253.0,0.40299999999999997,0,25.1,0.0,0.0,31.5,0.0,0.0,0.0,2.0,0.0,0.0,0.0,0,0,0,0,0,0,0,0,0,0,0,0,0,0,0,0,0,0,0,0,0,0,0,0,0,0,0,0,0,0,0,0,0,28.27,34.25,3.29,3.29,3.29,3.29,3.29,3.3,3.3,3.29,3.33,3.33,3.33,3.33,3.29,3.3,3.29,3.29,3.33,3.33,3.33,3.33,3.33,3.33,3.33,3.33,0,0,0,0,0,0,0,0,0,0,0,0,0,0,0,0,0,0,0,0,0,0,0,0,499,0.0
1782566014444,1.01,-0.12,-0.03,-0.84,0.21,-0.98,0,0,0,0,0.0,0.0,0.0,0,17825600000.0,-19.8643,-43.9724,0.0,3.61,546.0,0.0,7.098,7.098,0.0,0.0,0.0,0.0,0.0,326.0,0.091,0,31.700000000000003,253.0,0.40299999999999997,0,25.1,0.0,0.0,31.5,0.0,0.0,0.0,2.0,0.0,0.0,0.0,0,0,0,0,0,0,0,0,0,0,0,0,0,0,0,0,0,0,0,0,0,0,0,0,0,0,0,0,0,0,0,0,0,28.27,34.25,3.29,3.29,3.29,3.29,3.29,3.3,3.3,3.29,3.33,3.33,3.33,3.33,3.29,3.3,3.29,3.29,3.33,3.33,3.33,3.33,3.33,3.33,3.33,3.33,0,0,0,0,0,0,0,0,0,0,0,0,0,0,0,0,0,0,0,0,0,0,0,0,516,0.0
1782566014460,1.01,-0.12,-0.03,-0.84,0.21,-0.98,0,0,0,0,0.0,0.0,0.0,0,17825600000.0,-19.8643,-43.9724,0.0,3.61,546.0,0.0,7.098,7.098,0.0,0.0,0.0,0.0,0.0,326.0,0.091,0,31.700000000000003,253.0,0.40299999999999997,0,25.1,0.0,0.0,31.5,0.0,0.0,0.0,2.0,0.0,0.0,0.0,0,0,0,0,0,0,0,0,0,0,0,0,0,0,0,0,0,0,0,0,0,0,0,0,0,0,0,0,0,0,0,0,0,28.27,34.25,3.29,3.28,3.29,3.28,3.29,3.3,3.3,3.29,3.33,3.33,3.33,3.33,3.29,3.3,3.29,3.29,3.33,3.33,3.33,3.33,3.33,3.33,3.33,3.33,0,0,0,0,0,0,0,0,0,0,0,0,0,0,0,0,0,0,0,0,0,0,0,0,532,0.0
1782566014477,1.01,-0.12,-0.03,-0.84,0.21,-0.98,0,0,0,0,0.0,0.0,0.0,0,17825600000.0,-19.8643,-43.9724,0.0,3.61,546.0,0.0,7.098,7.098,0.0,0.0,0.0,0.0,0.0,326.0,0.091,0,31.700000000000003,253.0,0.40299999999999997,0,25.1,0.0,0.0,31.5,0.0,0.0,0.0,2.0,0.0,0.0,0.0,0,0,0,0,0,0,0,0,0,0,0,0,0,0,0,0,0,0,0,0,0,0,0,0,0,0,0,0,0,0,0,0,0,28.27,34.25,3.29,3.28,3.29,3.28,3.27,3.29,3.29,3.28,3.33,3.33,3.33,3.33,3.29,3.3,3.29,3.29,3.33,3.33,3.33,3.33,3.33,3.33,3.33,3.33,0,0,0,0,0,0,0,0,0,0,0,0,0,0,0,0,0,0,0,0,0,0,0,0,549,0.0
1782566014494,1.01,-0.12,-0.03,-0.84,0.21,-0.98,0,0,0,0,0.0,0.0,0.0,0,17825600000.0,-19.8643,-43.9724,0.0,3.61,546.0,0.0,7.098,7.098,0.0,0.0,0.0,0.0,0.0,326.0,0.091,0,31.700000000000003,253.0,0.40299999999999997,0,25.1,0.0,0.0,31.5,0.0,0.0,0.0,2.0,0.0,0.0,0.0,0,0,0,0,0,0,0,0,0,0,0,0,0,0,0,0,0,0,0,0,0,0,0,0,0,0,0,0,0,0,0,0,0,28.27,34.25,3.29,3.28,3.29,3.28,3.27,3.29,3.29,3.28,3.32,3.32,3.29,3.32,3.29,3.3,3.29,3.29,3.33,3.33,3.33,3.33,3.33,3.33,3.33,3.33,0,0,0,0,0,0,0,0,0,0,0,0,0,0,0,0,0,0,0,0,0,0,0,0,566,0.0
1782566014510,1.03,-0.02,-0.04,-0.84,0.21,-0.98,0,0,0,0,0.0,0.0,0.0,0,17825600000.0,-19.8643,-43.9724,0.0,3.61,546.0,0.0,7.098,7.098,0.0,0.0,0.0,0.0,0.0,326.0,0.091,0,31.700000000000003,253.0,0.40299999999999997,0,25.1,0.0,0.0,31.5,0.0,0.0,0.0,2.0,0.0,0.0,0.0,0,0,0,0,0,0,0,0,0,0,0,0,0,0,0,0,0,0,0,0,0,0,0,0,0,0,0,0,0,0,0,0,0,28.27,34.25,3.29,3.28,3.29,3.28,3.27,3.29,3.29,3.28,3.32,3.32,3.29,3.32,3.29,3.3,3.29,3.29,3.33,3.33,3.33,3.33,3.33,3.33,3.33,3.33,0,0,0,0,0,0,0,0,0,0,0,0,0,0,0,0,0,0,0,0,0,0,0,0,582,0.0
1782566014511,1.03,-0.02,-0.04,-0.84,0.21,-0.98,0,0,0,0,0.0,0.0,0.0,0,17825600000.0,-19.8643,-43.9724,0.0,3.61,546.0,0.0,7.098,7.098,0.0,0.0,0.0,0.0,0.0,326.0,0.091,0,31.700000000000003,253.0,0.40299999999999997,0,25.1,0.0,0.0,31.5,0.0,0.0,0.0,2.0,0.0,0.0,0.0,0,0,0,0,0,0,0,0,0,0,0,0,0,0,0,0,0,0,0,0,0,0,0,0,0,0,0,0,0,0,0,0,0,28.27,34.25,3.29,3.28,3.29,3.28,3.27,3.29,3.29,3.28,3.32,3.32,3.29,3.32,3.29,3.29,3.28,3.29,3.33,3.33,3.33,3.33,3.33,3.33,3.33,3.33,0,0,0,0,0,0,0,0,0,0,0,0,0,0,0,0,0,0,0,0,0,0,0,0,583,0.0
1782566014527,1.03,-0.02,-0.04,-0.84,0.21,-0.98,0,0,0,0,0.0,0.0,0.0,0,17825600000.0,-19.8643,-43.9724,0.0,3.61,546.0,0.0,7.098,7.098,0.0,0.0,0.0,0.0,0.0,251.0,3.3539999999999996,0,31.700000000000003,253.0,0.40299999999999997,0,25.1,0.0,0.0,31.5,0.0,0.0,0.0,2.0,0.0,0.0,0.0,0,0,0,0,0,0,0,0,0,0,0,0,0,0,0,0,0,0,0,0,0,0,0,0,0,0,0,0,0,0,0,0,0,28.27,34.25,3.29,3.28,3.29,3.28,3.27,3.29,3.29,3.28,3.32,3.32,3.29,3.32,3.29,3.29,3.28,3.29,3.33,3.33,3.33,3.33,3.33,3.33,3.33,3.33,0,0,0,0,0,0,0,0,0,0,0,0,0,0,0,0,0,0,0,0,0,0,0,0,599,0.0
1782566014543,1.03,-0.02,-0.04,-1.05,0.21,-0.91,0,0,0,0,0.0,0.0,0.0,0,17825600000.0,-19.8643,-43.9724,0.0,3.61,546.0,0.0,7.098,7.098,0.0,0.0,0.0,0.0,0.0,251.0,3.3539999999999996,0,31.700000000000003,253.0,0.40299999999999997,0,25.1,0.0,0.0,31.5,0.0,0.0,0.0,2.0,0.0,0.0,0.0,0,0,0,0,0,0,0,0,0,0,0,0,0,0,0,0,0,0,0,0,0,0,0,0,0,0,0,0,0,0,0,0,0,28.27,34.25,3.29,3.28,3.29,3.28,3.27,3.29,3.29,3.28,3.32,3.32,3.29,3.32,3.29,3.29,3.28,3.29,3.32,3.32,3.32,3.32,3.33,3.33,3.33,3.33,0,0,0,0,0,0,0,0,0,0,0,0,0,0,0,0,0,0,0,0,0,0,0,0,615,0.0
1782566014560,1.03,-0.02,-0.04,-1.05,0.21,-0.91,0,0,0,0,0.0,0.0,0.0,0,17825600000.0,-19.8643,-43.9724,0.0,3.61,546.0,0.0,7.098,7.098,0.0,0.0,0.0,0.0,0.0,251.0,3.3539999999999996,0,31.700000000000003,253.0,0.40299999999999997,0,25.1,0.0,0.0,31.5,0.0,0.0,0.0,2.0,0.0,0.0,0.0,0,0,0,0,0,0,0,0,0,0,0,0,0,0,0,0,0,0,0,0,0,0,0,0,0,0,0,0,0,0,0,0,0,28.27,34.25,3.29,3.28,3.29,3.28,3.27,3.29,3.29,3.28,3.32,3.32,3.29,3.32,3.29,3.29,3.28,3.29,3.32,3.32,3.32,3.32,3.32,3.32,3.32,3.32,0,0,0,0,0,0,0,0,0,0,0,0,0,0,0,0,0,0,0,0,0,0,0,0,632,0.0
1782566014577,1.03,-0.02,-0.04,-1.05,0.21,-0.91,0,0,0,0,0.0,0.0,0.0,0,17825600000.0,-19.8643,-43.9724,0.0,3.61,546.0,0.0,7.098,7.098,0.0,0.0,0.0,0.0,0.0,251.0,3.3539999999999996,0,31.700000000000003,253.0,0.40299999999999997,0,25.1,0.0,0.0,31.5,0.0,0.0,0.0,2.0,0.0,0.0,0.0,0,0,0,0,0,0,0,0,0,0.0,0.0,0,0,0,0,0,0,0,0,0,0,0,0,0,0,0,0,0,0,0,0,0,0,28.27,34.25,3.29,3.28,3.29,3.28,3.27,3.29,3.29,3.28,3.32,3.32,3.29,3.32,3.29,3.29,3.28,3.29,3.32,3.32,3.32,3.32,3.32,3.32,3.32,3.32,0,0,0,0,0,0,0,0,0,0,0,0,0,0,0,0,0,0,0,0,0,0,0,0,649,0.0
1782566014594,1.03,-0.02,-0.04,-1.05,0.21,-0.91,0,0,0,0,0.0,0.0,0.0,0,17825600000.0,-19.8643,-43.9724,0.0,3.61,546.0,0.0,7.098,7.098,0.0,0.0,0.0,0.0,0.0,251.0,3.3539999999999996,0,86.30000000000001,253.0,0.40299999999999997,0,25.1,0.0,0.0,31.5,0.0,0.0,0.0,2.0,0.0,0.0,0.0,0,0,0,0,0,0,0,0,0,0.0,0.0,0,0,0,0,0,0,0,0,0,0,0,0,0,0,0,0,0,0,0,0,0,0,28.27,34.25,3.29,3.28,3.29,3.28,3.27,3.29,3.29,3.28,3.32,3.32,3.29,3.32,3.29,3.29,3.28,3.29,3.32,3.32,3.32,3.32,3.32,3.32,3.32,3.32,0,0,0,0,0,0,0,0,0,0,0,0,0,0,0,0,0,0,0,0,0,0,0,0,666,0.0
1782566014610,1.04,-0.01,-0.03,-1.05,0.21,-0.91,0,0,0,0,0.0,0.0,0.0,0,17825600000.0,-19.8643,-43.9724,0.0,3.61,546.0,0.0,7.098,7.098,0.0,0.0,0.0,0.0,0.0,251.0,3.3539999999999996,0,86.30000000000001,253.0,0.40299999999999997,0,25.1,0.0,0.0,31.5,0.0,0.0,0.0,2.0,0.0,0.0,0.0,0,0,0,0,0,0,0,0,0,0.0,0.0,0,0,0,0,0,0,0,0,0,0,0,0,0,0,0,0,0,0,0,0,0,0,28.27,34.25,3.29,3.28,3.29,3.28,3.27,3.29,3.29,3.28,3.32,3.32,3.29,3.32,3.29,3.29,3.28,3.29,3.32,3.32,3.32,3.32,3.32,3.32,3.32,3.32,0,0,0,0,0,0,0,0,0,0,0,0,0,0,0,0,0,0,0,0,0,0,0,0,682,0.0
1782566014626,1.04,-0.01,-0.03,-1.05,0.28,-0.84,0,0,0,0,0.0,0.0,0.0,0,17825600000.0,-19.8643,-43.9724,0.0,3.61,546.0,0.0,7.098,7.098,0.0,0.0,0.0,0.0,0.0,251.0,3.3539999999999996,0,86.30000000000001,253.0,0.40299999999999997,0,25.1,0.0,0.0,31.5,0.0,0.0,0.0,2.0,0.0,0.0,0.0,0,0,0,0,0,0,0,0,0,0.0,0.0,0,0,0,0,0,0,0,0,0,0,0,0,0,0,0,0,0,0,0,0,0,0,28.27,34.25,3.29,3.28,3.29,3.28,3.27,3.29,3.29,3.28,3.32,3.32,3.29,3.32,3.29,3.29,3.28,3.29,3.32,3.32,3.32,3.32,3.32,3.32,3.32,3.32,0,0,0,0,0,0,0,0,0,0,0,0,0,0,0,0,0,0,0,0,0,0,0,0,698,0.0
1782566014660,1.04,-0.01,-0.03,-1.05,0.28,-0.84,0,0,0,0,0.0,0.0,0.0,0,17825600000.0,-19.8643,-43.9724,0.0,3.61,546.0,0.0,7.098,7.098,0.0,0.0,0.0,0.0,0.0,251.0,3.3539999999999996,0,86.30000000000001,191.0,3.51,0,25.1,0.0,0.0,31.5,0.0,0.0,0.0,2.0,0.0,0.0,0.0,0,0,0,0,0,0,0,0,0,0.0,0.0,0,0,0,0,0,0,0,0,0,0,0,0,0,0,0,0,0,0,0,0,0,0,28.27,34.25,3.29,3.28,3.29,3.28,3.27,3.29,3.29,3.28,3.32,3.32,3.29,3.32,3.29,3.29,3.28,3.29,3.32,3.32,3.32,3.32,3.32,3.32,3.32,3.32,0,0,0,0,0,0,0,0,0,0,0,0,0,0,0,0,0,0,0,0,0,0,0,0,732,0.0
1782566014677,1.04,-0.01,-0.03,-0.98,0.35,-0.77,0,0,0,0,0.0,0.0,0.0,0,17825600000.0,-19.8643,-43.9724,0.0,3.61,546.0,0.0,7.098,7.098,0.0,0.0,0.0,0.0,0.0,251.0,3.3539999999999996,0,86.30000000000001,191.0,3.51,0,25.1,0.0,0.0,31.5,0.0,0.0,0.0,2.0,0.0,0.0,0.0,0,0,0,0,0,0,0,0,0,0.0,0.0,0,0,0,0,0,0,0,0,0,0,0,0,0,0,0,0,0,0,0,0,0,0,28.15,32.98,3.29,3.28,3.29,3.28,3.27,3.29,3.29,3.28,3.32,3.32,3.29,3.32,3.29,3.29,3.28,3.29,3.32,3.32,3.32,3.32,3.32,3.32,3.32,3.32,0,0,0,0,0,0,0,0,0,0,0,0,0,0,0,0,0,0,0,0,0,0,0,0,749,0.0
1782566014710,1.02,-0.03,-0.02,0.14,0.63,-1.54,0,0,0,0,0.0,0.0,0.0,0,17825600000.0,-19.8643,-43.9724,0.0,3.61,546.0,0.0,7.098,7.098,0.0,0.0,0.0,0.0,0.0,251.0,3.3539999999999996,0,86.30000000000001,191.0,3.51,0,25.1,0.0,0.0,31.5,0.0,0.0,0.0,2.0,0.0,0.0,0.0,0,0,0,0,0,0,0,0,0,0.0,0.0,0,0,0,0,0,0,0,0,0,0,0,0,0,0,0,0,0,0,0,0,0,0,28.15,32.98,3.29,3.28,3.29,3.28,3.27,3.29,3.29,3.28,3.32,3.32,3.29,3.32,3.29,3.29,3.28,3.29,3.32,3.32,3.32,3.32,3.32,3.32,3.32,3.32,0,0,0,0,0,0,0,0,0,0,0,0,0,0,0,0,0,0,0,0,0,0,0,0,782,0.0
1782566014727,1.02,-0.03,-0.02,-0.07,0.49,-1.47,0,0,0,0,0.0,0.0,0.0,0,17825600000.0,-19.8643,-43.9724,0.0,3.61,546.0,0.0,7.098,7.098,0.0,0.0,0.0,0.0,0.0,251.0,3.3539999999999996,0,86.30000000000001,191.0,3.51,0,25.1,0.0,0.0,31.5,0.0,0.0,0.0,2.0,0.0,0.0,0.0,0,0,0,0,0,0,0,0,0,0.0,0.0,0,0,0,0,0,0,0,0,0,0,0,0,0,0,0,0,0,0,0,0,0,0,28.15,32.98,3.29,3.28,3.29,3.28,3.27,3.29,3.29,3.28,3.32,3.32,3.29,3.32,3.29,3.29,3.28,3.29,3.32,3.32,3.32,3.32,3.32,3.32,3.32,3.32,0,0,0,0,0,0,0,0,0,0,0,0,0,0,0,0,0,0,0,0,0,0,0,0,799,0.0
1782566014743,1.02,-0.03,-0.02,-0.07,0.49,-1.47,0,0,0,0,0.0,0.0,0.0,0,17825600000.0,-19.8643,-43.9724,0.0,3.61,546.0,0.0,7.098,7.098,0.0,0.0,0.0,0.0,0.0,251.0,3.3539999999999996,0,86.30000000000001,191.0,3.51,0,25.1,0.0,0.0,31.5,0.0,0.0,0.0,2.0,0.0,0.0,0.0,0,0,0,0,0,0,0,0,0,0.0,0.0,0,0,0,0,0,0,0,0,0,0,0,0,0,0,0,0,0,0,0,0,0,0,28.15,32.98,3.29,3.28,3.29,3.28,3.27,3.29,3.29,3.28,3.32,3.32,3.29,3.32,3.29,3.29,3.28,3.29,3.32,3.32,3.32,3.32,3.32,3.32,3.32,3.32,0,0,0,0,0,0,0,0,0,0,0,0,0,0,0,0,0,0,0,0,0,0,0,0,815,0.0
1782566014760,1.02,-0.03,-0.02,-0.07,0.49,-1.47,0,0,0,0,0.0,0.0,0.0,0,17825600000.0,-19.8643,-43.9724,0.0,3.61,546.0,0.0,7.098,7.098,0.0,0.0,0.0,0.0,0.0,251.0,3.3539999999999996,0,86.30000000000001,191.0,3.51,0,25.1,0.0,0.0,31.5,0.0,0.0,0.0,2.0,0.0,0.0,0.0,0,0,0,0,0,0,0,0,0,0.0,0.0,0,0,0,0,0,0,0,0,0,0,0,0,0,0,0,0,0,0,0,0,0,0,28.15,32.98,3.29,3.28,3.29,3.28,3.27,3.29,3.29,3.28,3.32,3.32,3.3,3.32,3.29,3.29,3.28,3.29,3.32,3.32,3.32,3.32,3.32,3.32,3.32,3.32,0,0,0,0,0,0,0,0,0,0,0,0,0,0,0,0,0,0,0,0,0,0,0,0,832,0.0
1782566014776,1.02,-0.03,-0.02,-0.14,0.35,-1.26,0,0,0,0,0.0,0.0,0.0,0,17825600000.0,-19.8643,-43.9724,0.0,3.61,546.0,0.0,7.098,7.098,0.0,0.0,0.0,0.0,0.0,251.0,3.3539999999999996,0,86.30000000000001,191.0,3.51,0,25.1,0.0,0.0,31.5,0.0,0.0,0.0,2.0,0.0,0.0,0.0,0,0,0,0,0,0,0,0,0,0.0,0.0,0,0,0,0,0,0,0,0,0,0,0,0,0,0,0,0,0,0,0,0,0,0,28.15,32.98,3.29,3.28,3.29,3.28,3.27,3.29,3.29,3.28,3.32,3.32,3.3,3.32,3.29,3.29,3.28,3.29,3.32,3.32,3.32,3.32,3.32,3.32,3.32,3.32,0,0,0,0,0,0,0,0,0,0,0,0,0,0,0,0,0,0,0,0,0,0,0,0,848,0.0
1782566014793,1.02,-0.03,-0.01,-0.14,0.35,-1.26,0,0,0,0,0.0,0.0,0.0,0,17825600000.0,-19.8643,-43.9724,0.0,3.61,546.0,0.0,7.098,7.098,0.0,0.0,0.0,0.0,0.0,251.0,3.3539999999999996,0,86.30000000000001,191.0,3.51,0,25.1,0.0,0.0,31.5,0.0,0.0,0.0,2.0,0.0,0.0,0.0,0,0,0,0,0,0,0,0,0,0.0,0.0,0,0,0,0,0,0,0,0,0,0,0,0,0,0,0,0,0,0,0,0,0,0,28.15,32.98,3.29,3.28,3.29,3.28,3.27,3.29,3.29,3.28,3.32,3.32,3.3,3.32,3.29,3.29,3.28,3.29,3.32,3.32,3.32,3.32,3.32,3.32,3.32,3.32,0,0,0,0,0,0,0,0,0,0,0,0,0,0,0,0,0,0,0,0,0,0,0,0,865,0.0
1782566014810,1.02,-0.03,-0.01,-0.14,0.35,-1.26,0,0,0,0,0.0,0.0,0.0,0,17825600000.0,-19.8643,-43.9724,0.0,3.61,546.0,0.0,7.098,7.098,0.0,0.0,0.0,0.0,0.0,251.0,3.3539999999999996,0,86.30000000000001,191.0,3.51,0,25.1,0.0,0.0,31.5,0.0,0.0,0.0,2.0,0.0,0.0,0.0,0,0,0,0,0,0,0,0,0,0.0,0.0,0,0,0,0,0,0,0,0,0,0,0,0,0,0,0,0,0,0,0,0,0,0,28.15,32.98,3.29,3.28,3.29,3.28,3.27,3.29,3.29,3.28,3.32,3.32,3.3,3.32,3.29,3.29,3.28,3.29,3.32,3.32,3.32,3.32,3.32,3.32,3.32,3.32,0,0,0,0,0,0,0,0,0,0,0,0,0,0,0,0,0,0,0,0,0,0,0,0,882,0.0
1782566014827,1.02,-0.03,-0.01,-0.14,0.35,-1.26,0,0,0,0,3.324,3.2738,25.6,79.19,17825600000.0,-19.8643,-43.9724,0.0,3.61,546.0,0.0,7.098,7.098,0.0,0.0,0.0,0.0,0.0,251.0,3.3539999999999996,0,86.30000000000001,191.0,3.51,0,25.1,0.0,0.0,31.5,0.0,0.0,0.0,2.0,0.0,0.0,0.0,0,0,0,0,0,0,0.0,0.0,0.0,0.0,0.0,0,0,0,0,0,0,0,0,0,0,0,0,0,0,0,0,0,0,0,0,0,0,28.15,32.98,3.29,3.28,3.29,3.28,3.27,3.29,3.29,3.28,3.32,3.32,3.3,3.32,3.29,3.29,3.28,3.29,3.32,3.32,3.32,3.32,3.32,3.32,3.32,3.32,0,0,0,0,0,0,0,0,0,0,0,0,0,0,0,0,0,0,0,0,0,0,0,0,899,0.0
1782566014843,1.02,-0.03,-0.01,-0.14,0.35,-1.26,0,0,0,0,3.324,3.2738,25.6,79.19,17825600000.0,-19.8643,-43.9724,0.0,3.61,546.0,0.0,7.098,7.098,0.0,0.0,0.0,0.0,0.0,251.0,3.3539999999999996,0,86.30000000000001,191.0,3.51,0,25.1,0.0,0.0,31.5,0.0,0.0,0.0,2.0,0.0,0.0,0.0,0,0,0,0,0,0,0.0,0.0,0.0,0.0,0.0,0,0,0,0,0,0,0,0,0,0,0,0,0,0,0,0,0,0,0,0,0,0,28.15,32.98,3.29,3.28,3.29,3.28,3.27,3.29,3.29,3.28,3.32,3.32,3.3,3.32,3.29,3.29,3.28,3.29,3.32,3.32,3.32,3.32,3.32,3.32,3.32,3.32,0,0,0,0,0,0,0,0,0,0,0,0,0,0,0,0,0,0,0,0,0,0,0,0,915,0.0
1782566014860,1.03,-0.03,-0.01,-0.14,0.35,-1.26,0,0,0,0,3.324,3.2738,25.6,79.19,17825600000.0,-19.8643,-43.9724,0.8,8.14,511.0,0.0,7.098,7.098,0.0,0.0,0.0,0.0,0.0,251.0,3.3539999999999996,0,86.30000000000001,191.0,3.51,0,25.1,0.0,0.0,31.5,0.0,0.0,0.0,2.0,0.0,0.0,0.0,0,0,0,0,0,0,0.0,0.0,0.0,0.0,0.0,0,0,0,0,0,0,0,0,0,0,0,0,0,0,0,0,0,0,0,0,0,0,28.15,32.98,3.29,3.28,3.29,3.28,3.27,3.29,3.29,3.28,3.32,3.32,3.3,3.32,3.29,3.29,3.28,3.29,3.32,3.32,3.32,3.32,3.32,3.32,3.32,3.32,0,0,0,0,0,0,0,0,0,0,0,0,0,0,0,0,0,0,0,0,0,0,0,0,932,0.0
1782566014876,1.03,-0.03,-0.01,-0.56,0.14,-1.19,0,0,0,0,3.324,3.2738,25.6,79.19,17825600000.0,-19.8643,-43.9724,0.8,8.14,511.0,0.0,7.098,7.098,0.0,0.0,0.0,0.0,0.0,251.0,3.3539999999999996,0,86.30000000000001,191.0,3.51,0,25.1,0.0,0.0,31.5,0.0,0.0,0.0,2.0,0.0,0.0,0.0,0,0,0,0,0,0,0.0,0.0,0.0,0.0,0.0,0,0,0,0,0,0,0,0,0,0,0,0,0,0,0,0,0,0,0,0,0,0,28.15,32.98,3.29,3.28,3.29,3.28,3.27,3.29,3.29,3.28,3.32,3.32,3.3,3.32,3.29,3.29,3.28,3.29,3.32,3.32,3.32,3.32,3.32,3.32,3.32,3.32,0,0,0,0,0,0,0,0,0,0,0,0,0,0,0,0,0,0,0,0,0,0,0,0,948,0.0
1782566014910,1.03,-0.03,-0.01,-0.56,0.14,-1.19,0,0,0,0,3.324,3.2738,25.6,79.19,17825600000.0,-19.8643,-43.9724,0.8,8.14,511.0,0.0,6.656,6.656,0.0,12.0,0.0,7.0,10.0,251.0,3.3539999999999996,0,86.30000000000001,191.0,3.51,0,25.1,0.0,0.0,31.5,0.0,0.0,0.0,2.0,0.0,0.0,0.0,0,0,0,0,0,0,0.0,0.0,0.0,0.0,0.0,0,0,0,0,0,0,0,0,0,0,0,0,0,0,0,0,0,0,0,0,0,0,28.15,32.98,3.29,3.28,3.29,3.28,3.27,3.29,3.29,3.28,3.32,3.32,3.3,3.32,3.29,3.29,3.28,3.29,3.32,3.32,3.32,3.32,3.32,3.32,3.32,3.32,0,0,0,0,0,0,0,0,0,0,0,0,0,0,0,0,0,0,0,0,0,0,0,0,982,0.0
1782566014927,1.03,-0.03,-0.01,-0.91,0.14,-1.19,0,0,0,0,3.324,3.2738,25.6,79.19,17825600000.0,-19.8643,-43.9724,0.8,8.14,511.0,0.0,6.656,6.656,0.0,12.0,0.0,7.0,10.0,190.0,4.835999999999999,0,86.30000000000001,191.0,3.51,0,25.1,0.0,0.0,31.5,0.0,0.0,0.0,2.0,0.0,0.0,0.0,0,0,0,0,0,0,0.0,0.0,0.0,0.0,0.0,0,0,0,0,0,0,0,0,0,0,0,0,0,0,0,0,0,0,0,0,0,0,28.15,32.98,3.29,3.28,3.29,3.28,3.27,3.29,3.29,3.28,3.32,3.32,3.3,3.32,3.29,3.29,3.28,3.29,3.32,3.32,3.32,3.32,3.32,3.32,3.32,3.32,0,0,0,0,0,0,0,0,0,0,0,0,0,0,0,0,0,0,0,0,0,0,0,0,999,0.0
1782566014943,1.03,-0.03,-0.01,-1.26,0.42,-4.13,0,0,0,0,3.324,3.2738,25.6,79.19,17825600000.0,-19.8643,-43.9724,0.8,8.14,511.0,0.0,6.656,6.656,0.0,12.0,0.0,7.0,10.0,190.0,4.835999999999999,0,86.30000000000001,191.0,3.51,0,25.1,0.0,0.0,31.5,0.0,0.0,0.0,2.0,0.0,0.0,0.0,0,0,0,0,0,0,0.0,0.0,0.0,0.0,0.0,0,0,0,0,0,0,0,0,0,0,0,0,0,0,0,0,0,0,0,0,0,0,28.15,32.98,3.29,3.28,3.29,3.28,3.27,3.29,3.29,3.28,3.32,3.32,3.3,3.32,3.29,3.29,3.28,3.29,3.32,3.32,3.32,3.32,3.32,3.32,3.32,3.32,0,0,0,0,0,0,0,0,0,0,0,0,0,0,0,0,0,0,0,0,0,0,0,0,1015,0.0
1782566014960,1.02,0.01,-0.01,-1.26,0.42,-4.13,0,0,0,0,3.324,3.2738,25.6,79.19,17825600000.0,-19.8643,-43.9724,0.8,8.14,511.0,0.0,6.656,6.656,0.0,12.0,0.0,7.0,10.0,190.0,4.835999999999999,0,86.30000000000001,191.0,3.51,0,25.1,0.0,0.0,31.5,0.0,0.0,0.0,2.0,0.0,0.0,0.0,0,0,0,0,0,0,0.0,0.0,0.0,0.0,0.0,0,0,0,0,0,0,0,0,0,0,0,0,0,0,0,0,0,0,0,0,0,0,28.15,32.98,3.29,3.28,3.29,3.28,3.27,3.29,3.29,3.28,3.32,3.32,3.3,3.32,3.29,3.29,3.28,3.29,3.32,3.32,3.32,3.32,3.32,3.32,3.32,3.32,0,0,0,0,0,0,0,0,0,0,0,0,0,0,0,0,0,0,0,0,0,0,0,0,1032,0.0
1782566014976,1.02,0.01,-0.01,-1.12,0.42,-4.48,0,0,0,0,3.324,3.2738,25.6,79.19,17825600000.0,-19.8643,-43.9724,0.8,8.14,511.0,0.0,6.656,6.656,0.0,12.0,0.0,7.0,10.0,190.0,4.835999999999999,0,86.30000000000001,191.0,3.51,0,25.1,0.0,0.0,31.5,0.0,0.0,0.0,2.0,0.0,0.0,0.0,0,0,0,0,0,0,0.0,0.0,0.0,0.0,0.0,0,0,0,0,0,0,0,0,0,0,0,0,0,0,0,0,0,0,0,0,0,0,28.15,32.98,3.29,3.28,3.29,3.28,3.27,3.29,3.29,3.28,3.32,3.32,3.3,3.32,3.29,3.29,3.28,3.29,3.32,3.32,3.32,3.32,3.32,3.32,3.32,3.32,0,0,0,0,0,0,0,0,0,0,0,0,0,0,0,0,0,0,0,0,0,0,0,0,1048,0.0
1782566014994,1.02,0.01,-0.01,-1.05,0.42,-4.62,0,0,0,0,3.324,3.2738,25.6,79.19,17825600000.0,-19.8643,-43.9724,0.8,8.14,511.0,0.0,6.656,6.656,0.0,12.0,0.0,7.0,10.0,190.0,4.835999999999999,0,86.30000000000001,191.0,3.51,0,25.1,0.0,0.0,31.5,0.0,0.0,0.0,2.0,0.0,0.0,0.0,0,0,0,0,0,0,0.0,0.0,0.0,0.0,0.0,0,0,0,0,0,0,0,0,0,0,0,0,0,0,0,0,0,0,0,0,0,0,28.15,32.98,3.29,3.28,3.29,3.28,3.27,3.29,3.29,3.28,3.32,3.32,3.3,3.32,3.29,3.29,3.28,3.29,3.32,3.32,3.32,3.32,3.32,3.32,3.32,3.32,0,0,0,0,0,0,0,0,0,0,0,0,0,0,0,0,0,0,0,0,0,0,0,0,1066,0.0
1782566015010,1.02,0.01,-0.01,-1.05,0.42,-4.62,0,0,0,0,3.324,3.2738,25.6,79.19,17825600000.0,-19.8643,-43.9724,0.8,8.14,511.0,0.0,6.656,6.656,0.0,12.0,0.0,7.0,10.0,190.0,4.835999999999999,0,86.30000000000001,191.0,3.51,0,25.1,0.0,0.0,31.5,0.0,0.0,0.0,2.0,0.0,0.0,0.0,0,0,0,0,0,0,0.0,0.0,0.0,0.0,0.0,0,0,0,0,0,0,0,0,0,0,0,0,0,0,0,0,0,0,0,0,0,0,28.15,32.98,3.29,3.28,3.29,3.28,3.27,3.29,3.29,3.28,3.32,3.32,3.3,3.32,3.29,3.29,3.28,3.29,3.32,3.32,3.32,3.32,3.32,3.32,3.32,3.32,0,0,0,0,0,0,0,0,0,0,0,0,0,0,0,0,0,0,0,0,0,0,0,0,1082,0.0
1782566015027,1.02,0.01,-0.01,-1.05,0.42,-4.62,0,0,0,0,3.324,3.2738,25.6,79.19,17825600000.0,-19.8643,-43.9724,0.8,8.14,511.0,0.0,6.656,6.656,0.0,12.0,0.0,7.0,10.0,190.0,4.835999999999999,0,86.30000000000001,191.0,3.51,0,25.1,0.0,0.0,31.5,0.0,0.0,0.0,2.0,0.0,0.0,0.0,0,0,0,0,0,0,0.0,0.0,0.0,0.0,0.0,0,0,0,0,0,0,0,0,0,0,0,0,0,0,0,0,0,0,0,0,0,0,28.15,32.98,3.29,3.28,3.29,3.28,3.27,3.29,3.29,3.28,3.32,3.32,3.29,3.32,3.29,3.29,3.28,3.29,3.32,3.32,3.32,3.32,3.32,3.32,3.32,3.32,0,0,0,0,0,0,0,0,0,0,0,0,0,0,0,0,0,0,0,0,0,0,0,0,1099,0.0
1782566015043,1.02,0.01,-0.01,-1.05,0.42,-4.62,0,0,0,0,3.324,3.2738,25.6,79.19,17825600000.0,-19.8643,-43.9724,0.8,8.14,511.0,0.0,6.656,6.656,0.0,12.0,0.0,7.0,10.0,190.0,4.835999999999999,0,86.30000000000001,191.0,3.51,0,25.1,0.0,0.0,31.5,0.0,0.0,0.0,2.0,0.0,0.0,0.0,0,0,0,0,0,0,0.0,0.0,0.0,0.0,0.0,0,0,0,0,0,0,0,0,0,0,0,0,0,0,0,0,0,0,0,0,0,0,28.15,32.98,3.29,3.28,3.29,3.28,3.27,3.29,3.29,3.28,3.32,3.32,3.29,3.32,3.29,3.29,3.28,3.29,3.32,3.32,3.32,3.32,3.32,3.32,3.32,3.32,0,0,0,0,0,0,0,0,0,0,0,0,0,0,0,0,0,0,0,0,0,0,0,0,1115,0.0
1782566015060,1.02,0.01,-0.01,-1.05,-0.14,-4.9,0,0,0,0,3.324,3.2738,25.6,79.19,17825600000.0,-19.8643,-43.9724,0.8,8.14,511.0,0.0,6.656,6.656,0.0,12.0,0.0,7.0,10.0,190.0,4.835999999999999,0,86.30000000000001,191.0,3.51,0,25.1,0.0,0.0,31.5,0.0,0.0,0.0,2.0,0.0,0.0,0.0,0,0,0,0,0,0,0.0,0.0,0.0,0.0,0.0,0,0,0,0,0,0,0,0,0,0,0,0,0,0,0,0,0,0,0,0,0,0,28.15,32.98,3.29,3.28,3.29,3.28,3.27,3.29,3.29,3.28,3.32,3.32,3.29,3.32,3.29,3.29,3.28,3.29,3.32,3.32,3.32,3.32,3.32,3.32,3.32,3.32,0,0,0,0,0,0,0,0,0,0,0,0,0,0,0,0,0,0,0,0,0,0,0,0,1132,0.0
1782566015076,1.02,0.01,-0.01,-1.05,-0.14,-4.9,0,0,0,0,3.324,3.2738,25.6,79.19,17825600000.0,-19.8643,-43.9724,0.8,8.14,511.0,0.0,6.656,6.656,0.0,12.0,0.0,7.0,10.0,190.0,4.835999999999999,0,86.30000000000001,191.0,3.51,0,25.1,0.0,0.0,31.5,0.0,0.0,0.0,2.0,0.0,0.0,0.0,0,0,0,0,0,0,0.0,0.0,0.0,0.0,0.0,0,0,0,0,0,0,0,0,0,0,0,0,0,0,0,0,0,0,0,0,0,0,28.15,32.98,3.29,3.28,3.29,3.28,3.27,3.29,3.29,3.28,3.32,3.32,3.29,3.32,3.29,3.29,3.28,3.29,3.32,3.32,3.32,3.32,3.32,3.32,3.32,3.32,0,0,0,0,0,0,0,0,0,0,0,0,0,0,0,0,0,0,0,0,0,0,0,0,1148,0.0
1782566015093,1.02,0.01,-0.01,-1.05,-0.14,-4.9,0,0,0,0,3.324,3.2738,25.6,79.19,17825600000.0,-19.8643,-43.9724,0.8,8.14,511.0,0.0,6.656,6.656,0.0,12.0,0.0,7.0,10.0,190.0,4.835999999999999,0,86.30000000000001,191.0,3.51,0,25.1,0.0,0.0,31.5,0.0,0.0,0.0,2.0,0.0,0.0,0.0,0,0,0,0,0,0,0.0,0.0,0.0,0.0,0.0,2.0,0,0,0,0,0,0,0,0,0,0,0,0,0,0,0,0,0,0,0,0,0,28.15,32.98,3.29,3.28,3.29,3.28,3.27,3.29,3.29,3.28,3.32,3.32,3.29,3.32,3.29,3.29,3.28,3.29,3.32,3.32,3.32,3.32,3.32,3.32,3.32,3.32,0,0,0,0,0,0,0,0,0,0,0,0,0,0,0,0,0,0,0,0,0,0,0,0,1165,0.0
1782566015110,1.02,0.01,-0.01,-1.05,-0.14,-4.9,0,0,0,0,3.324,3.2738,25.6,79.19,17825600000.0,-19.8643,-43.9724,0.8,8.14,511.0,0.0,6.656,6.656,0.0,12.0,0.0,7.0,10.0,190.0,4.835999999999999,0,86.30000000000001,191.0,3.51,0,25.1,0.0,0.0,31.5,0.0,0.0,0.0,2.0,0.0,0.0,0.0,0,0,0,0,0,0,0.0,0.0,0.0,0.0,0.0,2.0,0,0,0,0,0,0,0,0,0,0,0,0,0,0,0,0,0,0,0,0,0,28.15,32.98,3.29,3.28,3.29,3.28,3.27,3.29,3.29,3.28,3.32,3.32,3.29,3.32,3.29,3.29,3.28,3.29,3.32,3.32,3.32,3.32,3.32,3.32,3.32,3.32,0,0,0,0,0,0,0,0,0,0,0,0,0,0,0,0,0,0,0,0,0,0,0,0,1182,0.0
1782566015127,1.01,0.01,-0.03,-1.05,-0.14,-4.9,0,0,0,0,3.3236,3.2723,25.6,79.16,17825600000.0,-19.8643,-43.9724,0.8,8.14,511.0,0.0,6.656,6.656,0.0,12.0,0.0,7.0,10.0,190.0,4.835999999999999,0,86.30000000000001,191.0,3.51,0,25.1,0.0,0.0,31.5,0.0,0.0,0.0,2.0,0.0,0.0,0.0,0,0,0,0,0,0,0.0,0.0,0.0,0.0,0.0,2.0,0,0,0,0,0,0,0,0,0,0,0,0,0,0,0,0,0,0,0,0,0,28.15,32.98,3.29,3.28,3.29,3.28,3.27,3.29,3.29,3.28,3.32,3.32,3.29,3.32,3.29,3.29,3.28,3.29,3.32,3.32,3.32,3.32,3.32,3.32,3.32,3.32,0,0,0,0,0,0,0,0,0,0,0,0,0,0,0,0,0,0,0,0,0,0,0,0,1199,0.0
1782566015143,1.01,0.01,-0.03,-1.05,-0.14,-5.39,0,0,0,0,3.3236,3.2723,25.6,79.16,17825600000.0,-19.8643,-43.9724,0.8,8.14,511.0,0.0,6.656,6.656,0.0,12.0,0.0,7.0,10.0,190.0,4.835999999999999,0,86.30000000000001,191.0,3.51,0,25.1,0.0,0.0,31.5,0.0,0.0,0.0,2.0,0.0,0.0,0.0,0,0,0,0,0,0,0.0,0.0,0.0,0.0,0.0,2.0,0,0,0,0,0,0,0,0,0,0,0,0,0,0,0,0,0,0,0,0,0,28.15,32.98,3.29,3.28,3.29,3.28,3.27,3.29,3.29,3.28,3.32,3.32,3.29,3.32,3.29,3.29,3.28,3.29,3.32,3.32,3.32,3.32,3.32,3.32,3.32,3.32,0,0,0,0,0,0,0,0,0,0,0,0,0,0,0,0,0,0,0,0,0,0,0,0,1215,0.0
1782566015160,1.01,0.01,-0.03,-1.05,-0.14,-5.39,0,0,0,0,3.3236,3.2723,25.6,79.16,17825600000.0,-19.8643,-43.9724,0.8,8.14,511.0,0.0,6.656,6.656,0.0,12.0,0.0,7.0,10.0,190.0,4.835999999999999,0,86.30000000000001,191.0,3.51,0,25.1,0.0,0.0,31.5,0.0,0.0,0.0,2.0,0.0,0.0,0.0,0,0,0,0,0,0,0.0,0.0,0.0,0.0,0.0,2.0,0,0,0,0,0,0,0,0,0,0,0,0,0,0,0,0,0,0,0,0,0,28.39,33.41,3.29,3.28,3.29,3.28,3.27,3.29,3.29,3.28,3.32,3.32,3.29,3.32,3.29,3.29,3.28,3.29,3.32,3.32,3.32,3.32,3.32,3.32,3.32,3.32,0,0,0,0,0,0,0,0,0,0,0,0,0,0,0,0,0,0,0,0,0,0,0,0,1232,0.0
1782566015176,1.01,0.01,-0.03,-1.05,-0.14,-5.39,0,0,0,0,3.3236,3.2723,25.6,79.16,17825600000.0,-19.8643,-43.9724,1.9,13.41,495.0,0.0,6.656,6.656,0.0,12.0,0.0,7.0,10.0,190.0,4.835999999999999,0,86.30000000000001,191.0,3.51,0,25.1,0.0,0.0,31.5,0.0,0.0,0.0,2.0,0.0,0.0,0.0,0,0,0,0,0,0,0.0,0.0,0.0,0.0,0.0,2.0,0,0,0,0,0,0,0,0,0,0,0,0,0,0,0,0,0,0,0,0,0,28.39,33.41,3.29,3.28,3.29,3.28,3.27,3.29,3.29,3.28,3.32,3.32,3.29,3.32,3.29,3.29,3.28,3.29,3.32,3.32,3.32,3.32,3.32,3.32,3.32,3.32,0,0,0,0,0,0,0,0,0,0,0,0,0,0,0,0,0,0,0,0,0,0,0,0,1248,0.0
1782566015193,1.02,0.01,-0.03,-1.05,-0.14,-5.39,0,0,0,0,3.3236,3.2723,25.6,79.16,17825600000.0,-19.8643,-43.9724,1.9,13.41,495.0,0.0,6.435,6.435,0.0,12.0,0.0,7.0,10.0,190.0,4.835999999999999,0,86.30000000000001,191.0,3.51,0,25.1,0.0,0.0,31.5,0.0,0.0,0.0,2.0,0.0,0.0,0.0,0,0,0,0,0,0,0.0,0.0,0.0,0.0,0.0,2.0,0,0,0,0,0,0,0,0,0,0,0,0,0,0,0,0,0,0,0,0,0,28.39,33.41,3.29,3.28,3.29,3.28,3.27,3.29,3.29,3.28,3.32,3.32,3.29,3.32,3.29,3.29,3.28,3.29,3.32,3.32,3.32,3.32,3.32,3.32,3.32,3.32,0,0,0,0,0,0,0,0,0,0,0,0,0,0,0,0,0,0,0,0,0,0,0,0,1265,0.0
1782566015210,1.01,0.02,-0.01,-1.05,-0.14,-5.39,0,0,0,0,3.3236,3.2723,25.6,79.16,17825600000.0,-19.8643,-43.9724,1.9,13.41,495.0,0.0,6.435,6.435,0.0,12.0,0.0,7.0,10.0,190.0,4.835999999999999,0,86.30000000000001,191.0,3.51,0,25.1,0.0,0.0,31.5,0.0,0.0,0.0,2.0,0.0,0.0,0.0,0,0,0,0,0,0,0.0,0.0,0.0,0.0,0.0,2.0,0,0,0,0,0,0,0,0,0,0,0,0,0,0,0,0,0,0,0,0,0,28.39,33.41,3.29,3.28,3.29,3.28,3.27,3.29,3.29,3.28,3.32,3.32,3.29,3.32,3.29,3.29,3.28,3.29,3.32,3.32,3.32,3.32,3.32,3.32,3.32,3.32,0,0,0,0,0,0,0,0,0,0,0,0,0,0,0,0,0,0,0,0,0,0,0,0,1282,0.0
1782566015226,1.01,0.02,-0.01,-1.12,0.63,-6.86,0,0,0,0,3.3236,3.2723,25.6,79.16,17825600000.0,-19.8643,-43.9724,1.9,13.41,495.0,0.0,6.435,6.435,0.0,12.0,0.0,7.0,10.0,190.0,4.835999999999999,0,86.30000000000001,191.0,3.51,0,25.1,0.0,0.0,31.5,0.0,0.0,0.0,2.0,0.0,0.0,0.0,0,0,0,0,0,0,0.0,0.0,0.0,0.0,0.0,2.0,0,0,0,0,0,0,0,0,0,0,0,0,0,0,0,0,0.0,0.0,0,0,0,28.39,33.41,3.29,3.28,3.29,3.28,3.27,3.29,3.29,3.28,3.32,3.32,3.29,3.32,3.29,3.29,3.28,3.29,3.32,3.32,3.32,3.32,3.32,3.32,3.32,3.32,0,0,0,0,0,0,0,0,0,0,0,0,0,0,0,0,0,0,0,0,0,0,0,0,1298,0.0
1782566015243,1.01,0.02,-0.01,-1.12,0.63,-6.86,0,0,0,0,3.3236,3.2723,25.6,79.16,17825600000.0,-19.8643,-43.9724,1.9,13.41,495.0,0.0,6.435,6.435,0.0,12.0,0.0,7.0,10.0,190.0,4.835999999999999,0,86.30000000000001,191.0,3.51,0,25.1,0.0,0.0,31.5,0.0,0.0,0.0,2.0,0.0,0.0,0.0,0,0,0,0,0,0,0.0,0.0,0.0,0.0,0.0,2.0,0,0,0,0,0,0,0,0,0,0,0,0,0,0,0,0,0.0,0.0,0.0,0.0,0.0,28.39,33.41,3.29,3.28,3.29,3.28,3.27,3.29,3.29,3.28,3.32,3.32,3.29,3.32,3.29,3.29,3.28,3.29,3.32,3.32,3.32,3.32,3.32,3.32,3.32,3.32,0,0,0,0,0,0,0,0,0,0,0,0,0,0,0,0,0,0,0,0,0,0,0,0,1315,0.0
1782566015260,1.01,0.02,-0.01,-1.12,0.63,-6.86,0,0,0,0,3.3236,3.2723,25.6,79.16,17825600000.0,-19.8643,-43.9724,1.9,13.41,495.0,0.0,6.435,6.435,0.0,12.0,0.0,7.0,10.0,190.0,4.835999999999999,0,86.30000000000001,191.0,3.51,0,25.1,0.0,0.0,31.5,0.0,0.0,0.0,2.0,0.0,0.0,0.0,0,0,0,0,0,0,0.0,0.0,0.0,0.0,0.0,2.0,0,0,0,0,0,0,0,0,0,0,0,0,0,0,0,0,0.0,0.0,0.0,0.0,0.0,28.39,33.41,3.29,3.28,3.29,3.28,3.27,3.29,3.29,3.28,3.32,3.32,3.29,3.32,3.29,3.29,3.28,3.29,3.32,3.32,3.32,3.32,3.32,3.32,3.32,3.32,0,0,0,0,0,0,0,0,0,0,0,0,0,0,0,0,0,0,0,0,0,0,0,0,1332,0.0
1782566015276,1.01,0.02,-0.01,-0.7,-0.07,-6.86,0,0,0,0,3.3236,3.2723,25.6,79.16,17825600000.0,-19.8643,-43.9724,1.9,13.41,495.0,0.0,6.435,6.435,0.0,12.0,0.0,7.0,10.0,190.0,4.835999999999999,0,86.30000000000001,191.0,3.51,0,25.1,0.0,0.0,31.5,0.0,0.0,0.0,2.0,0.0,0.0,0.0,0,0,0,0,0,0,0.0,0.0,0.0,0.0,0.0,2.0,0,0,0,0,0,0,0,0,0,0,0,0,0,0,0,0,0.0,0.0,0.0,0.0,0.0,28.39,33.41,3.29,3.28,3.29,3.28,3.27,3.29,3.29,3.28,3.32,3.32,3.29,3.32,3.29,3.29,3.28,3.29,3.32,3.32,3.32,3.32,3.32,3.32,3.32,3.32,0,0,0,0,0,0,0,0,0,0,0,0,0,0,0,0,0,0,0,0,0,0,0,0,1348,0.0
1782566015293,1.0,0.02,-0.01,-0.7,-0.07,-6.86,0,0,0,0,3.3236,3.2723,25.6,79.16,17825600000.0,-19.8643,-43.9724,1.9,13.41,495.0,0.0,6.435,6.435,0.0,12.0,0.0,7.0,10.0,190.0,4.835999999999999,0,86.30000000000001,191.0,3.51,0,25.1,0.0,0.0,31.5,0.0,0.0,0.0,2.0,0.0,0.0,0.0,0,0,0,0,0,0,0.0,0.0,0.0,0.0,0.0,2.0,0,0,0,0,0,0,0,0,0,0,0,0,0,0,0,0,0.0,0.0,0.0,0.0,0.0,28.39,33.41,3.29,3.28,3.29,3.28,3.27,3.29,3.29,3.28,3.32,3.32,3.29,3.32,3.29,3.29,3.28,3.29,3.32,3.32,3.32,3.32,3.32,3.32,3.32,3.32,0,0,0,0,0,0,0,0,0,0,0,0,0,0,0,0,0,0,0,0,0,0,0,0,1365,0.0
1782566015309,1.0,0.02,-0.01,-0.77,-0.28,-6.86,0,0,0,0,3.3236,3.2723,25.6,79.16,17825600000.0,-19.8643,-43.9724,1.9,13.41,495.0,0.0,6.435,6.435,0.0,12.0,0.0,7.0,10.0,190.0,4.835999999999999,0,86.30000000000001,191.0,3.51,0,25.1,0.0,0.0,31.5,0.0,0.0,0.0,2.0,0.0,0.0,0.0,0,0,0,0,0,0,0.0,0.0,0.0,0.0,0.0,2.0,0,0,0,0,0,0,0,0,0,0,0,0,0,0,0,0,0.0,0.0,0.0,0.0,0.0,28.39,33.41,3.29,3.28,3.29,3.28,3.27,3.29,3.29,3.28,3.32,3.32,3.29,3.32,3.29,3.29,3.28,3.29,3.32,3.32,3.32,3.32,3.32,3.32,3.32,3.32,0,0,0,0,0,0,0,0,0,0,0,0,0,0,0,0,0,0,0,0,0,0,0,0,1381,0.0
1782566015326,1.0,0.02,-0.01,-0.77,-0.28,-6.93,0,0,0,0,3.3236,3.2723,25.6,79.16,17825600000.0,-19.8643,-43.9724,1.9,13.41,495.0,0.0,6.435,6.435,0.0,12.0,0.0,7.0,10.0,190.0,4.835999999999999,0,86.30000000000001,191.0,3.51,0,25.1,0.0,0.0,31.5,0.0,0.0,0.0,2.0,0.0,0.0,0.0,0,0,0,0,0,0,0.0,0.0,0.0,0.0,0.0,2.0,0,0,0,0,0,0,0,0,0,0,0,0,0,0,0,0,0.0,0.0,0.0,0.0,0.0,28.39,33.41,3.29,3.28,3.29,3.28,3.27,3.29,3.29,3.28,3.32,3.32,3.29,3.32,3.29,3.29,3.28,3.29,3.32,3.32,3.32,3.32,3.32,3.32,3.32,3.32,0,0,0,0,0,0,0,0,0,0,0,0,0,0,0,0,0,0,0,0,0,0,0,0,1398,0.0
1782566015519,1.0,0.02,-0.01,-0.77,-0.28,-6.93,0,0,0,0,3.3236,3.2723,25.6,79.16,17825600000.0,-19.8643,-43.9724,1.9,13.41,495.0,0.0,6.435,6.435,0.0,12.0,0.0,7.0,10.0,190.0,4.835999999999999,0,86.30000000000001,191.0,3.51,0,25.1,0.0,0.0,31.5,0.0,0.0,0.0,2.0,0.0,0.0,0.0,0,0,0,0,0,0,0.0,0.0,0.0,0.0,0.0,2.0,0,0,0,0,0,0,0,0,0,0,0,0,0,0,0,0,0.0,0.0,0.0,0.0,0.0,28.39,33.41,3.29,3.28,3.29,3.28,3.27,3.28,3.29,3.28,3.32,3.32,3.29,3.32,3.29,3.29,3.28,3.29,3.32,3.32,3.32,3.32,3.32,3.32,3.32,3.32,0,0,0,0,0,0,0,0,0,0,0,0,0,0,0,0,0,0,0,0,0,0,0,0,1591,0.0
1782566015524,1.0066666666666666,0.036666666666666674,-0.02,-0.7,-0.10500000000000001,-7.0,0,0,0,0,3.3236,3.2723,25.6,79.16,17825600000.0,-19.8643,-43.9724,1.9,13.41,495.0,0.0,6.435,6.435,0.0,12.0,0.0,7.0,10.0,190.0,4.835999999999999,0,86.30000000000001,191.0,3.51,0,25.1,0.0,0.0,31.5,0.0,0.0,0.0,2.0,0.0,0.0,0.0,0,0,0,0,0,0,0.0,0.0,0.0,0.0,0.0,2.0,0,0,0,0,0,0,0,0,0,0,0,0,0,0,0,0,0.0,0.0,0.0,0.0,0.0,28.39,33.41,3.29,3.28,3.29,3.28,3.27,3.28,3.29,3.28,3.32,3.32,3.29,3.32,3.29,3.29,3.28,3.29,3.32,3.32,3.32,3.32,3.32,3.32,3.32,3.32,0,0,0,0,0,0,0,0,0,0,0,0,0,0,0,0,0,0,0,0,0,0,0,0,1596,0.0
1782566015542,1.02,0.02,-0.02,-0.49,0.49,-7.63,0,0,0,0,3.3236,3.2723,25.6,79.16,17825600000.0,-19.8643,-43.9724,1.9,13.41,495.0,0.0,6.435,6.435,0.0,12.0,0.0,7.0,10.0,190.0,4.835999999999999,0,86.30000000000001,191.0,3.51,0,25.1,0.0,0.0,31.5,0.0,0.0,0.0,2.0,1.0,0.0,0.0,0,0,0,0,0,0,0.0,0.0,0.0,0.0,0.0,2.0,0,0,0,0,0,0,0,0,0,0.0,0.0,1.0,0,0,0,0,0.0,0.0,0.0,0.0,0.0,28.39,33.41,3.29,3.28,3.29,3.28,3.27,3.28,3.29,3.28,3.32,3.32,3.29,3.32,3.29,3.29,3.28,3.29,3.32,3.32,3.32,3.32,3.32,3.32,3.32,3.32,0,0,0,0,0,0,0,0,0,0,0,0,0,0,0,0,0,0,0,0,0,0,0,0,1614,0.0
1782566015559,1.02,0.01,-0.02,-0.49,0.49,-7.63,0,0,0,0,3.3236,3.2723,25.6,79.16,17825600000.0,-19.8643,-43.9724,1.9,13.41,495.0,0.0,6.435,6.435,0.0,12.0,0.0,7.0,10.0,190.0,4.835999999999999,0,86.30000000000001,191.0,3.51,0,25.1,0.0,0.0,31.5,0.0,0.0,0.0,2.0,1.0,0.0,0.0,0,0,0,0,0,0,0.0,0.0,0.0,0.0,0.0,2.0,0,0,0,0,0,0,0,0,0,0.0,0.0,1.0,0,0,0,0,0.0,0.0,0.0,0.0,0.0,28.39,33.41,3.29,3.28,3.29,3.28,3.27,3.28,3.29,3.28,3.32,3.32,3.29,3.32,3.29,3.29,3.28,3.29,3.32,3.32,3.32,3.32,3.32,3.32,3.32,3.32,0,0,0,0,0,0,0,0,0,0,0,0,0,0,0,0,0,0,0,0,0,0,0,0,1631,0.0
1782566015575,1.02,0.01,-0.02,-0.49,0.49,-7.42,0,0,0,0,3.3236,3.2723,25.6,79.16,17825600000.0,-19.8643,-43.9724,1.9,13.41,495.0,0.0,6.435,6.435,0.0,12.0,0.0,7.0,10.0,190.0,4.835999999999999,0,86.30000000000001,191.0,3.51,0,25.1,0.0,0.0,31.5,0.0,0.0,0.0,2.0,1.0,0.0,0.0,0,0,0,0,0,0,0.0,0.0,0.0,0.0,0.0,2.0,0,0,0,0,0,0,0,0,0,0.0,0.0,1.0,0.0,5.0,0,0,0.0,0.0,0.0,0.0,0.0,28.39,33.41,3.29,3.28,3.29,3.28,3.27,3.28,3.29,3.28,3.32,3.32,3.29,3.32,3.29,3.29,3.28,3.29,3.32,3.32,3.32,3.32,3.32,3.32,3.32,3.32,0,0,0,0,0,0,0,0,0,0,0,0,0,0,0,0,0,0,0,0,0,0,0,0,1647,0.0
1782566015593,1.02,0.01,-0.02,-0.49,0.49,-7.42,0,0,0,0,3.3236,3.2723,25.6,79.16,17825600000.0,-19.8643,-43.9724,1.9,13.41,495.0,0.0,6.435,6.435,0.0,12.0,0.0,7.0,10.0,190.0,4.835999999999999,0,86.30000000000001,191.0,3.51,0,25.1,0.0,0.0,31.5,0.0,0.0,0.0,2.0,1.0,0.0,0.0,0,0,0,0,0,0,0.0,0.0,0.0,0.0,0.0,2.0,0,0,0,0,0,0,0,0,0,0.0,0.0,1.0,0.0,5.0,0.0,0,0.0,0.0,0.0,0.0,0.0,28.39,33.41,3.29,3.28,3.29,3.28,3.27,3.28,3.29,3.28,3.32,3.32,3.29,3.32,3.29,3.29,3.28,3.29,3.32,3.32,3.32,3.32,3.32,3.32,3.32,3.32,0,0,0,0,0,0,0,0,0,0,0,0,0,0,0,0,0,0,0,0,0,0,0,0,1665,0.0
1782566015609,1.02,0.01,-0.02,-0.49,0.49,-7.42,0,0,0,0,3.3236,3.2723,25.6,79.16,17825600000.0,-19.8643,-43.9724,1.9,13.41,495.0,0.0,6.435,6.435,0.0,12.0,0.0,7.0,10.0,190.0,4.835999999999999,0,86.30000000000001,191.0,3.51,0,25.1,0.0,0.0,31.5,0.0,0.0,0.0,2.0,1.0,0.0,0.0,0,0,0,0,0,0,0.0,0.0,0.0,0.0,0.0,2.0,0,0,0,0,0,0,0,0,0,0.0,0.0,1.0,0.0,5.0,0.0,0,0.0,0.0,0.0,0.0,0.0,28.39,33.41,3.29,3.28,3.29,3.28,3.27,3.28,3.29,3.28,3.32,3.32,3.29,3.32,3.29,3.29,3.28,3.29,3.32,3.32,3.32,3.32,3.32,3.32,3.32,3.32,0,0,0,0,0,0,0,0,0,0,0,0,0,0,0,0,0,0,0,0,0,0,0,0,1681,0.0
1782566015626,1.02,0.01,-0.02,-0.49,0.49,-7.42,0,0,0,0,3.3236,3.2723,25.6,79.16,17825600000.0,-19.8643,-43.9724,1.9,13.41,495.0,0.0,6.435,6.435,0.0,12.0,0.0,7.0,10.0,190.0,4.835999999999999,0,86.30000000000001,191.0,3.51,0,25.1,0.0,0.0,31.5,0.0,0.0,0.0,2.0,1.0,0.0,0.0,0,0,0,0,0,0,0.0,0.0,0.0,0.0,0.0,2.0,0,0,0,0,0,0,0,0,0,0.0,0.0,1.0,0.0,5.0,0.0,0,0.0,0.0,0.0,0.0,0.0,28.39,33.41,3.29,3.28,3.29,3.28,3.27,3.28,3.29,3.28,3.32,3.32,3.29,3.32,3.29,3.29,3.28,3.29,3.32,3.32,3.32,3.32,3.32,3.32,3.32,3.32,0,0,0,0,0,0,0,0,0,0,0,0,0,0,0,0,0,0,0,0,0,0,0,0,1698,0.0
1782566015642,1.02,0.01,-0.02,-0.63,0.49,-7.35,0,0,0,0,3.3236,3.2723,25.6,79.16,17825600000.0,-19.8643,-43.9724,1.9,13.41,495.0,0.0,6.435,6.435,0.0,12.0,0.0,7.0,10.0,190.0,4.835999999999999,0,86.30000000000001,191.0,3.51,0,25.1,0.0,0.0,31.5,0.0,0.0,0.0,2.0,1.0,0.0,0.0,0,0,0,0,0,0,0.0,0.0,0.0,0.0,0.0,2.0,0,0,0,0,0,0,0,0,0,0.0,0.0,1.0,0.0,5.0,0.0,0,0.0,0.0,0.0,0.0,0.0,28.39,33.41,3.29,3.28,3.29,3.28,3.27,3.28,3.29,3.28,3.32,3.32,3.29,3.32,3.29,3.29,3.28,3.29,3.32,3.32,3.32,3.32,3.32,3.32,3.32,3.32,0,0,0,0,0,0,0,0,0,0,0,0,0,0,0,0,0,0,0,0,0,0,0,0,1714,0.0
1782566015659,1.0,0.01,-0.01,-0.63,0.49,-7.35,0,0,0,0,3.3236,3.2723,25.6,79.16,17825600000.0,-19.8643,-43.9724,1.9,13.41,495.0,0.0,6.435,6.435,0.0,12.0,0.0,7.0,10.0,190.0,4.835999999999999,0,86.30000000000001,191.0,3.51,0,25.1,0.0,0.0,31.5,0.0,0.0,0.0,2.0,1.0,0.0,0.0,0,0,0,0,0,0,0.0,0.0,0.0,0.0,0.0,2.0,0,0,0,0,0,0,0,0,0,0.0,0.0,1.0,0.0,5.0,0.0,0,0.0,0.0,0.0,0.0,0.0,28.39,33.41,3.29,3.28,3.29,3.28,3.27,3.28,3.29,3.28,3.32,3.32,3.29,3.32,3.29,3.29,3.28,3.29,3.32,3.32,3.32,3.32,3.32,3.32,3.32,3.32,0,0,0,0,0,0,0,0,0,0,0,0,0,0,0,0,0,0,0,0,0,0,0,0,1731,0.0
1782566015676,1.0,0.01,-0.01,-0.63,0.49,-7.35,0,0,0,0,3.3236,3.2723,25.6,79.16,17825600000.0,-19.8643,-43.9724,1.9,13.41,495.0,0.0,6.435,6.435,0.0,12.0,0.0,7.0,10.0,190.0,4.835999999999999,0,86.30000000000001,191.0,3.51,0,25.1,0.0,0.0,31.5,0.0,0.0,0.0,2.0,1.0,0.0,0.0,0,0,0,0,0,0,0.0,0.0,0.0,0.0,0.0,2.0,0,0,0,0,0,0,0,0,0,0.0,0.0,1.0,0.0,5.0,0.0,0,0.0,0.0,0.0,0.0,0.0,28.39,33.41,3.29,3.28,3.29,3.28,3.27,3.28,3.29,3.28,3.32,3.32,3.29,3.32,3.29,3.29,3.28,3.29,3.32,3.32,3.32,3.32,3.32,3.32,3.32,3.32,0,0,0,0,0,0,0,0,0,0,0,0,0,0,0,0,0,0,0,0,0,0,0,0,1748,0.0
1782566015693,1.0,0.01,-0.01,-0.63,0.49,-7.35,0,0,0,0,3.3236,3.2723,25.6,79.16,17825600000.0,-19.8643,-43.9724,1.9,13.41,495.0,0.0,6.435,6.435,0.0,12.0,0.0,7.0,10.0,190.0,4.835999999999999,0,86.30000000000001,191.0,3.51,0,25.1,0.0,0.0,31.5,0.0,0.0,0.0,2.0,1.0,0.0,0.0,0,0,0,0,0,0,0.0,0.0,0.0,0.0,0.0,2.0,0,0,0,0,0,0,0,0,0,0.0,0.0,1.0,0.0,5.0,0.0,0,0.0,0.0,0.0,0.0,0.0,28.87,34.61,3.29,3.28,3.29,3.28,3.27,3.28,3.29,3.28,3.32,3.32,3.29,3.32,3.29,3.29,3.28,3.29,3.32,3.32,3.32,3.32,3.32,3.32,3.32,3.32,0,0,0,0,0,0,0,0,0,0,0,0,0,0,0,0,0,0,0,0,0,0,0,0,1765,0.0
1782566015709,1.02,0.01,-0.01,-0.84,0.49,-7.35,0,0,0,0,3.3236,3.2723,25.6,79.16,17825600000.0,-19.8643,-43.9724,1.9,13.41,495.0,0.0,6.435,6.435,0.0,12.0,0.0,7.0,10.0,190.0,4.835999999999999,0,86.30000000000001,191.0,3.51,0,25.1,0.0,0.0,31.5,0.0,0.0,0.0,2.0,1.0,0.0,0.0,0,0,0,0,0,0,0.0,0.0,0.0,0.0,0.0,2.0,0,0,0,0,0,0,0,0,0,0.0,0.0,1.0,0.0,5.0,0.0,0,0.0,0.0,0.0,0.0,0.0,28.87,34.61,3.29,3.28,3.29,3.28,3.27,3.28,3.29,3.28,3.32,3.32,3.29,3.32,3.29,3.29,3.28,3.29,3.32,3.32,3.32,3.32,3.32,3.32,3.32,3.32,0,0,0,0,0,0,0,0,0,0,0,0,0,0,0,0,0,0,0,0,0,0,0,0,1781,0.0
1782566015726,1.02,0.01,-0.01,-0.84,0.49,-7.35,0,0,0,0,3.3236,3.2723,25.6,79.16,17825600000.0,-19.8643,-43.9724,1.9,13.41,495.0,0.0,6.435,6.435,0.0,12.0,0.0,7.0,10.0,190.0,4.835999999999999,0,86.30000000000001,191.0,3.51,0,25.1,0.0,0.0,31.5,0.0,0.0,0.0,2.0,1.0,0.0,0.0,0,0,0,0,0,0,0.0,0.0,0.0,0.0,0.0,2.0,0,0,0,0,0,0,0,0,0,0.0,0.0,1.0,0.0,5.0,0.0,0,0.0,0.0,0.0,0.0,0.0,28.87,34.61,3.29,3.28,3.29,3.28,3.27,3.28,3.29,3.28,3.32,3.32,3.29,3.32,3.29,3.29,3.28,3.29,3.32,3.32,3.32,3.32,3.32,3.32,3.32,3.32,0,0,0,0,0,0,0,0,0,0,0,0,0,0,0,0,0,0,0,0,0,0,0,0,1798,0.0
1782566015742,1.02,-0.01,-0.01,-0.84,0.49,-7.35,0,0,0,0,3.3236,3.2723,25.6,79.16,17825600000.0,-19.8643,-43.9724,1.9,13.41,495.0,0.0,6.435,6.435,0.0,12.0,0.0,7.0,10.0,190.0,4.835999999999999,0,86.30000000000001,191.0,3.51,0,25.1,0.0,0.0,31.5,0.0,0.0,0.0,2.0,1.0,0.0,0.0,0,0,0,0,0,0,0.0,0.0,0.0,0.0,0.0,2.0,0,0,0,0,0,0,0,0,0,0.0,0.0,1.0,0.0,5.0,0.0,0,0.0,0.0,0.0,0.0,0.0,28.87,34.61,3.29,3.28,3.29,3.28,3.27,3.28,3.29,3.28,3.32,3.32,3.29,3.32,3.29,3.29,3.28,3.29,3.32,3.32,3.32,3.32,3.32,3.32,3.32,3.32,0,0,0,0,0,0,0,0,0,0,0,0,0,0,0,0,0,0,0,0,0,0,0,0,1814,0.0
1782566015743,1.02,-0.01,-0.01,-0.91,-0.7,-8.05,0,0,0,0,3.3236,3.2723,25.6,79.16,17825600000.0,-19.8643,-43.9724,1.9,13.41,495.0,0.0,6.435,6.435,0.0,12.0,0.0,7.0,10.0,190.0,4.835999999999999,0,86.30000000000001,191.0,3.51,0,25.1,0.0,0.0,31.5,0.0,0.0,0.0,2.0,1.0,0.0,0.0,0,0,0,0,0,0,0.0,0.0,0.0,0.0,0.0,2.0,0,0,0,0,0,0,0,0,0,0.0,0.0,1.0,0.0,5.0,0.0,0,0.0,0.0,0.0,0.0,0.0,28.87,34.61,3.29,3.28,3.29,3.28,3.27,3.28,3.29,3.28,3.32,3.32,3.29,3.32,3.29,3.29,3.28,3.29,3.32,3.32,3.32,3.32,3.32,3.32,3.32,3.32,0,0,0,0,0,0,0,0,0,0,0,0,0,0,0,0,0,0,0,0,0,0,0,0,1815,0.0
1782566015775,1.02,-0.01,-0.0,-0.91,-0.7,-8.05,0,0,0,0,3.3236,3.2723,25.6,79.16,17825600000.0,-19.8643,-43.9724,1.9,13.41,495.0,0.0,6.435,6.435,0.0,12.0,0.0,7.0,10.0,190.0,4.835999999999999,0,86.30000000000001,191.0,3.51,0,25.1,0.0,0.0,31.5,0.0,0.0,0.0,2.0,1.0,0.0,0.0,0,0,0,0,0,0,0.0,0.0,0.0,0.0,0.0,2.0,0,0,0,0,0,0,0,0,0,0.0,0.0,1.0,0.0,5.0,0.0,0,0.0,0.0,0.0,0.0,0.0,28.87,34.61,3.29,3.28,3.29,3.28,3.27,3.28,3.29,3.28,3.32,3.32,3.29,3.32,3.29,3.29,3.28,3.29,3.32,3.32,3.32,3.32,3.32,3.32,3.32,3.32,0,0,0,0,0,0,0,0,0,0,0,0,0,0,0,0,0,0,0,0,0,0,0,0,1847,0.0
1782566015792,1.02,-0.01,-0.0,-0.77,-0.7,-8.05,0,0,0,0,3.3236,3.2723,25.6,79.16,17825600000.0,-19.8643,-43.9724,1.9,13.41,495.0,0.0,6.435,6.435,0.0,12.0,0.0,7.0,10.0,190.0,4.835999999999999,0,86.30000000000001,191.0,3.51,0,25.1,0.0,0.0,31.5,0.0,0.0,0.0,2.0,1.0,0.0,0.0,0,0,0,0,0,0,0.0,0.0,0.0,0.0,0.0,2.0,0,0,0,0,0,0,0,0,0,0.0,0.0,1.0,0.0,5.0,0.0,0,0.0,0.0,0.0,0.0,0.0,28.87,34.61,3.29,3.28,3.29,3.28,3.27,3.28,3.29,3.28,3.32,3.32,3.29,3.32,3.29,3.29,3.28,3.29,3.32,3.32,3.32,3.32,3.32,3.32,3.32,3.32,0,0,0,0,0,0,0,0,0,0,0,0,0,0,0,0,0,0,0,0,0,0,0,0,1864,0.0
1782566015809,1.02,-0.01,-0.0,-0.77,-0.7,-8.05,0,0,0,0,3.3236,3.2723,25.6,79.16,17825600000.0,-19.8643,-43.9724,1.9,13.41,495.0,0.0,6.435,6.435,0.0,12.0,0.0,7.0,10.0,190.0,4.835999999999999,0,86.30000000000001,183.0,5.226,0,87.0,0.0,0.0,31.5,0.0,0.0,0.0,2.0,1.0,0.0,0.0,0,0,0,0,0,0,0.0,0.0,0.0,0.0,0.0,2.0,0,0,0,0,0,0,0,0,0,0.0,0.0,1.0,0.0,5.0,0.0,0,0.0,0.0,0.0,0.0,0.0,28.87,34.61,3.29,3.28,3.29,3.28,3.27,3.28,3.29,3.28,3.32,3.32,3.29,3.32,3.29,3.29,3.28,3.29,3.32,3.32,3.32,3.32,3.32,3.32,3.32,3.32,0,0,0,0,0,0,0,0,0,0,0,0,0,0,0,0,0,0,0,0,0,0,0,0,1881,0.0
1782566015826,1.02,-0.01,-0.0,-0.77,-0.7,-8.05,0,0,0,0,3.3236,3.2723,25.6,79.16,17825600000.0,-19.8643,-43.9724,1.9,13.41,495.0,0.0,6.435,6.435,0.0,12.0,0.0,7.0,10.0,190.0,4.835999999999999,0,86.30000000000001,183.0,5.226,0,87.0,0.0,0.0,32.5,0.0,0.0,0.0,2.0,1.0,0.0,0.0,0,0,0,0,0,0,0.0,0.0,0.0,0.0,0.0,2.0,0,0,0,0,0,0,0,0,0,0.0,0.0,1.0,0.0,5.0,0.0,0,0.0,0.0,0.0,0.0,0.0,28.87,34.61,3.29,3.28,3.29,3.28,3.27,3.28,3.29,3.28,3.32,3.32,3.29,3.32,3.29,3.29,3.28,3.29,3.32,3.32,3.32,3.32,3.32,3.32,3.32,3.32,0,0,0,0,0,0,0,0,0,0,0,0,0,0,0,0,0,0,0,0,0,0,0,0,1898,0.0
1782566015842,1.02,-0.01,-0.01,-0.77,-0.7,-8.05,0,0,0,0,3.3236,3.2723,25.6,79.16,17825600000.0,-19.8643,-43.9724,1.9,13.41,495.0,0.0,6.435,6.435,0.0,12.0,0.0,7.0,10.0,190.0,4.835999999999999,0,86.30000000000001,183.0,5.226,0,87.0,0.0,0.0,32.5,0.0,0.0,0.0,2.0,1.0,0.0,0.0,0,0,0,0,0,0,0.0,0.0,0.0,0.0,0.0,2.0,0,0,0,0,0,0,0,0,0,0.0,0.0,1.0,0.0,5.0,0.0,0,0.0,0.0,0.0,0.0,0.0,28.87,34.61,3.29,3.28,3.29,3.28,3.27,3.28,3.29,3.28,3.32,3.32,3.29,3.32,3.29,3.29,3.28,3.29,3.32,3.32,3.32,3.32,3.32,3.32,3.32,3.32,0,0,0,0,0,0,0,0,0,0,0,0,0,0,0,0,0,0,0,0,0,0,0,0,1914,0.0
1782566015859,1.02,-0.01,-0.01,-0.77,-0.7,-8.05,0,0,0,0,3.3236,3.2723,25.6,79.16,17825600000.0,-19.8643,-43.9724,1.9,13.41,495.0,0.0,6.435,6.435,0.0,12.0,0.0,7.0,10.0,190.0,4.835999999999999,0,86.30000000000001,183.0,5.226,0,87.0,0.0,0.0,32.5,0.0,0.0,0.0,2.0,1.0,0.0,0.0,0,0,0,0,0,0,0.0,0.0,0.0,0.0,0.0,2.0,0,0,0,0,0,0,0,0,0,0.0,0.0,1.0,0.0,5.0,0.0,0,0.0,0.0,0.0,0.0,0.0,28.87,34.61,3.29,3.28,3.29,3.28,3.27,3.28,3.29,3.28,3.32,3.32,3.29,3.32,3.29,3.29,3.28,3.29,3.32,3.32,3.32,3.32,3.32,3.32,3.32,3.32,0,0,0,0,0,0,0,0,0,0,0,0,0,0,0,0,0,0,0,0,0,0,0,0,1931,0.0
1782566015876,1.02,-0.01,-0.01,-0.77,-0.7,-8.05,0,0,0,0,3.3236,3.2723,25.6,79.16,17825600000.0,-19.8643,-43.9724,1.9,13.41,495.0,0.0,6.435,6.435,0.0,12.0,0.0,7.0,10.0,190.0,4.835999999999999,0,86.30000000000001,183.0,5.226,0,87.0,0.0,0.0,32.5,0.0,0.0,0.0,2.0,1.0,0.0,0.0,0,0,0,0,0,0,0.0,0.0,0.0,0.0,0.0,2.0,0,0,0,0,0,0,0,0,0,0.0,0.0,1.0,0.0,5.0,0.0,0,0.0,0.0,0.0,0.0,0.0,28.87,34.61,3.29,3.28,3.29,3.28,3.27,3.28,3.29,3.28,3.32,3.32,3.29,3.32,3.29,3.29,3.28,3.29,3.32,3.32,3.32,3.32,3.32,3.32,3.32,3.32,0,0,0,0,0,0,0,0,0,0,0,0,0,0,0,0,0,0,0,0,0,0,0,0,1948,0.0
1782566015892,1.02,-0.01,-0.01,-0.7,-0.56,-8.05,0,0,0,0,3.3236,3.2723,25.6,79.16,17825600000.0,-19.8643,-43.9724,1.9,13.41,495.0,0.0,6.435,6.435,0.0,12.0,0.0,7.0,10.0,190.0,4.835999999999999,0,86.30000000000001,183.0,5.226,0,87.0,0.0,0.0,32.5,0.0,0.0,0.0,2.0,1.0,0.0,0.0,0,0,0,0,0,0,0.0,0.0,0.0,0.0,0.0,2.0,0,0,0,0,0,0,0,0,0,0.0,0.0,1.0,0.0,5.0,0.0,0,0.0,0.0,0.0,0.0,0.0,28.87,34.61,3.29,3.28,3.29,3.28,3.27,3.28,3.29,3.28,3.32,3.32,3.29,3.32,3.29,3.29,3.28,3.29,3.32,3.32,3.32,3.32,3.32,3.32,3.32,3.32,0,0,0,0,0,0,0,0,0,0,0,0,0,0,0,0,0,0,0,0,0,0,0,0,1964,0.0
1782566015909,1.02,0.0,-0.01,-0.7,-0.56,-8.05,0,0,0,0,3.3236,3.2723,25.6,79.16,17825600000.0,-19.8643,-43.9724,1.9,13.41,495.0,0.0,6.435,6.435,0.0,12.0,0.0,7.0,10.0,190.0,4.835999999999999,0,86.30000000000001,183.0,5.226,0,87.0,0.0,0.0,32.5,0.0,0.0,0.0,2.0,1.0,0.0,0.0,0,0,0,0,0,0,0.0,0.0,0.0,0.0,0.0,2.0,0,0,0,0,0,0,0,0,0,0.0,0.0,1.0,0.0,5.0,0.0,0,0.0,0.0,0.0,0.0,0.0,28.87,34.61,3.29,3.28,3.29,3.28,3.27,3.28,3.29,3.28,3.32,3.32,3.29,3.32,3.29,3.29,3.28,3.29,3.32,3.32,3.32,3.32,3.32,3.32,3.32,3.32,0,0,0,0,0,0,0,0,0,0,0,0,0,0,0,0,0,0,0,0,0,0,0,0,1981,0.0
1782566015942,1.02,0.01,-0.01,-0.7,-0.56,-8.05,0,0,0,0,3.3236,3.2723,25.6,79.16,17825600000.0,-19.8643,-43.9724,1.9,13.41,495.0,0.0,6.435,6.435,0.0,12.0,0.0,7.0,10.0,190.0,4.835999999999999,0,86.30000000000001,183.0,5.226,0,87.0,0.0,0.0,32.5,0.0,0.0,0.0,2.0,1.0,0.0,0.0,0,0,0,0,0,0,0.0,0.0,0.0,0.0,0.0,2.0,0,0,0,0,0,0,0,0,0,0.0,0.0,1.0,0.0,5.0,0.0,0,0.0,0.0,0.0,0.0,0.0,28.87,34.61,3.29,3.28,3.29,3.28,3.27,3.28,3.29,3.28,3.32,3.32,3.29,3.32,3.29,3.29,3.28,3.29,3.32,3.32,3.32,3.32,3.32,3.32,3.32,3.32,0,0,0,0,0,0,0,0,0,0,0,0,0,0,0,0,0,0,0,0,0,0,0,0,2014,0.0
1782566015959,1.02,0.01,-0.01,-0.56,-0.56,-8.19,0,0,0,0,3.3236,3.2723,25.6,79.16,17825600000.0,-19.8643,-43.9724,1.9,13.41,495.0,0.0,6.435,6.435,0.0,12.0,0.0,7.0,10.0,190.0,4.835999999999999,0,86.30000000000001,183.0,5.226,0,87.0,0.0,0.0,32.5,0.0,0.0,0.0,2.0,1.0,0.0,0.0,0,0,0,0,0,0,0.0,0.0,0.0,0.0,0.0,2.0,0,0,0,0,0,0,0,0,0,0.0,0.0,1.0,0.0,5.0,0.0,0,0.0,0.0,0.0,0.0,0.0,28.87,34.61,3.29,3.28,3.29,3.28,3.27,3.28,3.29,3.28,3.32,3.32,3.29,3.32,3.29,3.29,3.28,3.29,3.32,3.32,3.32,3.32,3.32,3.32,3.32,3.32,0,0,0,0,0,0,0,0,0,0,0,0,0,0,0,0,0,0,0,0,0,0,0,0,2031,0.0
1782566015975,1.02,0.01,-0.01,-0.56,-0.56,-8.19,0,0,0,0,3.3236,3.2723,25.6,79.16,17825600000.0,-19.8643,-43.9724,1.9,13.41,495.0,0.0,6.435,6.435,0.0,12.0,0.0,7.0,10.0,190.0,4.835999999999999,0,86.30000000000001,183.0,5.226,0,87.0,0.0,0.0,32.5,0.0,0.0,0.0,2.0,1.0,0.0,0.0,0,0,0,0,0,0,0.0,0.0,0.0,0.0,0.0,2.0,0,0,0,0,0,0,0,0,0,0.0,0.0,1.0,0.0,5.0,0.0,0,0.0,0.0,0.0,0.0,0.0,28.87,34.61,3.29,3.28,3.29,3.28,3.27,3.28,3.29,3.28,3.32,3.32,3.29,3.32,3.29,3.29,3.28,3.29,3.32,3.32,3.32,3.32,3.32,3.32,3.32,3.32,0,0,0,0,0,0,0,0,0,0,0,0,0,0,0,0,0,0,0,0,0,0,0,0,2047,0.0
1782566015992,1.0,0.01,-0.0,-0.56,-0.56,-8.19,0,0,0,0,3.3236,3.2723,25.6,79.16,17825600000.0,-19.8643,-43.9724,1.9,13.41,495.0,0.0,6.435,6.435,0.0,12.0,0.0,7.0,10.0,190.0,4.835999999999999,0,86.30000000000001,183.0,5.226,0,87.0,0.0,0.0,32.5,0.0,0.0,0.0,2.0,1.0,0.0,0.0,0,0,0,0,0,0,0.0,0.0,0.0,0.0,0.0,2.0,0,0,0,0,0,0,0,0,0,0.0,0.0,1.0,0.0,5.0,0.0,0,0.0,0.0,0.0,0.0,0.0,28.87,34.61,3.29,3.28,3.29,3.28,3.27,3.28,3.29,3.28,3.32,3.32,3.29,3.32,3.29,3.29,3.28,3.29,3.32,3.32,3.32,3.32,3.32,3.32,3.32,3.32,0,0,0,0,0,0,0,0,0,0,0,0,0,0,0,0,0,0,0,0,0,0,0,0,2064,0.0
1782566016009,1.0,0.01,-0.0,-0.56,-0.56,-8.19,0,0,0,0,3.3236,3.2723,25.6,79.16,17825600000.0,-19.8643,-43.9724,1.9,13.41,495.0,0.0,2.4699999999999998,2.4699999999999998,0.0,12.0,0.0,7.0,10.0,190.0,4.835999999999999,0,86.30000000000001,183.0,5.226,0,87.0,0.0,0.0,32.5,0.0,0.0,0.0,2.0,1.0,0.0,0.0,0,0,0,0,0,0,0.0,0.0,0.0,0.0,0.0,2.0,0,0,0,0,0,0,0,0,0,0.0,0.0,1.0,0.0,5.0,0.0,0,0.0,0.0,0.0,0.0,0.0,28.87,34.61,3.29,3.28,3.29,3.28,3.27,3.28,3.29,3.28,3.32,3.32,3.29,3.32,3.29,3.29,3.28,3.29,3.32,3.32,3.32,3.32,3.32,3.32,3.32,3.32,0,0,0,0,0,0,0,0,0,0,0,0,0,0,0,0,0,0,0,0,0,0,0,0,2081,0.0
1782566016026,1.0,0.01,-0.0,-0.56,-0.56,-8.19,0,0,0,0,3.3236,3.2723,25.6,79.16,17825600000.0,-19.8643,-43.9724,1.9,13.41,495.0,0.0,2.4699999999999998,2.4699999999999998,0.0,34.0,28.0,29.0,25.0,190.0,4.835999999999999,0,86.30000000000001,183.0,5.226,0,87.0,0.0,0.0,32.5,0.0,0.0,0.0,2.0,1.0,0.0,0.0,0,0,0,0,0,0,0.0,0.0,0.0,0.0,0.0,2.0,0,0,0,0,0,0,0,0,0,0.0,0.0,1.0,0.0,5.0,0.0,0,0.0,0.0,0.0,0.0,0.0,28.87,34.61,3.29,3.28,3.29,3.28,3.27,3.28,3.29,3.28,3.32,3.32,3.29,3.32,3.29,3.29,3.28,3.29,3.32,3.32,3.32,3.32,3.32,3.32,3.32,3.32,0,0,0,0,0,0,0,0,0,0,0,0,0,0,0,0,0,0,0,0,0,0,0,0,2098,0.0
1782566016042,1.02,0.13,-0.03,-0.56,-0.56,-8.19,0,0,0,0,3.3236,3.2723,25.6,79.16,17825600000.0,-19.8643,-43.9724,1.9,13.41,495.0,0.0,2.4699999999999998,2.4699999999999998,0.0,34.0,28.0,29.0,25.0,250.0,5.135,0,86.30000000000001,183.0,5.226,0,87.0,0.0,0.0,32.5,0.0,0.0,0.0,2.0,1.0,0.0,0.0,0,0,0,0,0,0,0.0,0.0,0.0,0.0,0.0,2.0,0,0,0,0,0,0,0,0,0,0.0,0.0,1.0,0.0,5.0,0.0,0,0.0,0.0,0.0,0.0,0.0,28.87,34.61,3.29,3.28,3.29,3.28,3.27,3.28,3.29,3.28,3.32,3.32,3.29,3.32,3.29,3.29,3.28,3.29,3.32,3.32,3.32,3.32,3.32,3.32,3.32,3.32,0,0,0,0,0,0,0,0,0,0,0,0,0,0,0,0,0,0,0,0,0,0,0,0,2114,0.0
1782566016059,1.02,0.13,-0.03,-1.12,-0.7,-9.1,0,0,0,0,3.3236,3.2723,25.6,79.16,17825600000.0,-19.8643,-43.9724,1.9,13.41,495.0,0.0,2.4699999999999998,2.4699999999999998,0.0,34.0,28.0,29.0,25.0,250.0,5.135,0,87.30000000000001,183.0,5.226,0,87.0,0.0,0.0,32.5,0.0,0.0,0.0,2.0,1.0,0.0,0.0,0,0,0,0,0,0,0.0,0.0,0.0,0.0,0.0,2.0,0,0,0,0,0,0,0,0,0,0.0,0.0,1.0,0.0,5.0,0.0,0,0.0,0.0,0.0,0.0,0.0,28.87,34.61,3.29,3.28,3.29,3.28,3.27,3.28,3.29,3.28,3.32,3.32,3.29,3.32,3.29,3.29,3.28,3.29,3.32,3.32,3.32,3.32,3.32,3.32,3.32,3.32,0,0,0,0,0,0,0,0,0,0,0,0,0,0,0,0,0,0,0,0,0,0,0,0,2131,0.0
