timestamp,THROTTLE,BRAKE,ECU_MODE_ID,TORQUE_GAIN,TORQUE_REF_LEFT_MOTOR,TORQUE_REF_RIGHT_MOTOR,LEFT_MOTOR_RPM,LEFT_MOTOR_TORQUE,LEFT_MOTOR_CURRENT,RIGHT_MOTOR_RPM,RIGHT_MOTOR_TORQUE,RIGHT_MOTOR_CURRENT,REAR_LEFT_WHEEL_SPEED,REAR_RIGHT_WHEEL_SPEED,FRONT_LEFT_WHEEL_SPEED,FRONT_RIGHT_WHEEL_SPEED,ACCEL_LONGITUDINAL,ACCEL_LATERAL,ACCEL_NORMAL,VEL_ANGULAR_YAW,VEL_ANGULAR_PITCH,VEL_ANGULAR_ROLL,ELETROBUILD_TEMPERATURE,STACK_1_CELL_1,STACK_1_CELL_2,STACK_1_CELL_3,STACK_1_CELL_4,STACK_2_CELL_1,STACK_2_CELL_2,STACK_2_CELL_3,STACK_2_CELL_4,STACK_3_CELL_1,STACK_3_CELL_2,STACK_3_CELL_3,STACK_3_CELL_4,STACK_4_CELL_1,STACK_4_CELL_2,STACK_4_CELL_3,STACK_4_CELL_4,STACK_5_CELL_1,STACK_5_CELL_2,STACK_5_CELL_3,STACK_5_CELL_4,STACK_6_CELL_1,STACK_6_CELL_2,STACK_6_CELL_3,STACK_6_CELL_4,MAX_VOLTAGE,MIN_VOLTAGE,SHUNT_CURRENT,BMS_MODE_ID,BMS_ERROR_ID,AIR_P,AIR_N,t,VEHICLE_SPEED,TOTAL_VOLTAGE,HODOMETRO
1765226025030,132.0,0.0,1.0,10.0,129.0,129.0,1.0,0.013,0.1,0.0,0.0,0.0,1.0,1.0,0.0,0.0,0.0017079999999999999,-0.00183,0.998814,-0.56,0.28,0.0,31.07421875,3.27,3.32,3.24,3.26,3.26,3.27,3.27,3.27,3.29,3.29,3.29,3.29,3.26,3.27,3.26,3.29,3.28,3.27,3.27,3.27,3.3,3.3,3.29,3.28,3.32,3.24,45.0,1.0,0.0,1.0,1.0,7520004,0.0055200642857142854,78.66000000000001,1975.6641435763727
1765226025049,132.0,0.0,1.0,10.0,129.0,129.0,1.0,0.013,0.1,0.0,0.0,0.0,1.0,1.0,0.0,0.0,-0.01464,0.0050019999999999995,0.988932,-0.56,0.28,0.0,31.07421875,3.27,3.32,3.24,3.26,3.26,3.27,3.27,3.27,3.29,3.29,3.29,3.29,3.26,3.27,3.26,3.29,3.28,3.27,3.27,3.27,3.3,3.3,3.29,3.28,3.32,3.24,45.0,1.0,0.0,1.0,1.0,7520023,0.0055200642857142854,78.66000000000001,1975.6641727100452
1765226025081,132.0,0.0,1.0,10.0,129.0,129.0,1.0,0.013,0.1,0.0,0.0,0.0,1.0,1.0,0.0,0.0,-0.01464,0.0050019999999999995,0.988932,-0.77,0.42000000000000004,-0.07,31.07421875,3.27,3.32,3.24,3.26,3.26,3.27,3.27,3.27,3.29,3.29,3.29,3.29,3.26,3.27,3.26,3.29,3.28,3.27,3.27,3.27,3.3,3.3,3.29,3.28,3.32,3.24,45.0,1.0,0.0,1.0,1.0,7520055,0.0055200642857142854,78.66000000000001,1975.6642217772833
1765226025097,0.0,0.0,1.0,10.0,129.0,129.0,1.0,0.013,0.1,0.0,0.0,0.0,1.0,1.0,0.0,0.0,-0.01464,0.0050019999999999995,0.988932,-0.77,0.42000000000000004,-0.07,31.08984375,3.27,3.32,3.24,3.26,3.26,3.27,3.27,3.27,3.29,3.29,3.29,3.29,3.26,3.27,3.26,3.29,3.28,3.27,3.27,3.27,3.3,3.3,3.29,3.28,3.32,3.24,45.0,1.0,0.0,1.0,1.0,7520071,0.0055200642857142854,78.66000000000001,1975.6642463109024
1765226025113,0.0,0.0,2.0,25.0,129.0,129.0,1.0,0.013,0.1,0.0,0.0,0.0,1.0,1.0,0.0,0.0,-0.01464,0.0050019999999999995,0.988932,-0.77,0.42000000000000004,-0.07,31.08984375,3.27,3.32,3.24,3.26,3.26,3.27,3.27,3.27,3.29,3.29,3.29,3.29,3.26,3.27,3.26,3.29,3.28,3.27,3.27,3.27,3.3,3.3,3.29,3.28,3.32,3.24,45.0,1.0,0.0,1.0,1.0,7520087,0.0055200642857142854,78.66000000000001,1975.6642708445215
1765226025128,0.0,0.0,2.0,25.0,0.0,0.0,1.0,0.013,0.1,0.0,0.0,0.0,1.0,1.0,0.0,0.0,-0.01464,0.0050019999999999995,0.988932,-0.77,0.42000000000000004,-0.07,31.08984375,3.27,3.32,3.24,3.26,3.26,3.27,3.27,3.27,3.29,3.29,3.29,3.29,3.26,3.27,3.26,3.29,3.28,3.27,3.27,3.27,3.3,3.3,3.29,3.28,3.32,3.24,45.0,1.0,0.0,1.0,1.0,7520102,0.0055200642857142854,78.66000000000001,1975.6642938447894
1765226025145,0.0,0.0,2.0,25.0,0.0,0.0,1.0,0.013,0.1,0.0,0.0,0.0,0.0,0.0,0.0,0.0,-0.01464,0.0050019999999999995,0.988932,-0.77,0.42000000000000004,-0.07,31.08984375,3.27,3.32,3.24,3.26,3.26,3.27,3.27,3.27,3.29,3.29,3.29,3.29,3.26,3.27,3.26,3.29,3.28,3.27,3.27,3.27,3.3,3.3,3.29,3.28,3.32,3.24,45.0,1.0,0.0,1.0,1.0,7520119,0.0055200642857142854,78.66000000000001,1975.6643199117598
1765226025179,0.0,0.0,2.0,25.0,0.0,0.0,0.0,0.0,0.0,0.0,0.0,0.0,0.0,0.0,0.0,0.0,-0.01464,0.0050019999999999995,0.988932,-0.77,0.42000000000000004,-0.07,31.08984375,3.29,3.32,3.28,3.28,3.26,3.27,3.27,3.27,3.29,3.29,3.29,3.29,3.26,3.27,3.26,3.29,3.28,3.27,3.27,3.27,3.3,3.3,3.29,3.28,3.32,3.24,45.0,1.0,0.0,1.0,1.0,7520153,0.0,78.74000000000001,1975.6643459787301
1765226025216,0.0,0.0,2.0,25.0,0.0,0.0,0.0,0.0,0.0,0.0,0.0,0.0,0.0,0.0,0.0,0.0,-0.01464,0.0050019999999999995,0.988932,-0.77,0.42000000000000004,-0.07,31.08984375,3.29,3.32,3.28,3.28,3.28,3.28,3.28,3.28,3.29,3.29,3.29,3.29,3.26,3.27,3.26,3.29,3.28,3.27,3.27,3.27,3.3,3.3,3.29,3.28,3.32,3.24,45.0,1.0,0.0,1.0,1.0,7520190,0.0,78.79,1975.6643459787301
1765226025229,0.0,0.0,2.0,25.0,0.0,0.0,0.0,0.0,0.0,0.0,0.0,0.0,0.0,0.0,0.0,0.0,-0.01464,0.0050019999999999995,0.988932,-0.77,0.42000000000000004,-0.07,31.08984375,3.29,3.32,3.28,3.28,3.28,3.28,3.28,3.28,3.31,3.31,3.31,3.31,3.26,3.27,3.26,3.29,3.28,3.27,3.27,3.27,3.3,3.3,3.29,3.28,3.32,3.24,45.0,1.0,0.0,1.0,1.0,7520203,0.0,78.87000000000002,1975.6643459787301
1765226025262,0.0,0.0,2.0,25.0,0.0,0.0,0.0,0.0,0.0,0.0,0.0,0.0,0.0,0.0,0.0,0.0,-0.01464,0.0050019999999999995,0.988932,-0.77,0.42000000000000004,-0.07,31.08984375,3.29,3.32,3.28,3.28,3.28,3.28,3.28,3.28,3.31,3.31,3.31,3.31,3.26,3.27,3.26,3.29,3.28,3.27,3.27,3.27,3.3,3.3,3.29,3.28,3.32,3.24,45.0,1.0,0.0,1.0,1.0,7520236,0.0,78.87000000000002,1975.6643459787301
1765226025278,0.0,0.0,2.0,25.0,0.0,0.0,0.0,0.0,0.0,0.0,0.0,0.0,0.0,0.0,0.0,0.0,-0.01464,0.0050019999999999995,0.988932,-0.77,0.42000000000000004,-0.07,31.08984375,3.29,3.32,3.28,3.28,3.28,3.28,3.28,3.28,3.31,3.31,3.31,3.31,3.28,3.28,3.28,3.29,3.28,3.27,3.27,3.27,3.3,3.3,3.29,3.28,3.32,3.24,45.0,1.0,0.0,1.0,1.0,7520252,0.0,78.92000000000002,1975.6643459787301
1765226025295,0.0,0.0,2.0,25.0,0.0,0.0,0.0,0.0,0.0,0.0,0.0,0.0,0.0,0.0,0.0,0.0,-0.01464,0.0050019999999999995,0.988932,-0.77,0.42000000000000004,-0.07,31.08984375,3.29,3.32,3.28,3.28,3.28,3.28,3.28,3.28,3.31,3.31,3.31,3.31,3.28,3.28,3.28,3.29,3.29,3.29,3.29,3.28,3.3,3.3,3.29,3.28,3.32,3.24,45.0,1.0,0.0,1.0,1.0,7520269,0.0,78.98,1975.6643459787301
1765226025312,0.0,0.0,2.0,25.0,0.0,0.0,0.0,0.0,0.0,0.0,0.0,0.0,0.0,0.0,0.0,0.0,-0.01464,0.0050019999999999995,0.988932,-0.77,0.42000000000000004,-0.07,31.08984375,3.29,3.32,3.28,3.28,3.28,3.28,3.28,3.28,3.31,3.31,3.31,3.31,3.28,3.28,3.28,3.29,3.29,3.29,3.29,3.28,3.32,3.32,3.31,3.3,3.32,3.24,45.0,1.0,0.0,1.0,1.0,7520286,0.0,79.05999999999999,1975.6643459787301
1765226025362,0.0,0.0,2.0,25.0,0.0,0.0,0.0,0.0,0.0,0.0,0.0,0.0,0.0,0.0,0.0,0.0,-0.01952,-0.0060999999999999995,0.995398,-0.77,0.42000000000000004,-0.07,31.08984375,3.29,3.32,3.28,3.28,3.28,3.28,3.28,3.28,3.31,3.31,3.31,3.31,3.28,3.28,3.28,3.29,3.29,3.29,3.29,3.28,3.32,3.32,3.31,3.3,3.32,3.24,45.0,1.0,0.0,1.0,1.0,7520336,0.0,79.05999999999999,1975.6643459787301
1765226025379,0.0,0.0,2.0,25.0,0.0,0.0,0.0,0.0,0.0,0.0,0.0,0.0,0.0,0.0,0.0,0.0,-0.01952,-0.0060999999999999995,0.995398,-0.56,0.49000000000000005,0.0,31.08984375,3.29,3.32,3.28,3.28,3.28,3.28,3.28,3.28,3.31,3.31,3.31,3.31,3.28,3.28,3.28,3.29,3.29,3.29,3.29,3.28,3.32,3.32,3.31,3.3,3.32,3.24,45.0,1.0,0.0,1.0,1.0,7520353,0.0,79.05999999999999,1975.6643459787301
1765226025397,0.0,0.0,2.0,25.0,0.0,0.0,0.0,0.0,0.0,0.0,0.0,0.0,0.0,0.0,0.0,0.0,-0.01952,-0.0060999999999999995,0.995398,-0.56,0.49000000000000005,0.0,31.05078125,3.29,3.32,3.28,3.28,3.28,3.28,3.28,3.28,3.31,3.31,3.31,3.31,3.28,3.28,3.28,3.29,3.29,3.29,3.29,3.28,3.32,3.32,3.31,3.3,3.32,3.24,45.0,1.0,0.0,1.0,1.0,7520371,0.0,79.05999999999999,1975.6643459787301
1765226025415,0.0,0.0,2.0,25.0,0.0,0.0,0.0,0.0,0.0,0.0,0.0,0.0,0.0,0.0,0.0,0.0,-0.01952,-0.0060999999999999995,0.995398,-0.56,0.49000000000000005,0.0,31.05078125,3.29,3.32,3.28,3.28,3.28,3.28,3.28,3.28,3.31,3.31,3.31,3.31,3.28,3.28,3.28,3.29,3.29,3.29,3.29,3.28,3.32,3.32,3.31,3.3,3.32,3.24,45.0,1.0,0.0,1.0,1.0,7520389,0.0,79.05999999999999,1975.6643459787301
1765226025447,0.0,0.0,2.0,25.0,0.0,0.0,0.0,0.0,0.0,0.0,0.0,0.0,0.0,0.0,0.0,0.0,-0.01952,-0.0060999999999999995,0.995398,-0.56,0.49000000000000005,0.0,31.05078125,3.29,3.32,3.28,3.28,3.28,3.28,3.28,3.28,3.31,3.31,3.31,3.31,3.28,3.28,3.28,3.29,3.29,3.29,3.29,3.28,3.32,3.32,3.31,3.3,3.32,3.24,45.0,1.0,0.0,1.0,1.0,7520421,0.0,79.05999999999999,1975.6643459787301
1765226025465,0.0,0.0,2.0,25.0,0.0,0.0,0.0,0.0,0.0,0.0,0.0,0.0,0.0,0.0,0.0,0.0,-0.01952,-0.0060999999999999995,0.995398,-0.56,0.49000000000000005,0.0,31.05078125,3.29,3.32,3.28,3.28,3.28,3.28,3.28,3.28,3.31,3.31,3.31,3.31,3.28,3.28,3.28,3.29,3.29,3.29,3.29,3.28,3.32,3.32,3.31,3.3,3.32,3.24,45.0,1.0,0.0,1.0,1.0,7520439,0.0,79.05999999999999,1975.6643459787301
1765226025478,0.0,0.0,2.0,25.0,0.0,0.0,0.0,0.0,0.0,0.0,0.0,0.0,0.0,0.0,0.0,0.0,-0.01952,-0.0060999999999999995,0.995398,-0.56,0.49000000000000005,0.0,31.05078125,3.29,3.32,3.28,3.28,3.28,3.28,3.28,3.28,3.31,3.31,3.31,3.31,3.28,3.28,3.28,3.29,3.29,3.29,3.29,3.28,3.32,3.32,3.31,3.3,3.32,3.24,45.0,1.0,0.0,1.0,1.0,7520452,0.0,79.05999999999999,1975.6643459787301
1765226025496,0.0,0.0,2.0,25.0,0.0,0.0,0.0,0.0,0.0,0.0,0.0,0.0,0.0,0.0,0.0,0.0,-0.012322,-0.000244,0.992958,-0.56,0.49000000000000005,0.0,31.05078125,3.29,3.32,3.28,3.28,3.28,3.28,3.28,3.28,3.31,3.31,3.31,3.31,3.28,3.28,3.28,3.29,3.29,3.29,3.29,3.28,3.32,3.32,3.31,3.3,3.32,3.24,45.0,1.0,0.0,1.0,1.0,7520470,0.0,79.05999999999999,1975.6643459787301
1765226025512,0.0,0.0,2.0,25.0,0.0,0.0,0.0,0.0,0.0,0.0,0.0,0.0,0.0,0.0,0.0,0.0,-0.012322,-0.000244,0.992958,-0.6300000000000001,0.35000000000000003,0.0,31.05078125,3.29,3.32,3.28,3.28,3.28,3.28,3.28,3.28,3.31,3.31,3.31,3.31,3.28,3.28,3.28,3.29,3.29,3.29,3.29,3.28,3.32,3.32,3.31,3.3,3.32,3.24,45.0,1.0,0.0,1.0,1.0,7520486,0.0,79.05999999999999,1975.6643459787301
1765226025528,0.0,0.0,2.0,25.0,0.0,0.0,0.0,0.0,0.0,0.0,0.0,0.0,0.0,0.0,0.0,0.0,-0.012322,-0.000244,0.992958,-0.6300000000000001,0.35000000000000003,0.0,31.04296875,3.29,3.32,3.28,3.28,3.28,3.28,3.28,3.28,3.31,3.31,3.31,3.31,3.28,3.28,3.28,3.29,3.29,3.29,3.29,3.28,3.32,3.32,3.31,3.3,3.32,3.24,45.0,1.0,0.0,1.0,1.0,7520502,0.0,79.05999999999999,1975.6643459787301
1765226025562,0.0,0.0,2.0,25.0,0.0,0.0,0.0,0.0,0.0,0.0,0.0,0.0,0.0,0.0,0.0,0.0,-0.012322,-0.000244,0.992958,-0.6300000000000001,0.35000000000000003,0.0,31.04296875,3.29,3.32,3.28,3.28,3.28,3.28,3.28,3.28,3.31,3.31,3.31,3.31,3.28,3.28,3.28,3.29,3.29,3.29,3.29,3.28,3.32,3.32,3.31,3.3,3.32,3.24,45.0,1.0,0.0,1.0,1.0,7520536,0.0,79.05999999999999,1975.6643459787301
1765226025579,0.0,0.0,2.0,25.0,0.0,0.0,0.0,0.0,0.0,0.0,0.0,0.0,0.0,0.0,0.0,0.0,-0.012322,-0.000244,0.992958,-0.6300000000000001,0.35000000000000003,0.0,31.04296875,3.29,3.32,3.28,3.28,3.28,3.28,3.28,3.28,3.31,3.31,3.31,3.31,3.28,3.28,3.28,3.29,3.29,3.29,3.29,3.28,3.32,3.32,3.31,3.3,3.32,3.24,45.0,1.0,0.0,1.0,1.0,7520553,0.0,79.05999999999999,1975.6643459787301
1765226025596,0.0,0.0,2.0,25.0,0.0,0.0,0.0,0.0,0.0,0.0,0.0,0.0,0.0,0.0,0.0,0.0,-0.012322,-0.000244,0.992958,-0.6300000000000001,0.35000000000000003,0.0,31.04296875,3.29,3.32,3.28,3.28,3.28,3.28,3.28,3.28,3.31,3.31,3.31,3.31,3.28,3.28,3.28,3.29,3.29,3.29,3.29,3.28,3.32,3.32,3.31,3.3,3.32,3.24,45.0,1.0,0.0,1.0,1.0,7520570,0.0,79.05999999999999,1975.6643459787301
1765226025612,0.0,0.0,2.0,25.0,0.0,0.0,0.0,0.0,0.0,0.0,0.0,0.0,0.0,0.0,0.0,0.0,-0.012322,-0.000244,0.992958,-0.6300000000000001,0.35000000000000003,0.0,31.04296875,3.29,3.32,3.28,3.28,3.28,3.28,3.28,3.28,3.31,3.31,3.31,3.31,3.28,3.28,3.28,3.29,3.29,3.29,3.29,3.28,3.32,3.32,3.31,3.3,3.32,3.24,45.0,1.0,0.0,1.0,1.0,7520586,0.0,79.05999999999999,1975.6643459787301
1765226025681,0.0,0.0,2.0,25.0,0.0,0.0,0.0,0.0,0.0,0.0,0.0,0.0,0.0,0.0,0.0,0.0,-0.013663999999999999,0.006954,0.996008,-0.6300000000000001,0.35000000000000003,0.0,31.04296875,3.29,3.32,3.28,3.28,3.28,3.28,3.28,3.28,3.31,3.31,3.31,3.31,3.28,3.28,3.28,3.29,3.29,3.29,3.29,3.28,3.32,3.32,3.31,3.3,3.32,3.24,45.0,1.0,0.0,1.0,1.0,7520655,0.0,79.05999999999999,1975.6643459787301
1765226025747,0.0,0.0,2.0,25.0,0.0,0.0,0.0,0.0,0.0,0.0,0.0,0.0,0.0,0.0,0.0,0.0,-0.013663999999999999,0.006954,0.996008,-0.56,0.42000000000000004,0.0,31.04296875,3.29,3.32,3.28,3.28,3.28,3.28,3.28,3.28,3.31,3.31,3.31,3.31,3.28,3.28,3.28,3.29,3.29,3.29,3.29,3.28,3.32,3.32,3.31,3.3,3.32,3.24,45.0,1.0,0.0,1.0,1.0,7520721,0.0,79.05999999999999,1975.6643459787301
1765226025764,0.0,0.0,2.0,25.0,0.0,0.0,0.0,0.0,0.0,0.0,0.0,0.0,0.0,0.0,0.0,0.0,-0.013663999999999999,0.006954,0.996008,-0.56,0.42000000000000004,0.0,31.08203125,3.29,3.32,3.28,3.28,3.28,3.28,3.28,3.28,3.31,3.31,3.31,3.31,3.28,3.28,3.28,3.29,3.29,3.29,3.29,3.28,3.32,3.32,3.31,3.3,3.32,3.24,45.0,1.0,0.0,1.0,1.0,7520738,0.0,79.05999999999999,1975.6643459787301
1765226025795,0.0,0.0,2.0,25.0,0.0,0.0,0.0,0.0,0.0,0.0,0.0,0.0,0.0,0.0,0.0,0.0,-0.017324,0.009028,0.98881,-0.56,0.42000000000000004,0.0,31.08203125,3.29,3.32,3.28,3.28,3.28,3.28,3.28,3.28,3.31,3.31,3.31,3.31,3.28,3.28,3.28,3.29,3.29,3.29,3.29,3.28,3.32,3.32,3.31,3.3,3.32,3.24,45.0,1.0,0.0,1.0,1.0,7520769,0.0,79.05999999999999,1975.6643459787301
1765226025812,0.0,0.0,2.0,25.0,0.0,0.0,0.0,0.0,0.0,0.0,0.0,0.0,0.0,0.0,0.0,0.0,-0.017324,0.009028,0.98881,-0.6300000000000001,0.07,-0.07,31.08203125,3.29,3.32,3.28,3.28,3.28,3.28,3.28,3.28,3.31,3.31,3.31,3.31,3.28,3.28,3.28,3.29,3.29,3.29,3.29,3.28,3.32,3.32,3.31,3.3,3.32,3.24,45.0,1.0,0.0,1.0,1.0,7520786,0.0,79.05999999999999,1975.6643459787301
1765226025845,0.0,0.0,2.0,25.0,0.0,0.0,0.0,0.0,0.0,0.0,0.0,0.0,0.0,0.0,0.0,0.0,-0.017324,0.009028,0.98881,-0.6300000000000001,0.07,-0.07,31.08203125,3.29,3.32,3.28,3.28,3.28,3.28,3.28,3.28,3.31,3.31,3.31,3.31,3.28,3.28,3.28,3.29,3.29,3.29,3.29,3.28,3.32,3.32,3.31,3.3,3.32,3.24,45.0,1.0,0.0,1.0,1.0,7520819,0.0,79.05999999999999,1975.6643459787301
1765226025862,0.0,0.0,2.0,25.0,0.0,0.0,0.0,0.0,0.0,0.0,0.0,0.0,0.0,0.0,0.0,0.0,-0.017324,0.009028,0.98881,-0.6300000000000001,0.07,-0.07,31.03515625,3.29,3.32,3.28,3.28,3.28,3.28,3.28,3.28,3.31,3.31,3.31,3.31,3.28,3.28,3.28,3.29,3.29,3.29,3.29,3.28,3.32,3.32,3.31,3.3,3.32,3.24,45.0,1.0,0.0,1.0,1.0,7520836,0.0,79.05999999999999,1975.6643459787301
1765226025879,0.0,0.0,2.0,25.0,0.0,0.0,0.0,0.0,0.0,0.0,0.0,0.0,0.0,0.0,0.0,0.0,-0.017324,0.009028,0.98881,-0.6300000000000001,0.07,-0.07,31.03515625,3.29,3.32,3.28,3.28,3.28,3.28,3.28,3.28,3.31,3.31,3.31,3.31,3.28,3.28,3.28,3.29,3.29,3.29,3.29,3.28,3.32,3.32,3.31,3.3,3.32,3.24,45.0,1.0,0.0,1.0,1.0,7520853,0.0,79.05999999999999,1975.6643459787301
1765226025915,0.0,0.0,2.0,25.0,0.0,0.0,0.0,0.0,0.0,0.0,0.0,0.0,0.0,0.0,0.0,0.0,-0.017324,0.009028,0.98881,-0.6300000000000001,0.07,-0.07,31.03515625,3.29,3.32,3.28,3.28,3.28,3.28,3.28,3.28,3.31,3.31,3.31,3.31,3.28,3.28,3.28,3.29,3.29,3.29,3.29,3.28,3.32,3.32,3.31,3.3,3.32,3.24,45.0,1.0,0.0,1.0,1.0,7520889,0.0,79.05999999999999,1975.6643459787301
1765226025964,0.0,0.0,2.0,25.0,0.0,0.0,0.0,0.0,0.0,0.0,0.0,0.0,0.0,0.0,0.0,0.0,-0.017324,0.009028,0.98881,-0.6300000000000001,0.07,-0.07,31.03515625,3.29,3.32,3.28,3.28,3.28,3.28,3.28,3.28,3.31,3.31,3.31,3.31,3.28,3.28,3.28,3.29,3.29,3.29,3.29,3.28,3.32,3.32,3.31,3.3,3.32,3.24,45.0,1.0,0.0,1.0,1.0,7520938,0.0,79.05999999999999,1975.6643459787301
1765226026015,0.0,0.0,2.0,25.0,0.0,0.0,0.0,0.0,0.0,0.0,0.0,0.0,0.0,0.0,0.0,0.0,-0.019275999999999998,0.0008539999999999999,0.9940559999999999,-0.6300000000000001,0.07,-0.07,31.03515625,3.29,3.32,3.28,3.28,3.28,3.28,3.28,3.28,3.31,3.31,3.31,3.31,3.28,3.28,3.28,3.29,3.29,3.29,3.29,3.28,3.32,3.32,3.31,3.3,3.32,3.24,45.0,1.0,0.0,1.0,1.0,7520989,0.0,79.05999999999999,1975.6643459787301
1765226026050,0.0,0.0,2.0,25.0,0.0,0.0,0.0,0.0,0.0,0.0,0.0,0.0,0.0,0.0,0.0,0.0,-0.019275999999999998,0.0008539999999999999,0.9940559999999999,-0.56,0.49000000000000005,0.0,31.03515625,3.29,3.32,3.28,3.28,3.28,3.28,3.28,3.28,3.31,3.31,3.31,3.31,3.28,3.28,3.28,3.29,3.29,3.29,3.29,3.28,3.32,3.32,3.31,3.3,3.32,3.24,45.0,1.0,0.0,1.0,1.0,7521024,0.0,79.05999999999999,1975.6643459787301
1765226026098,0.0,0.0,2.0,25.0,0.0,0.0,0.0,0.0,0.0,0.0,0.0,0.0,0.0,0.0,0.0,0.0,-0.019275999999999998,0.0008539999999999999,0.9940559999999999,-0.56,0.49000000000000005,0.0,31.03515625,3.29,3.32,3.28,3.28,3.28,3.28,3.28,3.28,3.31,3.31,3.31,3.31,3.28,3.28,3.28,3.29,3.29,3.29,3.29,3.28,3.32,3.32,3.31,3.3,3.32,3.24,45.0,1.0,0.0,1.0,1.0,7521072,0.0,79.05999999999999,1975.6643459787301
1765226026112,0.0,0.0,2.0,25.0,0.0,0.0,0.0,0.0,0.0,0.0,0.0,0.0,0.0,0.0,0.0,0.0,-0.019275999999999998,0.0008539999999999999,0.9940559999999999,-0.56,0.49000000000000005,0.0,31.03515625,3.29,3.32,3.28,3.28,3.28,3.28,3.28,3.28,3.31,3.31,3.31,3.31,3.28,3.28,3.28,3.29,3.29,3.29,3.29,3.28,3.32,3.32,3.31,3.3,3.32,3.24,45.0,1.0,0.0,1.0,1.0,7521086,0.0,79.05999999999999,1975.6643459787301
1765226026179,0.0,0.0,2.0,25.0,0.0,0.0,0.0,0.0,0.0,0.0,0.0,0.0,0.0,0.0,0.0,0.0,-0.014518,0.002928,0.991738,-0.56,0.49000000000000005,0.0,31.03515625,3.29,3.32,3.28,3.28,3.28,3.28,3.28,3.28,3.31,3.31,3.31,3.31,3.28,3.28,3.28,3.29,3.29,3.29,3.29,3.28,3.32,3.32,3.31,3.3,3.32,3.24,45.0,1.0,0.0,1.0,1.0,7521153,0.0,79.05999999999999,1975.6643459787301
1765226026197,0.0,0.0,2.0,25.0,0.0,0.0,0.0,0.0,0.0,0.0,0.0,0.0,0.0,0.0,0.0,0.0,-0.014518,0.002928,0.991738,-0.56,0.49000000000000005,0.0,31.03515625,3.29,3.32,3.28,3.28,3.28,3.28,3.28,3.28,3.31,3.31,3.31,3.31,3.28,3.28,3.28,3.29,3.29,3.29,3.29,3.28,3.32,3.32,3.31,3.3,3.32,3.28,44.0,1.0,0.0,1.0,1.0,7521171,0.0,79.05999999999999,1975.6643459787301
1765226026231,0.0,0.0,2.0,25.0,0.0,0.0,0.0,0.0,0.0,0.0,0.0,0.0,0.0,0.0,0.0,0.0,-0.014518,0.002928,0.991738,-0.56,0.49000000000000005,0.0,31.03515625,3.29,3.32,3.28,3.28,3.28,3.28,3.28,3.28,3.31,3.31,3.31,3.31,3.28,3.28,3.28,3.29,3.29,3.29,3.29,3.28,3.32,3.32,3.31,3.3,3.32,3.28,44.0,1.0,0.0,1.0,1.0,7521205,0.0,79.05999999999999,1975.6643459787301
1765226026245,0.0,0.0,2.0,25.0,0.0,0.0,0.0,0.0,0.0,0.0,0.0,0.0,0.0,0.0,0.0,0.0,-0.014518,0.002928,0.991738,-0.56,0.42000000000000004,0.0,31.05078125,3.29,3.32,3.28,3.28,3.28,3.28,3.28,3.28,3.31,3.31,3.31,3.31,3.28,3.28,3.28,3.29,3.29,3.29,3.29,3.28,3.32,3.32,3.31,3.3,3.32,3.28,44.0,1.0,0.0,1.0,1.0,7521219,0.0,79.05999999999999,1975.6643459787301
1765226026280,64.0,0.0,2.0,25.0,0.0,0.0,0.0,0.0,0.0,0.0,0.0,0.0,0.0,0.0,0.0,0.0,-0.014518,0.002928,0.991738,-0.56,0.42000000000000004,0.0,31.05078125,3.29,3.32,3.28,3.28,3.28,3.28,3.28,3.28,3.31,3.31,3.31,3.31,3.28,3.28,3.28,3.29,3.29,3.29,3.29,3.28,3.32,3.32,3.31,3.3,3.32,3.28,44.0,1.0,0.0,1.0,1.0,7521254,0.0,79.05999999999999,1975.6643459787301
1765226026297,64.0,0.0,2.0,25.0,0.0,0.0,0.0,0.0,0.0,0.0,0.0,0.0,0.0,0.0,0.0,0.0,-0.014518,0.002928,0.991738,-0.56,0.42000000000000004,0.0,31.05078125,3.29,3.32,3.28,3.28,3.28,3.28,3.28,3.28,3.31,3.31,3.31,3.31,3.28,3.28,3.28,3.29,3.29,3.29,3.29,3.28,3.32,3.32,3.31,3.3,3.32,3.28,44.0,1.0,0.0,1.0,1.0,7521271,0.0,79.05999999999999,1975.6643459787301
1765226026314,64.0,0.0,2.0,25.0,0.0,0.0,0.0,0.0,0.0,0.0,0.0,0.0,0.0,0.0,0.0,0.0,-0.014518,0.002928,0.991738,-0.56,0.42000000000000004,0.0,31.05078125,3.29,3.32,3.28,3.28,3.28,3.28,3.28,3.28,3.31,3.31,3.31,3.31,3.28,3.28,3.28,3.29,3.29,3.29,3.29,3.28,3.32,3.32,3.31,3.3,3.32,3.28,44.0,1.0,0.0,1.0,1.0,7521288,0.0,79.05999999999999,1975.6643459787301
1765226026331,64.0,0.0,2.0,25.0,0.0,0.0,0.0,0.0,0.0,0.0,0.0,0.0,0.0,0.0,0.0,0.0,-0.014518,0.002928,0.991738,-0.56,0.42000000000000004,0.0,31.05078125,3.29,3.32,3.28,3.28,3.28,3.28,3.28,3.28,3.31,3.31,3.31,3.31,3.28,3.28,3.28,3.29,3.29,3.29,3.29,3.28,3.32,3.32,3.31,3.3,3.32,3.28,44.0,1.0,0.0,1.0,1.0,7521305,0.0,79.05999999999999,1975.6643459787301
1765226026347,64.0,0.0,2.0,25.0,0.0,0.0,0.0,0.0,0.0,0.0,0.0,0.0,0.0,0.0,0.0,0.0,-0.014518,0.002928,0.991738,-0.56,0.42000000000000004,0.0,31.05078125,3.29,3.32,3.28,3.28,3.28,3.28,3.28,3.28,3.31,3.31,3.31,3.31,3.28,3.28,3.28,3.29,3.29,3.29,3.29,3.28,3.32,3.32,3.31,3.3,3.32,3.28,44.0,1.0,0.0,1.0,1.0,7521321,0.0,79.05999999999999,1975.6643459787301
1765226026397,64.0,0.0,2.0,25.0,0.0,0.0,0.0,0.0,0.0,0.0,0.0,0.0,0.0,0.0,0.0,0.0,-0.01586,0.0053679999999999995,0.99125,-0.56,0.42000000000000004,0.0,31.05078125,3.29,3.32,3.28,3.28,3.28,3.28,3.28,3.28,3.31,3.31,3.31,3.31,3.28,3.28,3.28,3.29,3.29,3.29,3.29,3.28,3.32,3.32,3.31,3.3,3.32,3.28,44.0,1.0,0.0,1.0,1.0,7521371,0.0,79.05999999999999,1975.6643459787301
1765226026415,64.0,0.0,2.0,25.0,0.0,0.0,0.0,0.0,0.0,0.0,0.0,0.0,0.0,0.0,0.0,0.0,-0.01586,0.0053679999999999995,0.99125,-0.56,0.42000000000000004,0.0,31.05078125,3.29,3.32,3.28,3.28,3.28,3.28,3.28,3.28,3.31,3.31,3.31,3.31,3.28,3.28,3.28,3.29,3.29,3.29,3.29,3.28,3.32,3.32,3.31,3.3,3.32,3.28,44.0,1.0,0.0,1.0,1.0,7521389,0.0,79.05999999999999,1975.6643459787301
1765226026432,64.0,0.0,2.0,25.0,0.0,0.0,0.0,0.0,0.0,0.0,0.0,0.0,0.0,0.0,0.0,0.0,-0.01586,0.0053679999999999995,0.99125,-0.6300000000000001,0.35000000000000003,0.07,31.05078125,3.29,3.32,3.28,3.28,3.28,3.28,3.28,3.28,3.31,3.31,3.31,3.31,3.28,3.28,3.28,3.29,3.29,3.29,3.29,3.28,3.32,3.32,3.31,3.3,3.32,3.28,44.0,1.0,0.0,1.0,1.0,7521406,0.0,79.05999999999999,1975.6643459787301
1765226026496,64.0,0.0,2.0,25.0,0.0,0.0,0.0,0.0,0.0,0.0,0.0,0.0,0.0,0.0,0.0,0.0,-0.01586,0.0053679999999999995,0.99125,-0.6300000000000001,0.35000000000000003,0.07,31.08203125,3.29,3.32,3.28,3.28,3.28,3.28,3.28,3.28,3.31,3.31,3.31,3.31,3.28,3.28,3.28,3.29,3.29,3.29,3.29,3.28,3.32,3.32,3.31,3.3,3.32,3.28,44.0,1.0,0.0,1.0,1.0,7521470,0.0,79.05999999999999,1975.6643459787301
1765226026529,64.0,0.0,2.0,25.0,0.0,0.0,0.0,0.0,0.0,0.0,0.0,0.0,0.0,0.0,0.0,0.0,-0.013054,0.0068319999999999995,0.989664,-0.6300000000000001,0.35000000000000003,0.07,31.08203125,3.29,3.32,3.28,3.28,3.28,3.28,3.28,3.28,3.31,3.31,3.31,3.31,3.28,3.28,3.28,3.29,3.29,3.29,3.29,3.28,3.32,3.32,3.31,3.3,3.32,3.28,44.0,1.0,0.0,1.0,1.0,7521503,0.0,79.05999999999999,1975.6643459787301
1765226026546,64.0,0.0,2.0,25.0,0.0,0.0,0.0,0.0,0.0,0.0,0.0,0.0,0.0,0.0,0.0,0.0,-0.013054,0.0068319999999999995,0.989664,-0.6300000000000001,0.35000000000000003,0.07,31.08203125,3.29,3.32,3.28,3.28,3.28,3.28,3.28,3.28,3.31,3.31,3.31,3.31,3.28,3.28,3.28,3.29,3.29,3.29,3.29,3.28,3.32,3.32,3.31,3.3,3.32,3.28,44.0,1.0,0.0,1.0,1.0,7521520,0.0,79.05999999999999,1975.6643459787301
1765226026563,321.0,0.0,2.0,25.0,0.0,0.0,0.0,0.0,0.0,0.0,0.0,0.0,0.0,0.0,0.0,0.0,-0.013054,0.0068319999999999995,0.989664,-0.6300000000000001,0.35000000000000003,0.07,31.08203125,3.29,3.32,3.28,3.28,3.28,3.28,3.28,3.28,3.31,3.31,3.31,3.31,3.28,3.28,3.28,3.29,3.29,3.29,3.29,3.28,3.32,3.32,3.31,3.3,3.32,3.28,44.0,1.0,0.0,1.0,1.0,7521537,0.0,79.05999999999999,1975.6643459787301
1765226026579,321.0,0.0,2.0,25.0,0.0,0.0,0.0,0.0,0.0,0.0,0.0,0.0,0.0,0.0,0.0,0.0,-0.013054,0.0068319999999999995,0.989664,-0.6300000000000001,0.35000000000000003,0.07,31.109375,3.29,3.32,3.28,3.28,3.28,3.28,3.28,3.28,3.31,3.31,3.31,3.31,3.28,3.28,3.28,3.29,3.29,3.29,3.29,3.28,3.32,3.32,3.31,3.3,3.32,3.28,44.0,1.0,0.0,1.0,1.0,7521553,0.0,79.05999999999999,1975.6643459787301
1765226026597,321.0,0.0,2.0,25.0,0.0,0.0,0.0,0.0,0.0,0.0,0.0,0.0,0.0,0.0,0.0,0.0,-0.013054,0.0068319999999999995,0.989664,-0.6300000000000001,0.35000000000000003,0.07,31.109375,3.29,3.32,3.28,3.28,3.28,3.28,3.28,3.28,3.31,3.31,3.31,3.31,3.28,3.28,3.28,3.29,3.29,3.29,3.29,3.28,3.32,3.32,3.31,3.3,3.32,3.28,44.0,1.0,0.0,1.0,1.0,7521571,0.0,79.05999999999999,1975.6643459787301
1765226026598,321.0,0.0,2.0,25.0,0.0,0.0,0.0,0.0,0.0,0.0,0.0,0.0,0.0,0.0,0.0,0.0,-0.013054,0.0068319999999999995,0.989664,-0.6300000000000001,0.35000000000000003,0.07,31.109375,3.29,3.32,3.28,3.28,3.28,3.28,3.28,3.28,3.31,3.31,3.31,3.31,3.28,3.28,3.28,3.29,3.29,3.29,3.29,3.28,3.32,3.32,3.31,3.3,3.32,3.28,44.0,1.0,0.0,1.0,1.0,7521572,0.0,79.05999999999999,1975.6643459787301
1765226026613,321.0,0.0,2.0,25.0,0.0,0.0,0.0,0.0,0.0,0.0,0.0,0.0,0.0,0.0,0.0,0.0,-0.013054,0.0068319999999999995,0.989664,-0.6300000000000001,0.35000000000000003,0.07,31.109375,3.29,3.32,3.28,3.28,3.28,3.28,3.28,3.28,3.31,3.31,3.31,3.31,3.28,3.28,3.28,3.29,3.29,3.29,3.29,3.28,3.32,3.32,3.31,3.3,3.32,3.28,44.0,1.0,0.0,1.0,1.0,7521587,0.0,79.05999999999999,1975.6643459787301
1765226026648,321.0,0.0,2.0,25.0,0.0,0.0,0.0,0.0,0.0,0.0,0.0,0.0,0.0,0.0,0.0,0.0,-0.013054,0.0068319999999999995,0.989664,-0.6300000000000001,0.35000000000000003,0.07,31.109375,3.29,3.32,3.28,3.28,3.28,3.28,3.28,3.28,3.31,3.31,3.31,3.31,3.28,3.28,3.28,3.29,3.29,3.29,3.29,3.28,3.32,3.32,3.31,3.3,3.32,3.28,44.0,1.0,0.0,1.0,1.0,7521622,0.0,79.05999999999999,1975.6643459787301
1765226026696,321.0,0.0,2.0,25.0,0.0,0.0,0.0,0.0,0.0,0.0,0.0,0.0,0.0,0.0,0.0,0.0,-0.013054,0.0068319999999999995,0.989664,-0.6300000000000001,0.35000000000000003,0.07,31.109375,3.29,3.32,3.28,3.28,3.28,3.28,3.28,3.28,3.31,3.31,3.31,3.31,3.28,3.28,3.28,3.29,3.29,3.29,3.29,3.28,3.32,3.32,3.31,3.3,3.32,3.28,44.0,1.0,0.0,1.0,1.0,7521670,0.0,79.05999999999999,1975.6643459787301
1765226026712,321.0,0.0,2.0,25.0,300.0,300.0,0.0,0.0,0.0,0.0,0.0,0.0,0.0,0.0,0.0,0.0,-0.013054,0.0068319999999999995,0.989664,-0.6300000000000001,0.35000000000000003,0.07,31.109375,3.29,3.32,3.28,3.28,3.28,3.28,3.28,3.28,3.31,3.31,3.31,3.31,3.28,3.28,3.28,3.29,3.29,3.29,3.29,3.28,3.32,3.32,3.31,3.3,3.32,3.28,44.0,1.0,0.0,1.0,1.0,7521686,0.0,79.05999999999999,1975.6643459787301
1765226026731,321.0,0.0,2.0,25.0,300.0,300.0,0.0,0.0,0.0,0.0,0.0,0.0,1.0,0.0,0.0,0.0,-0.013054,0.0068319999999999995,0.989664,-0.6300000000000001,0.35000000000000003,0.0,31.109375,3.29,3.32,3.28,3.28,3.28,3.28,3.28,3.28,3.31,3.31,3.31,3.31,3.28,3.28,3.28,3.29,3.29,3.29,3.29,3.28,3.32,3.32,3.31,3.3,3.32,3.28,44.0,1.0,0.0,1.0,1.0,7521705,0.0,79.05999999999999,1975.6643459787301
1765226026748,321.0,0.0,2.0,25.0,300.0,300.0,0.0,0.013,0.1,0.0,0.0,0.0,1.0,0.0,0.0,0.0,-0.013054,0.0068319999999999995,0.989664,-0.6300000000000001,0.35000000000000003,0.0,31.109375,3.29,3.32,3.28,3.28,3.28,3.28,3.28,3.28,3.31,3.31,3.31,3.31,3.28,3.28,3.28,3.29,3.29,3.29,3.29,3.28,3.32,3.32,3.31,3.3,3.32,3.28,44.0,1.0,0.0,1.0,1.0,7521722,0.0,79.05999999999999,1975.6643459787301
1765226026795,321.0,0.0,2.0,25.0,300.0,300.0,0.0,0.013,0.1,0.0,0.0,0.0,1.0,0.0,0.0,0.0,-0.013054,0.0068319999999999995,0.989664,-0.6300000000000001,0.35000000000000003,0.0,31.08984375,3.29,3.32,3.28,3.28,3.28,3.28,3.28,3.28,3.31,3.31,3.31,3.31,3.28,3.28,3.28,3.29,3.29,3.29,3.29,3.28,3.32,3.32,3.31,3.3,3.32,3.28,44.0,1.0,0.0,1.0,1.0,7521769,0.0,79.05999999999999,1975.6643459787301
1765226026829,321.0,0.0,2.0,25.0,300.0,300.0,0.0,0.013,0.1,0.0,0.0,0.2,1.0,0.0,0.0,0.0,-0.013054,0.0068319999999999995,0.989664,-0.6300000000000001,0.35000000000000003,0.0,31.08984375,3.29,3.32,3.28,3.28,3.28,3.28,3.28,3.28,3.31,3.31,3.31,3.31,3.28,3.28,3.28,3.29,3.29,3.29,3.29,3.28,3.32,3.32,3.31,3.3,3.32,3.28,44.0,1.0,0.0,1.0,1.0,7521803,0.0,79.05999999999999,1975.6643459787301
1765226026880,321.0,0.0,2.0,25.0,300.0,300.0,0.0,0.013,0.1,0.0,0.0,0.2,1.0,0.0,0.0,0.0,-0.01342,0.0046359999999999995,0.991372,-0.6300000000000001,0.35000000000000003,0.0,31.08984375,3.29,3.32,3.28,3.28,3.28,3.28,3.28,3.28,3.31,3.31,3.31,3.31,3.28,3.28,3.28,3.29,3.29,3.29,3.29,3.28,3.32,3.32,3.31,3.3,3.32,3.28,44.0,1.0,0.0,1.0,1.0,7521854,0.0,79.05999999999999,1975.6643459787301
1765226026913,321.0,0.0,2.0,25.0,300.0,300.0,0.0,0.013,0.1,0.0,0.0,0.2,1.0,0.0,0.0,0.0,-0.01342,0.0046359999999999995,0.991372,-0.56,0.42000000000000004,-0.07,31.08984375,3.29,3.32,3.28,3.28,3.28,3.28,3.28,3.28,3.31,3.31,3.31,3.31,3.28,3.28,3.28,3.29,3.29,3.29,3.29,3.28,3.32,3.32,3.31,3.3,3.32,3.28,44.0,1.0,0.0,1.0,1.0,7521887,0.0,79.05999999999999,1975.6643459787301
1765226026947,321.0,0.0,2.0,25.0,300.0,300.0,0.0,0.013,0.1,0.0,0.0,0.2,1.0,0.0,0.0,0.0,-0.01342,0.0046359999999999995,0.991372,-0.56,0.42000000000000004,-0.07,31.0546875,3.29,3.32,3.28,3.28,3.28,3.28,3.28,3.28,3.31,3.31,3.31,3.31,3.28,3.28,3.28,3.29,3.29,3.29,3.29,3.28,3.32,3.32,3.31,3.3,3.32,3.28,44.0,1.0,0.0,1.0,1.0,7521921,0.0,79.05999999999999,1975.6643459787301
1765226026962,321.0,0.0,2.0,25.0,300.0,300.0,0.0,0.013,0.1,0.0,0.0,0.2,1.0,0.0,0.0,0.0,-0.01342,0.0046359999999999995,0.991372,-0.56,0.42000000000000004,-0.07,31.0546875,3.29,3.32,3.28,3.28,3.28,3.28,3.28,3.28,3.31,3.31,3.31,3.31,3.28,3.28,3.28,3.29,3.29,3.29,3.29,3.28,3.32,3.32,3.31,3.3,3.32,3.28,44.0,1.0,0.0,1.0,1.0,7521936,0.0,79.05999999999999,1975.6643459787301
1765226026979,321.0,0.0,2.0,25.0,300.0,300.0,0.0,0.013,0.1,0.0,0.0,0.2,1.0,0.0,0.0,0.0,-0.01342,0.0046359999999999995,0.991372,-0.56,0.42000000000000004,-0.07,31.0546875,3.29,3.32,3.28,3.28,3.28,3.28,3.28,3.28,3.31,3.31,3.31,3.31,3.28,3.28,3.28,3.29,3.29,3.29,3.29,3.28,3.32,3.32,3.31,3.3,3.32,3.28,44.0,1.0,0.0,1.0,1.0,7521953,0.0,79.05999999999999,1975.6643459787301
1765226027015,321.0,0.0,2.0,25.0,300.0,300.0,0.0,0.013,0.1,0.0,0.0,0.2,1.0,0.0,0.0,0.0,-0.01342,0.0046359999999999995,0.991372,-0.56,0.42000000000000004,-0.07,31.0546875,3.29,3.32,3.28,3.28,3.28,3.28,3.28,3.28,3.31,3.31,3.31,3.31,3.28,3.28,3.28,3.29,3.29,3.29,3.29,3.28,3.32,3.32,3.31,3.3,3.32,3.28,44.0,1.0,0.0,1.0,1.0,7521989,0.0,79.05999999999999,1975.6643459787301
1765226027030,1000.0,0.0,2.0,25.0,300.0,300.0,0.0,0.013,0.1,0.0,0.0,0.2,1.0,0.0,0.0,0.0,-0.01342,0.0046359999999999995,0.991372,-0.56,0.42000000000000004,-0.07,31.0546875,3.29,3.32,3.28,3.28,3.28,3.28,3.28,3.28,3.31,3.31,3.31,3.31,3.28,3.28,3.28,3.29,3.29,3.29,3.29,3.28,3.32,3.32,3.31,3.3,3.32,3.28,44.0,1.0,0.0,1.0,1.0,7522004,0.0,79.05999999999999,1975.6643459787301
1765226027048,1000.0,0.0,2.0,25.0,300.0,300.0,0.0,0.013,0.1,0.0,0.0,0.2,1.0,0.0,0.0,0.0,-0.01342,0.0046359999999999995,0.991372,-0.56,0.42000000000000004,-0.07,31.0546875,3.29,3.32,3.28,3.28,3.28,3.28,3.28,3.28,3.31,3.31,3.31,3.31,3.28,3.28,3.28,3.29,3.29,3.29,3.29,3.28,3.32,3.32,3.31,3.3,3.32,3.28,44.0,1.0,0.0,1.0,1.0,7522022,0.0,79.05999999999999,1975.6643459787301
1765226027062,1000.0,0.0,2.0,25.0,300.0,300.0,0.0,0.013,0.1,0.0,0.0,0.2,0.0,0.0,0.0,0.0,-0.01342,0.0046359999999999995,0.991372,-0.56,0.42000000000000004,-0.07,31.0546875,3.29,3.32,3.28,3.28,3.28,3.28,3.28,3.28,3.31,3.31,3.31,3.31,3.28,3.28,3.28,3.29,3.29,3.29,3.29,3.28,3.32,3.32,3.31,3.3,3.32,3.28,44.0,1.0,0.0,1.0,1.0,7522036,0.0,79.05999999999999,1975.6643459787301
1765226027099,1000.0,0.0,2.0,25.0,300.0,300.0,1.0,0.013,0.1,0.0,0.0,0.2,0.0,0.0,0.0,0.0,-0.01342,0.0046359999999999995,0.991372,-0.56,0.42000000000000004,-0.07,31.0546875,3.29,3.32,3.28,3.28,3.28,3.28,3.28,3.28,3.31,3.31,3.31,3.31,3.28,3.28,3.28,3.29,3.29,3.29,3.29,3.28,3.32,3.32,3.31,3.3,3.32,3.28,44.0,1.0,0.0,1.0,1.0,7522073,0.0055200642857142854,79.05999999999999,1975.664374345727
1765226027131,1000.0,0.0,2.0,25.0,300.0,300.0,1.0,0.013,0.1,0.0,0.013,0.2,0.0,0.0,0.0,0.0,-0.01342,0.0046359999999999995,0.991372,-0.56,0.42000000000000004,-0.07,31.0546875,3.29,3.32,3.28,3.28,3.28,3.28,3.28,3.28,3.31,3.31,3.31,3.31,3.28,3.28,3.28,3.29,3.29,3.29,3.29,3.28,3.32,3.32,3.31,3.3,3.32,3.28,44.0,1.0,0.0,1.0,1.0,7522105,0.0055200642857142854,79.05999999999999,1975.664423412965
1765226027181,1000.0,0.0,2.0,25.0,300.0,300.0,1.0,0.013,0.1,0.0,0.013,0.2,0.0,0.0,0.0,0.0,-0.015982,0.007442,0.994788,-0.56,0.42000000000000004,-0.07,31.0546875,3.29,3.32,3.28,3.28,3.28,3.28,3.28,3.28,3.31,3.31,3.31,3.31,3.28,3.28,3.28,3.29,3.29,3.29,3.29,3.28,3.32,3.32,3.31,3.3,3.32,3.28,44.0,1.0,0.0,1.0,1.0,7522155,0.0055200642857142854,79.05999999999999,1975.6645000805247
1765226027215,1000.0,0.0,2.0,25.0,300.0,300.0,1.0,0.013,0.1,0.0,0.013,0.2,0.0,0.0,0.0,0.0,-0.015982,0.007442,0.994788,-0.49000000000000005,0.49000000000000005,0.0,31.0546875,3.29,3.32,3.28,3.28,3.28,3.28,3.28,3.28,3.31,3.31,3.31,3.31,3.28,3.28,3.28,3.29,3.29,3.29,3.29,3.28,3.32,3.32,3.31,3.3,3.32,3.28,44.0,1.0,0.0,1.0,1.0,7522189,0.0055200642857142854,79.05999999999999,1975.6645522144652
1765226027229,1000.0,0.0,2.0,25.0,300.0,300.0,1.0,0.013,0.1,0.0,0.013,0.2,0.0,0.0,0.0,0.0,-0.015982,0.007442,0.994788,-0.49000000000000005,0.49000000000000005,0.0,31.09375,3.29,3.32,3.28,3.28,3.28,3.28,3.28,3.28,3.31,3.31,3.31,3.31,3.28,3.28,3.28,3.29,3.29,3.29,3.29,3.28,3.32,3.32,3.31,3.3,3.32,3.28,44.0,1.0,0.0,1.0,1.0,7522203,0.0055200642857142854,79.05999999999999,1975.6645736813819
1765226027281,1000.0,0.0,2.0,25.0,300.0,300.0,1.0,0.013,0.1,0.0,0.026,0.4,0.0,0.0,0.0,0.0,-0.015982,0.007442,0.994788,-0.49000000000000005,0.49000000000000005,0.0,31.09375,3.29,3.32,3.28,3.28,3.28,3.28,3.28,3.28,3.31,3.31,3.31,3.31,3.28,3.28,3.28,3.29,3.29,3.29,3.29,3.28,3.32,3.32,3.31,3.3,3.32,3.28,44.0,1.0,0.0,1.0,1.0,7522255,0.0055200642857142854,79.05999999999999,1975.6646534156437
1765226027364,1000.0,0.0,2.0,25.0,300.0,300.0,1.0,0.013,0.1,0.0,0.026,0.4,0.0,0.0,0.0,0.0,-0.01647,0.00488,0.992592,-0.56,0.35000000000000003,-0.07,31.09375,3.29,3.32,3.28,3.28,3.28,3.28,3.28,3.28,3.31,3.31,3.31,3.31,3.28,3.28,3.28,3.29,3.29,3.29,3.29,3.28,3.32,3.32,3.31,3.3,3.32,3.28,44.0,1.0,0.0,1.0,1.0,7522338,0.0055200642857142854,79.05999999999999,1975.6647806837925
1765226027396,1000.0,0.0,2.0,25.0,300.0,300.0,1.0,0.013,0.1,0.0,0.026,0.4,0.0,0.0,0.0,0.0,-0.01647,0.00488,0.992592,-0.56,0.35000000000000003,-0.07,31.04296875,3.29,3.32,3.28,3.28,3.28,3.28,3.28,3.28,3.31,3.31,3.31,3.31,3.28,3.28,3.28,3.29,3.29,3.29,3.29,3.28,3.32,3.32,3.31,3.3,3.32,3.28,44.0,1.0,0.0,1.0,1.0,7522370,0.0055200642857142854,79.05999999999999,1975.6648297510305
1765226027433,1000.0,0.0,2.0,25.0,300.0,300.0,1.0,0.013,0.1,0.0,0.026,0.4,0.0,0.0,0.0,0.0,-0.01647,0.00488,0.992592,-0.56,0.35000000000000003,-0.07,31.04296875,3.29,3.32,3.28,3.28,3.28,3.28,3.28,3.28,3.31,3.31,3.31,3.31,3.28,3.28,3.28,3.29,3.29,3.29,3.29,3.28,3.32,3.32,3.31,3.3,3.32,3.28,44.0,1.0,0.0,1.0,1.0,7522407,0.0055200642857142854,79.05999999999999,1975.6648864850247
1765226027449,1000.0,0.0,2.0,25.0,600.0,600.0,1.0,0.013,0.1,0.0,0.026,0.4,0.0,0.0,0.0,0.0,-0.0057339999999999995,0.004148,0.9928359999999999,-0.56,0.35000000000000003,-0.07,31.04296875,3.29,3.32,3.28,3.28,3.28,3.28,3.28,3.28,3.31,3.31,3.31,3.31,3.28,3.28,3.28,3.29,3.29,3.29,3.29,3.28,3.32,3.32,3.31,3.3,3.32,3.28,44.0,1.0,0.0,1.0,1.0,7522423,0.0055200642857142854,79.05999999999999,1975.6649110186438
1765226027464,1000.0,0.0,2.0,25.0,600.0,600.0,1.0,0.013,0.1,0.0,0.026,0.4,325.0,304.0,0.0,0.0,-0.0057339999999999995,0.004148,0.9928359999999999,-0.56,0.35000000000000003,-0.07,31.04296875,3.29,3.32,3.28,3.28,3.28,3.28,3.28,3.28,3.31,3.31,3.31,3.31,3.28,3.28,3.28,3.29,3.29,3.29,3.29,3.28,3.32,3.32,3.31,3.3,3.32,3.28,44.0,1.0,0.0,1.0,1.0,7522438,0.0055200642857142854,79.05999999999999,1975.6649340189117
1765226027496,1000.0,0.0,2.0,25.0,600.0,600.0,94.0,-0.052,16.1,0.0,0.026,0.4,325.0,304.0,0.0,0.0,-0.0057339999999999995,0.004148,0.9928359999999999,-0.56,0.35000000000000003,-0.07,31.04296875,3.29,3.32,3.28,3.28,3.28,3.28,3.28,3.28,3.31,3.31,3.31,3.31,3.28,3.28,3.28,3.29,3.29,3.29,3.29,3.28,3.32,3.32,3.31,3.3,3.32,3.28,44.0,1.0,0.0,1.0,1.0,7522470,0.518886042857143,79.05999999999999,1975.6672647127211
1765226027529,1000.0,0.0,2.0,25.0,600.0,600.0,94.0,-0.052,16.1,0.0,0.026,0.4,325.0,304.0,0.0,0.0,-0.0057339999999999995,0.004148,0.9928359999999999,-0.6300000000000001,0.42000000000000004,0.0,31.04296875,3.29,3.32,3.28,3.28,3.28,3.28,3.28,3.28,3.31,3.31,3.31,3.31,3.28,3.28,3.28,3.29,3.29,3.29,3.29,3.28,3.32,3.32,3.31,3.3,3.32,3.28,44.0,1.0,0.0,1.0,1.0,7522503,0.518886042857143,79.05999999999999,1975.672021168114
1765226027548,1000.0,0.0,2.0,25.0,600.0,600.0,94.0,-0.052,16.1,94.0,-0.078,16.400000000000002,325.0,304.0,0.0,0.0,-0.0057339999999999995,0.004148,0.9928359999999999,-0.6300000000000001,0.42000000000000004,0.0,31.04296875,3.29,3.32,3.28,3.28,3.28,3.28,3.28,3.28,3.31,3.31,3.31,3.31,3.28,3.28,3.28,3.29,3.29,3.29,3.29,3.28,3.32,3.32,3.31,3.3,3.32,3.28,44.0,1.0,0.0,1.0,1.0,7522522,1.037772085714286,79.05999999999999,1975.6761290159534
1765226027581,1000.0,0.0,2.0,25.0,600.0,600.0,94.0,-0.052,16.1,94.0,-0.078,16.400000000000002,325.0,304.0,0.0,0.0,-0.0057339999999999995,0.004148,0.9928359999999999,-0.6300000000000001,0.42000000000000004,0.0,31.1015625,3.29,3.32,3.28,3.28,3.28,3.28,3.28,3.28,3.31,3.31,3.31,3.31,3.28,3.28,3.28,3.29,3.29,3.29,3.29,3.28,3.32,3.32,3.31,3.3,3.32,3.28,44.0,1.0,0.0,1.0,1.0,7522555,1.037772085714286,79.05999999999999,1975.6856419267392
1765226027648,1000.0,0.0,2.0,25.0,600.0,600.0,94.0,-0.052,16.1,94.0,-0.078,16.400000000000002,325.0,304.0,0.0,0.0,0.035136,0.010735999999999999,0.996008,-0.6300000000000001,0.42000000000000004,0.0,31.1015625,3.29,3.32,3.28,3.28,3.28,3.28,3.28,3.28,3.31,3.31,3.31,3.31,3.28,3.28,3.28,3.29,3.29,3.29,3.29,3.28,3.32,3.32,3.31,3.3,3.32,3.28,44.0,1.0,0.0,1.0,1.0,7522622,1.037772085714286,79.05999999999999,1975.7049560183345
1765226027663,1000.0,0.0,2.0,25.0,600.0,600.0,94.0,-0.052,16.1,94.0,-0.078,16.400000000000002,325.0,304.0,0.0,0.0,0.035136,0.010735999999999999,0.996008,-0.77,0.0,0.0,31.1015625,3.29,3.32,3.28,3.28,3.28,3.28,3.28,3.28,3.31,3.31,3.31,3.31,3.28,3.28,3.28,3.29,3.29,3.29,3.29,3.28,3.32,3.32,3.31,3.3,3.32,3.28,44.0,1.0,0.0,1.0,1.0,7522637,1.037772085714286,79.05999999999999,1975.7092800686917
1765226027680,1000.0,0.0,2.0,25.0,600.0,600.0,94.0,-0.052,16.1,94.0,-0.078,16.400000000000002,325.0,304.0,0.0,0.0,0.035136,0.010735999999999999,0.996008,-0.77,0.0,0.0,31.078125,3.29,3.32,3.28,3.28,3.28,3.28,3.28,3.28,3.31,3.31,3.31,3.31,3.28,3.28,3.28,3.29,3.29,3.29,3.29,3.28,3.32,3.32,3.31,3.3,3.32,3.28,44.0,1.0,0.0,1.0,1.0,7522654,1.037772085714286,79.05999999999999,1975.7141806590964
1765226027715,1000.0,0.0,2.0,25.0,600.0,600.0,94.0,-0.052,16.1,94.0,-0.078,16.400000000000002,325.0,304.0,0.0,0.0,0.035136,0.010735999999999999,0.996008,-0.77,0.0,0.0,31.078125,3.29,3.32,3.28,3.28,3.28,3.28,3.28,3.28,3.31,3.31,3.31,3.31,3.28,3.28,3.28,3.29,3.29,3.29,3.29,3.28,3.32,3.32,3.31,3.3,3.32,3.28,44.0,1.0,0.0,1.0,1.0,7522689,1.037772085714286,79.05999999999999,1975.7242701099296
1765226027730,1000.0,0.0,2.0,25.0,600.0,600.0,94.0,-0.052,16.1,94.0,-0.078,16.400000000000002,325.0,304.0,0.0,0.0,0.035136,0.010735999999999999,0.996008,-0.77,0.0,0.0,31.078125,3.29,3.32,3.28,3.28,3.28,3.28,3.28,3.28,3.31,3.31,3.31,3.31,3.28,3.28,3.28,3.29,3.29,3.29,3.29,3.28,3.32,3.32,3.31,3.3,3.32,3.28,44.0,1.0,0.0,1.0,1.0,7522704,1.037772085714286,79.05999999999999,1975.7285941602868
1765226027746,1000.0,0.0,2.0,25.0,600.0,600.0,94.0,-0.052,16.1,94.0,-0.078,16.400000000000002,352.0,283.0,0.0,0.0,0.035136,0.010735999999999999,0.996008,-0.77,0.0,0.0,31.078125,3.29,3.32,3.28,3.28,3.28,3.28,3.28,3.28,3.31,3.31,3.31,3.31,3.28,3.28,3.28,3.29,3.29,3.29,3.29,3.28,3.32,3.32,3.31,3.3,3.32,3.28,44.0,1.0,0.0,1.0,1.0,7522720,1.037772085714286,79.05999999999999,1975.7332064806678
1765226027780,1000.0,0.0,2.0,25.0,600.0,600.0,352.0,1.6769999999999998,68.8,94.0,-0.078,16.400000000000002,352.0,283.0,0.0,0.0,0.035136,0.010735999999999999,0.996008,-0.77,0.0,0.0,31.078125,3.29,3.32,3.28,3.28,3.28,3.28,3.28,3.28,3.31,3.31,3.31,3.31,3.28,3.28,3.28,3.29,3.29,3.29,3.29,3.28,3.32,3.32,3.31,3.3,3.32,3.28,44.0,1.0,0.0,1.0,1.0,7522754,2.4619486714285714,79.05999999999999,1975.7497329397988
1765226027797,1000.0,0.0,2.0,25.0,600.0,600.0,352.0,1.6769999999999998,68.8,94.0,-0.078,16.400000000000002,352.0,283.0,0.0,0.0,0.035136,0.010735999999999999,0.996008,-0.77,0.0,0.0,31.078125,3.29,3.32,3.28,3.28,3.28,3.28,3.28,3.28,3.31,3.31,3.31,3.31,3.28,3.28,3.28,3.29,3.29,3.29,3.29,3.28,3.32,3.32,3.31,3.3,3.32,3.28,45.0,1.0,0.0,1.0,1.0,7522771,2.4619486714285714,79.05999999999999,1975.761358808525
1765226027863,1000.0,0.0,2.0,25.0,600.0,600.0,352.0,1.6769999999999998,68.8,283.0,1.9369999999999998,64.2,352.0,283.0,0.0,0.0,0.11223999999999999,0.004148,0.9943,-0.77,0.0,0.0,31.078125,3.29,3.32,3.28,3.28,3.28,3.28,3.28,3.28,3.31,3.31,3.31,3.31,3.28,3.28,3.28,3.29,3.29,3.29,3.29,3.28,3.32,3.32,3.31,3.3,3.32,3.28,45.0,1.0,0.0,1.0,1.0,7522837,3.5052408214285724,79.05999999999999,1975.8160580455428
1765226027965,1000.0,0.0,2.0,25.0,600.0,600.0,352.0,1.6769999999999998,68.8,187.0,6.356999999999999,100.60000000000001,352.0,283.0,0.0,0.0,0.11223999999999999,0.004148,0.9943,-0.77,0.0,0.0,31.078125,3.29,3.32,3.28,3.28,3.28,3.28,3.28,3.28,3.31,3.31,3.31,3.31,3.28,3.28,3.28,3.29,3.29,3.29,3.29,3.28,3.32,3.32,3.31,3.3,3.32,3.23,56.0,1.0,0.0,1.0,1.0,7522939,2.9753146500000005,79.05999999999999,1975.9078659147215
1765226028014,1000.0,0.0,2.0,25.0,600.0,600.0,352.0,1.6769999999999998,68.8,187.0,6.356999999999999,100.60000000000001,352.0,283.0,0.0,0.0,0.11223999999999999,0.004148,0.9943,-0.77,0.0,0.0,31.078125,3.29,3.32,3.28,3.28,3.28,3.28,3.28,3.28,3.31,3.31,3.31,3.31,3.28,3.28,3.28,3.29,3.29,3.29,3.29,3.28,3.32,3.32,3.31,3.3,3.32,3.23,56.0,1.0,0.0,1.0,1.0,7522988,2.9753146500000005,79.05999999999999,1975.9483632530132
1765226028064,1000.0,0.0,2.0,25.0,600.0,600.0,352.0,1.6769999999999998,68.8,187.0,6.356999999999999,100.60000000000001,352.0,283.0,0.0,0.0,0.14518,0.002928,1.020164,-0.77,0.0,0.0,31.078125,3.29,3.32,3.28,3.28,3.28,3.28,3.28,3.28,3.31,3.31,3.31,3.31,3.28,3.28,3.28,3.29,3.29,3.29,3.29,3.28,3.32,3.32,3.31,3.3,3.32,3.23,56.0,1.0,0.0,1.0,1.0,7523038,2.9753146500000005,79.05999999999999,1975.9896870675966
1765226028079,1000.0,0.0,2.0,25.0,600.0,600.0,352.0,1.6769999999999998,68.8,187.0,6.356999999999999,100.60000000000001,352.0,283.0,0.0,0.0,0.14518,0.002928,1.020164,-0.9100000000000001,0.07,0.07,31.078125,3.29,3.32,3.28,3.28,3.28,3.28,3.28,3.28,3.31,3.31,3.31,3.31,3.28,3.28,3.28,3.29,3.29,3.29,3.29,3.28,3.32,3.32,3.31,3.3,3.32,3.23,56.0,1.0,0.0,1.0,1.0,7523053,2.9753146500000005,79.05999999999999,1976.0020842119716
1765226028096,1000.0,0.0,2.0,25.0,600.0,600.0,352.0,1.6769999999999998,68.8,187.0,6.356999999999999,100.60000000000001,352.0,283.0,0.0,0.0,0.14518,0.002928,1.020164,-0.9100000000000001,0.07,0.07,31.07421875,3.29,3.32,3.28,3.28,3.28,3.28,3.28,3.28,3.31,3.31,3.31,3.31,3.28,3.28,3.28,3.29,3.29,3.29,3.29,3.28,3.32,3.32,3.31,3.3,3.32,3.23,56.0,1.0,0.0,1.0,1.0,7523070,2.9753146500000005,79.05999999999999,1976.0161343089298
1765226028129,1000.0,0.0,2.0,25.0,600.0,600.0,352.0,1.6769999999999998,68.8,187.0,6.356999999999999,100.60000000000001,352.0,283.0,0.0,0.0,0.14518,0.002928,1.020164,-0.9100000000000001,0.07,0.07,31.07421875,3.29,3.32,3.28,3.28,3.28,3.28,3.28,3.28,3.31,3.31,3.31,3.31,3.28,3.28,3.28,3.29,3.29,3.29,3.29,3.28,3.32,3.32,3.31,3.3,3.32,3.23,56.0,1.0,0.0,1.0,1.0,7523103,2.9753146500000005,79.05999999999999,1976.0434080265547
1765226028145,1000.0,0.0,2.0,25.0,600.0,600.0,352.0,1.6769999999999998,68.8,187.0,6.356999999999999,100.60000000000001,352.0,283.0,0.0,0.0,0.14518,0.002928,1.020164,-0.9100000000000001,0.07,0.07,31.07421875,3.29,3.32,3.28,3.28,3.28,3.28,3.28,3.28,3.31,3.31,3.31,3.31,3.28,3.28,3.28,3.29,3.29,3.29,3.29,3.28,3.32,3.32,3.31,3.3,3.32,3.23,56.0,1.0,0.0,1.0,1.0,7523119,2.9753146500000005,79.05999999999999,1976.0566316472214
1765226028162,1000.0,0.0,2.0,25.0,1100.0,1100.0,352.0,1.6769999999999998,68.8,187.0,6.356999999999999,100.60000000000001,352.0,283.0,0.0,0.0,0.14518,0.002928,1.020164,-0.9100000000000001,0.07,0.07,31.07421875,3.29,3.32,3.28,3.28,3.28,3.28,3.28,3.28,3.31,3.31,3.31,3.31,3.28,3.28,3.28,3.29,3.29,3.29,3.29,3.28,3.32,3.32,3.31,3.3,3.32,3.23,56.0,1.0,0.0,1.0,1.0,7523136,2.9753146500000005,79.05999999999999,1976.0706817441796
1765226028181,1000.0,0.0,2.0,25.0,1100.0,1100.0,352.0,1.6769999999999998,68.8,187.0,6.356999999999999,100.60000000000001,204.0,181.0,0.0,0.0,0.10004,-0.0017079999999999999,0.96868,-0.9100000000000001,0.07,0.07,31.07421875,3.29,3.32,3.28,3.28,3.28,3.28,3.28,3.28,3.31,3.31,3.31,3.31,3.28,3.28,3.28,3.29,3.29,3.29,3.29,3.28,3.32,3.32,3.31,3.3,3.32,3.23,56.0,1.0,0.0,1.0,1.0,7523155,2.9753146500000005,79.05999999999999,1976.0863847937212
1765226028214,1000.0,0.0,2.0,25.0,1100.0,1100.0,204.0,7.93,102.60000000000001,187.0,6.356999999999999,100.60000000000001,204.0,181.0,0.0,0.0,0.10004,-0.0017079999999999999,0.96868,-0.9100000000000001,0.07,0.07,31.07421875,3.29,3.32,3.28,3.28,3.28,3.28,3.28,3.28,3.31,3.31,3.31,3.31,3.28,3.28,3.28,3.29,3.29,3.29,3.29,3.28,3.32,3.32,3.31,3.3,3.32,3.23,56.0,1.0,0.0,1.0,1.0,7523188,2.1583451357142858,79.05999999999999,1976.109914067739
1765226028249,1000.0,0.0,2.0,25.0,1100.0,1100.0,204.0,7.93,102.60000000000001,187.0,6.356999999999999,100.60000000000001,204.0,181.0,0.0,0.0,0.10004,-0.0017079999999999999,0.96868,-1.4700000000000002,0.9800000000000001,0.21000000000000002,31.07421875,3.29,3.32,3.28,3.28,3.28,3.28,3.28,3.28,3.31,3.31,3.31,3.31,3.28,3.28,3.28,3.29,3.29,3.29,3.29,3.28,3.32,3.32,3.31,3.3,3.32,3.23,56.0,1.0,0.0,1.0,1.0,7523223,2.1583451357142858,79.05999999999999,1976.1308979787807
1765226028279,1000.0,0.0,2.0,25.0,1100.0,1100.0,204.0,7.93,102.60000000000001,181.0,7.93,110.2,204.0,181.0,0.0,0.0,0.10004,-0.0017079999999999999,0.96868,-1.4700000000000002,0.9800000000000001,0.21000000000000002,31.07421875,3.29,3.32,3.28,3.28,3.28,3.28,3.28,3.28,3.31,3.31,3.31,3.31,3.28,3.28,3.28,3.29,3.29,3.29,3.29,3.28,3.32,3.32,3.31,3.3,3.32,3.23,56.0,1.0,0.0,1.0,1.0,7523253,2.1252247500000006,79.05999999999999,1976.148746186638
1765226028295,1000.0,0.0,2.0,25.0,1100.0,1100.0,204.0,7.93,102.60000000000001,181.0,7.93,110.2,204.0,181.0,0.0,0.0,0.10004,-0.0017079999999999999,0.96868,-1.4700000000000002,0.9800000000000001,0.21000000000000002,31.1015625,3.29,3.32,3.28,3.28,3.28,3.28,3.28,3.28,3.31,3.31,3.31,3.31,3.28,3.28,3.28,3.29,3.29,3.29,3.29,3.28,3.32,3.32,3.31,3.3,3.32,3.23,56.0,1.0,0.0,1.0,1.0,7523269,2.1252247500000006,79.05999999999999,1976.1581916299713
1765226028364,1000.0,0.0,2.0,25.0,1100.0,1100.0,204.0,7.93,102.60000000000001,181.0,7.93,110.2,204.0,181.0,0.0,0.0,0.167872,0.040748,0.980636,-1.4700000000000002,0.9800000000000001,0.21000000000000002,31.1015625,3.29,3.32,3.28,3.28,3.28,3.28,3.28,3.28,3.31,3.31,3.31,3.31,3.28,3.28,3.28,3.29,3.29,3.29,3.29,3.28,3.32,3.32,3.31,3.3,3.32,3.23,56.0,1.0,0.0,1.0,1.0,7523338,2.1252247500000006,79.05999999999999,1976.1989251043462
1765226028379,1000.0,0.0,2.0,25.0,1100.0,1100.0,204.0,7.93,102.60000000000001,181.0,7.93,110.2,204.0,181.0,0.0,0.0,0.167872,0.040748,0.980636,-0.77,-0.77,-0.56,31.1015625,3.29,3.32,3.28,3.28,3.28,3.28,3.28,3.28,3.31,3.31,3.31,3.31,3.28,3.28,3.28,3.29,3.29,3.29,3.29,3.28,3.32,3.32,3.31,3.3,3.32,3.23,56.0,1.0,0.0,1.0,1.0,7523353,2.1252247500000006,79.05999999999999,1976.2077802074712
1765226028398,1000.0,0.0,2.0,25.0,1100.0,1100.0,204.0,7.93,102.60000000000001,181.0,7.93,110.2,204.0,181.0,0.0,0.0,0.167872,0.040748,0.980636,-0.77,-0.77,-0.56,31.12890625,3.29,3.32,3.28,3.28,3.28,3.28,3.28,3.28,3.31,3.31,3.31,3.31,3.28,3.28,3.28,3.29,3.29,3.29,3.29,3.28,3.32,3.32,3.31,3.3,3.32,3.23,56.0,1.0,0.0,1.0,1.0,7523372,2.1252247500000006,79.05999999999999,1976.2189966714295
1765226028432,1000.0,0.0,2.0,25.0,1100.0,1100.0,204.0,7.93,102.60000000000001,181.0,7.93,110.2,204.0,181.0,0.0,0.0,0.167872,0.040748,0.980636,-0.77,-0.77,-0.56,31.12890625,3.29,3.32,3.28,3.28,3.28,3.28,3.28,3.28,3.31,3.31,3.31,3.31,3.28,3.28,3.28,3.29,3.29,3.29,3.29,3.28,3.32,3.32,3.31,3.3,3.32,3.23,56.0,1.0,0.0,1.0,1.0,7523406,2.1252247500000006,79.05999999999999,1976.2390682385128
1765226028445,1000.0,0.0,2.0,25.0,1300.0,1300.0,204.0,7.93,102.60000000000001,181.0,7.93,110.2,204.0,181.0,0.0,0.0,0.167872,0.040748,0.980636,-0.77,-0.77,-0.56,31.12890625,3.29,3.32,3.28,3.28,3.28,3.28,3.28,3.28,3.31,3.31,3.31,3.31,3.28,3.28,3.28,3.29,3.29,3.29,3.29,3.28,3.32,3.32,3.31,3.3,3.32,3.23,56.0,1.0,0.0,1.0,1.0,7523419,2.1252247500000006,79.05999999999999,1976.246742661221
1765226028462,1000.0,0.0,2.0,25.0,1300.0,1300.0,204.0,7.93,102.60000000000001,181.0,7.93,110.2,208.0,184.0,0.0,0.0,0.167872,0.040748,0.980636,-0.77,-0.77,-0.56,31.12890625,3.29,3.32,3.28,3.28,3.28,3.28,3.28,3.28,3.31,3.31,3.31,3.31,3.28,3.28,3.28,3.29,3.29,3.29,3.29,3.28,3.32,3.32,3.31,3.3,3.32,3.23,56.0,1.0,0.0,1.0,1.0,7523436,2.1252247500000006,79.05999999999999,1976.2567784447629
1765226028497,1000.0,0.0,2.0,25.0,1300.0,1300.0,208.0,7.981999999999999,114.80000000000001,181.0,7.93,110.2,208.0,184.0,0.0,0.0,0.167872,0.040748,0.980636,-0.77,-0.77,-0.56,31.12890625,3.29,3.32,3.28,3.28,3.28,3.28,3.28,3.28,3.31,3.31,3.31,3.31,3.28,3.28,3.28,3.29,3.29,3.29,3.29,3.28,3.32,3.32,3.31,3.3,3.32,3.23,56.0,1.0,0.0,1.0,1.0,7523471,2.1473050071428577,79.05999999999999,1976.277547686638
1765226028515,1000.0,0.0,2.0,25.0,1300.0,1300.0,208.0,7.981999999999999,114.80000000000001,181.0,7.93,110.2,208.0,184.0,0.0,0.0,0.167872,0.040748,0.980636,-0.77,-0.77,-0.56,31.12890625,3.28,3.32,3.22,3.25,3.28,3.28,3.28,3.28,3.31,3.31,3.31,3.31,3.28,3.28,3.28,3.29,3.29,3.29,3.29,3.28,3.32,3.32,3.31,3.3,3.32,3.23,56.0,1.0,0.0,1.0,1.0,7523489,2.1473050071428577,78.96,1976.2882842116737
1765226028531,1000.0,0.0,2.0,25.0,1300.0,1300.0,208.0,7.981999999999999,114.80000000000001,181.0,7.93,110.2,208.0,184.0,0.0,0.0,0.167872,0.040748,0.980636,-0.77,-0.77,-0.56,31.12890625,3.28,3.32,3.22,3.25,3.26,3.26,3.19,3.25,3.31,3.31,3.31,3.31,3.28,3.28,3.28,3.29,3.29,3.29,3.29,3.28,3.32,3.32,3.31,3.3,3.32,3.23,56.0,1.0,0.0,1.0,1.0,7523505,2.1473050071428577,78.79999999999998,1976.2978277894833
1765226028565,1000.0,0.0,2.0,25.0,1700.0,1700.0,208.0,7.981999999999999,114.80000000000001,181.0,7.93,110.2,208.0,184.0,0.0,0.0,0.167872,0.040748,0.980636,-0.77,-0.77,-0.56,31.12890625,3.28,3.32,3.22,3.25,3.26,3.26,3.19,3.25,3.31,3.31,3.31,3.31,3.28,3.28,3.28,3.29,3.29,3.29,3.29,3.28,3.32,3.32,3.31,3.3,3.32,3.23,56.0,1.0,0.0,1.0,1.0,7523539,2.1473050071428577,78.79999999999998,1976.3181078923285
1765226028579,1000.0,0.0,2.0,25.0,1700.0,1700.0,208.0,7.981999999999999,114.80000000000001,181.0,7.93,110.2,328.0,327.0,0.0,0.0,0.167872,0.040748,0.980636,-0.77,-0.77,-0.56,31.12890625,3.28,3.32,3.22,3.25,3.26,3.26,3.19,3.25,3.31,3.31,3.31,3.31,3.28,3.28,3.28,3.29,3.29,3.29,3.29,3.28,3.32,3.32,3.31,3.3,3.32,3.23,56.0,1.0,0.0,1.0,1.0,7523553,2.1473050071428577,78.79999999999998,1976.326458522912
1765226028597,1000.0,0.0,2.0,25.0,1700.0,1700.0,208.0,7.981999999999999,114.80000000000001,181.0,7.93,110.2,328.0,327.0,0.0,0.0,0.167872,0.040748,0.980636,-1.9600000000000002,-1.12,1.1900000000000002,31.12890625,3.28,3.32,3.22,3.25,3.26,3.26,3.19,3.25,3.31,3.31,3.31,3.31,3.28,3.28,3.28,3.29,3.29,3.29,3.29,3.28,3.32,3.32,3.31,3.3,3.32,3.23,56.0,1.0,0.0,1.0,1.0,7523571,2.1473050071428577,78.79999999999998,1976.3371950479477
1765226028614,1000.0,0.0,2.0,25.0,1700.0,1700.0,328.0,13.481,178.5,181.0,7.93,110.2,328.0,327.0,0.0,0.0,0.167872,0.040748,0.980636,-1.9600000000000002,-1.12,1.1900000000000002,31.12890625,3.28,3.32,3.22,3.25,3.26,3.26,3.19,3.25,3.31,3.31,3.31,3.31,3.28,3.28,3.28,3.29,3.29,3.29,3.29,3.28,3.32,3.32,3.31,3.3,3.32,3.23,56.0,1.0,0.0,1.0,1.0,7523588,2.8097127214285718,78.79999999999998,1976.3488991175846
1765226028662,1000.0,0.0,2.0,25.0,1700.0,1700.0,328.0,13.481,178.5,181.0,7.93,110.2,328.0,327.0,0.0,0.0,0.167872,0.040748,0.980636,-1.9600000000000002,-1.12,1.1900000000000002,31.06640625,3.28,3.32,3.22,3.25,3.26,3.26,3.19,3.25,3.31,3.31,3.31,3.31,3.28,3.28,3.28,3.29,3.29,3.29,3.29,3.28,3.32,3.32,3.31,3.3,3.32,3.23,56.0,1.0,0.0,1.0,1.0,7523636,2.8097127214285718,78.79999999999998,1976.3863619538702
1765226028681,1000.0,0.0,2.0,25.0,1700.0,1700.0,328.0,13.481,178.5,327.0,13.221,176.9,328.0,327.0,0.0,0.0,0.167872,0.040748,0.980636,-1.9600000000000002,-1.12,1.1900000000000002,31.06640625,3.28,3.32,3.22,3.25,3.26,3.26,3.19,3.25,3.31,3.31,3.31,3.31,3.28,3.28,3.28,3.29,3.29,3.29,3.29,3.28,3.32,3.32,3.31,3.3,3.32,3.23,56.0,1.0,0.0,1.0,1.0,7523655,3.615642107142858,78.79999999999998,1976.4033177513345
1765226028713,1000.0,0.0,2.0,25.0,1700.0,1700.0,328.0,13.481,178.5,327.0,13.221,176.9,328.0,327.0,0.0,0.0,0.167872,0.040748,0.980636,-1.9600000000000002,-1.12,1.1900000000000002,31.06640625,3.27,3.31,3.1,3.21,3.26,3.26,3.19,3.25,3.31,3.31,3.31,3.31,3.28,3.28,3.28,3.29,3.29,3.29,3.29,3.28,3.32,3.32,3.31,3.3,3.32,3.23,56.0,1.0,0.0,1.0,1.0,7523687,3.615642107142858,78.61999999999999,1976.435456792287
1765226028729,1000.0,0.0,2.0,25.0,1700.0,1700.0,328.0,13.481,178.5,327.0,13.221,176.9,328.0,327.0,0.0,0.0,0.167872,0.040748,0.980636,-1.9600000000000002,-1.12,1.1900000000000002,31.06640625,3.27,3.31,3.1,3.21,3.24,3.22,2.97,3.19,3.31,3.31,3.31,3.31,3.28,3.28,3.28,3.29,3.29,3.29,3.29,3.28,3.32,3.32,3.31,3.3,3.32,3.23,56.0,1.0,0.0,1.0,1.0,7523703,3.615642107142858,78.27999999999999,1976.451526312763
1765226028766,1000.0,0.0,2.0,25.0,1700.0,1700.0,328.0,13.481,178.5,327.0,13.221,176.9,328.0,327.0,0.0,0.0,0.167872,0.040748,0.980636,-1.9600000000000002,-1.12,1.1900000000000002,31.06640625,3.27,3.31,3.1,3.21,3.24,3.22,2.97,3.19,3.28,3.27,3.24,3.27,3.28,3.28,3.28,3.29,3.29,3.29,3.29,3.28,3.32,3.32,3.31,3.3,3.32,3.23,56.0,1.0,0.0,1.0,1.0,7523740,3.615642107142858,78.1,1976.4886870788641
1765226028781,1000.0,0.0,2.0,25.0,1700.0,1700.0,328.0,13.481,178.5,327.0,13.221,176.9,328.0,327.0,0.0,0.0,0.167872,0.040748,0.980636,-1.9600000000000002,-1.12,1.1900000000000002,31.06640625,3.27,3.31,3.1,3.21,3.24,3.22,2.97,3.19,3.28,3.27,3.24,3.27,3.26,3.21,2.89,3.27,3.28,3.14,3.15,3.24,3.32,3.32,3.31,3.3,3.32,3.23,56.0,1.0,0.0,1.0,1.0,7523755,3.615642107142858,77.25999999999999,1976.5037522543105
1765226028812,1000.0,0.0,2.0,25.0,1700.0,1700.0,328.0,13.481,178.5,327.0,13.221,176.9,328.0,327.0,0.0,0.0,0.167872,0.040748,0.980636,-1.9600000000000002,-1.12,1.1900000000000002,31.06640625,3.27,3.31,3.1,3.21,3.24,3.22,2.97,3.19,3.28,3.27,3.24,3.27,3.26,3.21,2.89,3.27,3.28,3.14,3.15,3.24,3.3,3.28,3.22,3.23,3.32,3.23,56.0,1.0,0.0,1.0,1.0,7523786,3.615642107142858,77.04,1976.5348869502332
1765226028829,1000.0,0.0,2.0,25.0,1700.0,1700.0,328.0,13.481,178.5,327.0,13.221,176.9,328.0,327.0,0.0,0.0,0.28548,0.033672,0.9624579999999999,-1.9600000000000002,-1.12,1.1900000000000002,31.06640625,3.27,3.31,3.1,3.21,3.24,3.22,2.97,3.19,3.28,3.27,3.24,3.27,3.26,3.21,2.89,3.27,3.28,3.14,3.15,3.24,3.3,3.28,3.22,3.23,3.32,3.23,56.0,1.0,0.0,1.0,1.0,7523803,3.615642107142858,77.04,1976.5519608157392
1765226028846,1000.0,0.0,2.0,25.0,1700.0,1700.0,328.0,13.481,178.5,327.0,13.221,176.9,328.0,327.0,0.0,0.0,0.28548,0.033672,0.9624579999999999,-2.24,0.07,-0.49000000000000005,31.06640625,3.27,3.31,3.1,3.21,3.24,3.22,2.97,3.19,3.28,3.27,3.24,3.27,3.26,3.21,2.89,3.27,3.28,3.14,3.15,3.24,3.3,3.28,3.22,3.23,3.32,3.23,56.0,1.0,0.0,1.0,1.0,7523820,3.615642107142858,77.04,1976.5690346812453
1765226028879,847.0,0.0,2.0,25.0,1700.0,1700.0,328.0,13.481,178.5,327.0,13.221,176.9,328.0,327.0,0.0,0.0,0.28548,0.033672,0.9624579999999999,-2.24,0.07,-0.49000000000000005,31.06640625,3.27,3.31,3.1,3.21,3.24,3.22,2.97,3.19,3.28,3.27,3.24,3.27,3.26,3.21,2.89,3.27,3.28,3.14,3.15,3.24,3.3,3.28,3.22,3.23,3.32,3.23,56.0,1.0,0.0,1.0,1.0,7523853,3.615642107142858,77.04,1976.6021780672274
1765226028896,847.0,0.0,2.0,25.0,1700.0,1700.0,328.0,13.481,178.5,327.0,13.221,176.9,328.0,327.0,0.0,0.0,0.28548,0.033672,0.9624579999999999,-2.24,0.07,-0.49000000000000005,31.10546875,3.27,3.31,3.1,3.21,3.24,3.22,2.97,3.19,3.28,3.27,3.24,3.27,3.26,3.21,2.89,3.27,3.28,3.14,3.15,3.24,3.3,3.28,3.22,3.23,3.32,3.23,56.0,1.0,0.0,1.0,1.0,7523870,3.615642107142858,77.04,1976.6192519327335
1765226028914,847.0,0.0,2.0,25.0,1900.0,1900.0,328.0,13.481,178.5,327.0,13.221,176.9,328.0,327.0,0.0,0.0,0.28548,0.033672,0.9624579999999999,-2.24,0.07,-0.49000000000000005,31.10546875,3.27,3.31,3.1,3.21,3.24,3.22,2.97,3.19,3.28,3.27,3.24,3.27,3.26,3.21,2.89,3.27,3.28,3.14,3.15,3.24,3.3,3.28,3.22,3.23,3.32,3.23,56.0,1.0,0.0,1.0,1.0,7523888,3.615642107142858,77.04,1976.6373301432693
1765226028930,847.0,0.0,2.0,25.0,1900.0,1900.0,328.0,13.481,178.5,327.0,13.221,176.9,381.0,379.0,0.0,0.0,0.28548,0.033672,0.9624579999999999,-2.24,0.07,-0.49000000000000005,31.10546875,3.27,3.31,3.1,3.21,3.24,3.22,2.97,3.19,3.28,3.27,3.24,3.27,3.26,3.21,2.89,3.27,3.28,3.14,3.15,3.24,3.3,3.28,3.22,3.23,3.32,3.23,56.0,1.0,0.0,1.0,1.0,7523904,3.615642107142858,77.04,1976.6533996637454
1765226028947,847.0,0.0,2.0,25.0,1900.0,1900.0,381.0,15.405,200.10000000000002,327.0,13.221,176.9,381.0,379.0,0.0,0.0,0.28548,0.033672,0.9624579999999999,-2.24,0.07,-0.49000000000000005,31.10546875,3.27,3.31,3.1,3.21,3.24,3.22,2.97,3.19,3.28,3.27,3.24,3.27,3.26,3.21,2.89,3.27,3.28,3.14,3.15,3.24,3.3,3.28,3.22,3.23,3.32,3.23,56.0,1.0,0.0,1.0,1.0,7523921,3.9082055142857146,77.04,1976.6711643039628
1765226029014,847.0,0.0,2.0,25.0,1900.0,1900.0,381.0,15.405,200.10000000000002,379.0,15.431,196.60000000000002,381.0,379.0,0.0,0.0,0.28548,0.033672,0.9624579999999999,-2.24,0.07,-0.49000000000000005,31.10546875,3.27,3.31,3.1,3.21,3.24,3.22,2.97,3.19,3.28,3.27,3.24,3.27,3.26,3.21,2.89,3.27,3.28,3.14,3.15,3.24,3.3,3.28,3.22,3.23,3.32,3.23,56.0,1.0,0.0,1.0,1.0,7523988,4.1952488571428574,77.04,1976.746571448808
1765226029080,847.0,0.0,2.0,25.0,1900.0,1900.0,381.0,15.405,200.10000000000002,379.0,15.431,196.60000000000002,381.0,379.0,0.0,0.0,0.328912,-0.049532,0.919636,-1.9600000000000002,-3.7100000000000004,-2.0300000000000002,31.10546875,3.27,3.31,3.1,3.21,3.24,3.22,2.97,3.19,3.28,3.27,3.24,3.27,3.26,3.21,2.89,3.27,3.28,3.14,3.15,3.24,3.3,3.28,3.22,3.23,3.32,3.23,56.0,1.0,0.0,1.0,1.0,7524054,4.1952488571428574,77.04,1976.8234843445223
1765226029113,847.0,0.0,2.0,25.0,1900.0,1900.0,381.0,15.405,200.10000000000002,379.0,15.431,196.60000000000002,381.0,379.0,0.0,0.0,0.328912,-0.049532,0.919636,-1.9600000000000002,-3.7100000000000004,-2.0300000000000002,31.08984375,3.27,3.31,3.1,3.21,3.24,3.22,2.97,3.19,3.28,3.27,3.24,3.27,3.26,3.21,2.89,3.27,3.28,3.14,3.15,3.24,3.3,3.28,3.22,3.23,3.32,3.23,56.0,1.0,0.0,1.0,1.0,7524087,4.1952488571428574,77.04,1976.8619407923795
1765226029146,847.0,0.0,2.0,25.0,1900.0,1900.0,381.0,15.405,200.10000000000002,379.0,15.431,196.60000000000002,381.0,379.0,0.0,0.0,0.394914,-0.01952,1.166808,-1.9600000000000002,-3.7100000000000004,-2.0300000000000002,31.08984375,3.27,3.31,3.1,3.21,3.24,3.22,2.97,3.19,3.28,3.27,3.24,3.27,3.26,3.21,2.89,3.27,3.28,3.14,3.15,3.24,3.3,3.28,3.22,3.23,3.32,3.23,56.0,1.0,0.0,1.0,1.0,7524120,4.1952488571428574,77.04,1976.9003972402368
1765226029164,847.0,0.0,2.0,25.0,1900.0,1900.0,381.0,15.405,200.10000000000002,379.0,15.431,196.60000000000002,381.0,379.0,0.0,0.0,0.394914,-0.01952,1.166808,-1.9600000000000002,-3.7100000000000004,-2.0300000000000002,31.078125,3.27,3.31,3.1,3.21,3.24,3.22,2.97,3.19,3.28,3.27,3.24,3.27,3.26,3.21,2.89,3.27,3.28,3.14,3.15,3.24,3.3,3.28,3.22,3.23,3.32,3.23,56.0,1.0,0.0,1.0,1.0,7524138,4.1952488571428574,77.04,1976.9213734845225
1765226029214,847.0,0.0,2.0,25.0,1900.0,1900.0,381.0,15.405,200.10000000000002,379.0,15.431,196.60000000000002,381.0,379.0,0.0,0.0,0.356728,-0.031964,1.00284,-1.9600000000000002,-3.7100000000000004,-2.0300000000000002,31.078125,3.27,3.31,3.1,3.21,3.24,3.22,2.97,3.19,3.28,3.27,3.24,3.27,3.26,3.21,2.89,3.27,3.28,3.14,3.15,3.24,3.3,3.28,3.22,3.23,3.32,3.23,56.0,1.0,0.0,1.0,1.0,7524188,4.1952488571428574,77.04,1976.9796408297607
1765226029232,847.0,0.0,2.0,25.0,1900.0,1900.0,381.0,15.405,200.10000000000002,379.0,15.431,196.60000000000002,381.0,379.0,0.0,0.0,0.356728,-0.031964,1.00284,-0.6300000000000001,-3.3600000000000003,-0.77,31.078125,3.27,3.31,3.1,3.21,3.24,3.22,2.97,3.19,3.28,3.27,3.24,3.27,3.26,3.21,2.89,3.27,3.28,3.14,3.15,3.24,3.3,3.28,3.22,3.23,3.32,3.23,56.0,1.0,0.0,1.0,1.0,7524206,4.1952488571428574,77.04,1977.0006170740464
1765226029245,847.0,0.0,2.0,25.0,1900.0,1900.0,381.0,15.405,200.10000000000002,379.0,15.431,196.60000000000002,381.0,379.0,0.0,0.0,0.356728,-0.031964,1.00284,-0.6300000000000001,-3.3600000000000003,-0.77,31.1171875,3.27,3.31,3.1,3.21,3.24,3.22,2.97,3.19,3.28,3.27,3.24,3.27,3.26,3.21,2.89,3.27,3.28,3.14,3.15,3.24,3.3,3.28,3.22,3.23,3.32,3.23,56.0,1.0,0.0,1.0,1.0,7524219,4.1952488571428574,77.04,1977.0157665838083
1765226029263,847.0,0.0,2.0,25.0,1900.0,1900.0,381.0,15.405,200.10000000000002,379.0,15.431,196.60000000000002,381.0,379.0,0.0,0.0,0.356728,-0.031964,1.00284,-0.6300000000000001,-3.3600000000000003,-0.77,31.1171875,3.27,3.31,3.1,3.21,3.24,3.22,2.97,3.19,3.28,3.27,3.24,3.27,3.26,3.21,2.89,3.27,3.28,3.14,3.15,3.24,3.3,3.28,3.22,3.23,3.32,3.23,56.0,1.0,0.0,1.0,1.0,7524237,4.1952488571428574,77.04,1977.036742828094
1765226029280,847.0,0.0,2.0,25.0,1900.0,1900.0,381.0,15.405,200.10000000000002,379.0,15.431,196.60000000000002,381.0,379.0,0.0,0.0,0.356728,-0.031964,1.00284,-0.6300000000000001,-3.3600000000000003,-0.77,31.1171875,3.27,3.31,3.1,3.21,3.24,3.22,2.97,3.19,3.28,3.27,3.24,3.27,3.26,3.21,2.89,3.27,3.28,3.14,3.15,3.24,3.3,3.28,3.22,3.23,3.32,3.23,56.0,1.0,0.0,1.0,1.0,7524254,4.1952488571428574,77.04,1977.056553725475
1765226029297,847.0,0.0,2.0,25.0,2300.0,2300.0,381.0,15.405,200.10000000000002,379.0,15.431,196.60000000000002,381.0,379.0,0.0,0.0,0.356728,-0.031964,1.00284,-0.6300000000000001,-3.3600000000000003,-0.77,31.1171875,3.27,3.31,3.1,3.21,3.24,3.22,2.97,3.19,3.28,3.27,3.24,3.27,3.26,3.21,2.89,3.27,3.28,3.14,3.15,3.24,3.3,3.28,3.22,3.23,3.32,3.23,56.0,1.0,0.0,1.0,1.0,7524271,4.1952488571428574,77.04,1977.0763646228559
