timestamp,THROTTLE,BRAKE,ECU_MODE_ID,TORQUE_GAIN,TORQUE_REF_LEFT_MOTOR,TORQUE_REF_RIGHT_MOTOR,LEFT_MOTOR_RPM,LEFT_MOTOR_TORQUE,LEFT_MOTOR_CURRENT,RIGHT_MOTOR_RPM,RIGHT_MOTOR_TORQUE,RIGHT_MOTOR_CURRENT,REAR_LEFT_WHEEL_SPEED,REAR_RIGHT_WHEEL_SPEED,FRONT_LEFT_WHEEL_SPEED,FRONT_RIGHT_WHEEL_SPEED,ACCEL_LONGITUDINAL,ACCEL_LATERAL,ACCEL_NORMAL,VEL_ANGULAR_YAW,VEL_ANGULAR_PITCH,VEL_ANGULAR_ROLL,ELETROBUILD_TEMPERATURE,STACK_1_CELL_1,STACK_1_CELL_2,STACK_1_CELL_3,STACK_1_CELL_4,STACK_2_CELL_1,STACK_2_CELL_2,STACK_2_CELL_3,STACK_2_CELL_4,STACK_3_CELL_1,STACK_3_CELL_2,STACK_3_CELL_3,STACK_3_CELL_4,STACK_4_CELL_1,STACK_4_CELL_2,STACK_4_CELL_3,STACK_4_CELL_4,STACK_5_CELL_1,STACK_5_CELL_2,STACK_5_CELL_3,STACK_5_CELL_4,STACK_6_CELL_1,STACK_6_CELL_2,STACK_6_CELL_3,STACK_6_CELL_4,MAX_VOLTAGE,MIN_VOLTAGE,SHUNT_CURRENT,BMS_MODE_ID,BMS_ERROR_ID,AIR_P,AIR_N,t,VEHICLE_SPEED,TOTAL_VOLTAGE,HODOMETRO
1765227705005,0.0,0.0,0.0,0.0,0.0,0.0,3889.0,21.801,174.9,0.0,0.0,0.0,3889.0,3892.0,0.0,0.0,-0.202764,0.243756,0.789828,44.730000000000004,-2.3800000000000003,-3.1500000000000004,31.26171875,3.27,3.31,3.24,3.25,3.26,3.27,3.26,3.26,3.29,3.29,3.29,3.28,3.26,3.27,3.26,3.29,3.27,3.27,3.27,3.27,3.3,3.3,3.29,3.27,3.31,3.23,0.0,1.0,2.0,0.0,0.0,9199979,21.46753000714286,78.59,2074.0479472704715
1765227705038,0.0,0.0,0.0,0.0,0.0,0.0,3889.0,21.801,174.9,0.0,0.0,0.0,3889.0,3892.0,0.0,0.0,-0.01586,-0.0008539999999999999,0.995154,44.730000000000004,-2.3800000000000003,-3.1500000000000004,31.26171875,3.27,3.31,3.24,3.25,3.26,3.27,3.26,3.26,3.29,3.29,3.29,3.28,3.26,3.27,3.26,3.29,3.27,3.27,3.27,3.27,3.3,3.3,3.29,3.27,3.31,3.23,0.0,1.0,2.0,0.0,0.0,9200012,21.46753000714286,78.59,2074.0479472704715
1765227705079,0.0,0.0,0.0,0.0,0.0,0.0,3889.0,21.801,174.9,0.0,0.0,0.0,3889.0,3892.0,0.0,0.0,-0.01586,-0.0008539999999999999,0.995154,-0.7000000000000001,0.56,0.0,31.26171875,3.27,3.31,3.24,3.25,3.26,3.27,3.26,3.26,3.29,3.29,3.29,3.28,3.26,3.27,3.26,3.29,3.27,3.27,3.27,3.27,3.3,3.3,3.29,3.27,3.31,3.23,0.0,1.0,2.0,0.0,0.0,9200053,21.46753000714286,78.59,2074.0479472704715
1765227705096,0.0,0.0,0.0,0.0,0.0,0.0,3889.0,21.801,174.9,0.0,0.0,0.0,3889.0,3892.0,0.0,0.0,-0.01586,-0.0008539999999999999,0.995154,-0.7000000000000001,0.56,0.0,30.4609375,3.27,3.31,3.24,3.25,3.26,3.27,3.26,3.26,3.29,3.29,3.29,3.28,3.26,3.27,3.26,3.29,3.27,3.27,3.27,3.27,3.3,3.3,3.29,3.27,3.31,3.23,0.0,1.0,2.0,0.0,0.0,9200070,21.46753000714286,78.59,2074.0479472704715
1765227705122,0.0,0.0,0.0,0.0,0.0,0.0,3889.0,21.801,174.9,0.0,0.0,0.0,3889.0,3892.0,0.0,0.0,-0.015616,-0.001098,0.9916159999999999,-0.7000000000000001,0.56,0.0,30.4609375,3.27,3.31,3.24,3.25,3.26,3.27,3.26,3.26,3.29,3.29,3.29,3.28,3.26,3.27,3.26,3.29,3.27,3.27,3.27,3.27,3.3,3.3,3.29,3.27,3.31,3.23,0.0,1.0,2.0,0.0,0.0,9200096,21.46753000714286,78.59,2074.0479472704715
1765227705138,0.0,0.0,0.0,0.0,0.0,0.0,3889.0,21.801,174.9,0.0,0.0,0.0,3889.0,3892.0,0.0,0.0,-0.015616,-0.001098,0.9916159999999999,-0.6300000000000001,0.35000000000000003,0.0,30.4609375,3.27,3.31,3.24,3.25,3.26,3.27,3.26,3.26,3.29,3.29,3.29,3.28,3.26,3.27,3.26,3.29,3.27,3.27,3.27,3.27,3.3,3.3,3.29,3.27,3.31,3.23,0.0,1.0,2.0,0.0,0.0,9200112,21.46753000714286,78.59,2074.0479472704715
1765227705164,0.0,0.0,0.0,0.0,0.0,0.0,3889.0,21.801,174.9,0.0,0.0,0.0,3889.0,3892.0,0.0,0.0,-0.015616,-0.001098,0.9916159999999999,-0.6300000000000001,0.35000000000000003,0.0,30.4609375,3.27,3.31,3.24,3.25,3.26,3.27,3.26,3.26,3.29,3.29,3.29,3.28,3.26,3.27,3.26,3.29,3.27,3.27,3.27,3.27,3.3,3.3,3.29,3.27,3.31,3.23,0.0,1.0,2.0,0.0,0.0,9200138,21.46753000714286,78.59,2074.0479472704715
1765227705174,0.0,0.0,1.0,10.0,0.0,0.0,3889.0,21.801,174.9,0.0,0.0,0.0,3889.0,3892.0,0.0,0.0,-0.015616,-0.001098,0.9916159999999999,-0.6300000000000001,0.35000000000000003,0.0,30.4609375,3.27,3.31,3.24,3.25,3.26,3.27,3.26,3.26,3.29,3.29,3.29,3.28,3.26,3.27,3.26,3.29,3.27,3.27,3.27,3.27,3.3,3.3,3.29,3.27,3.31,3.23,0.0,1.0,2.0,0.0,0.0,9200148,21.46753000714286,78.59,2074.0479472704715
1765227705181,0.0,0.0,1.0,10.0,0.0,0.0,3889.0,21.801,174.9,0.0,0.0,0.0,3889.0,3892.0,0.0,0.0,-0.015616,-0.001098,0.9916159999999999,-0.6300000000000001,0.35000000000000003,0.0,30.46484375,3.27,3.31,3.24,3.25,3.26,3.27,3.26,3.26,3.29,3.29,3.29,3.28,3.26,3.27,3.26,3.29,3.27,3.27,3.27,3.27,3.3,3.3,3.29,3.27,3.31,3.23,0.0,1.0,2.0,0.0,0.0,9200155,21.46753000714286,78.59,2074.0479472704715
1765227705205,0.0,0.0,1.0,10.0,0.0,0.0,3889.0,21.801,174.9,0.0,0.0,0.0,3889.0,3892.0,0.0,0.0,-0.015616,-0.001098,0.9916159999999999,-0.6300000000000001,0.35000000000000003,0.0,30.46484375,3.27,3.31,3.24,3.25,3.26,3.27,3.26,3.26,3.29,3.29,3.29,3.28,3.26,3.27,3.26,3.29,3.27,3.27,3.27,3.27,3.3,3.3,3.29,3.27,3.31,3.23,0.0,1.0,2.0,0.0,0.0,9200179,21.46753000714286,78.59,2074.0479472704715
1765227705238,0.0,0.0,1.0,10.0,0.0,0.0,3889.0,21.801,174.9,0.0,0.0,0.0,3889.0,3892.0,0.0,0.0,-0.016226,-0.000732,0.993934,-0.6300000000000001,0.35000000000000003,0.0,30.46484375,3.27,3.31,3.24,3.25,3.26,3.27,3.26,3.26,3.29,3.29,3.29,3.28,3.26,3.27,3.26,3.29,3.27,3.27,3.27,3.27,3.3,3.3,3.29,3.27,3.31,3.23,0.0,1.0,2.0,0.0,0.0,9200212,21.46753000714286,78.59,2074.0479472704715
1765227705248,0.0,0.0,1.0,10.0,0.0,0.0,3889.0,21.801,174.9,0.0,0.0,0.0,3889.0,3892.0,0.0,0.0,-0.016226,-0.000732,0.993934,-0.7000000000000001,0.35000000000000003,0.0,30.46484375,3.27,3.31,3.24,3.25,3.26,3.27,3.26,3.26,3.29,3.29,3.29,3.28,3.26,3.27,3.26,3.29,3.27,3.27,3.27,3.27,3.3,3.3,3.29,3.27,3.31,3.23,0.0,1.0,2.0,0.0,0.0,9200222,21.46753000714286,78.59,2074.0479472704715
1765227705273,0.0,0.0,1.0,10.0,0.0,0.0,3889.0,21.801,174.9,0.0,0.0,0.0,3889.0,3892.0,0.0,0.0,-0.016226,-0.000732,0.993934,-0.7000000000000001,0.35000000000000003,0.0,30.47265625,3.27,3.31,3.24,3.25,3.26,3.27,3.26,3.26,3.29,3.29,3.29,3.28,3.26,3.27,3.26,3.29,3.27,3.27,3.27,3.27,3.3,3.3,3.29,3.27,3.31,3.23,0.0,1.0,2.0,0.0,0.0,9200247,21.46753000714286,78.59,2074.0479472704715
1765227705306,0.0,0.0,1.0,10.0,0.0,0.0,3889.0,21.801,174.9,0.0,0.0,0.0,3889.0,3892.0,0.0,0.0,-0.016226,-0.000732,0.993934,-0.7000000000000001,0.35000000000000003,0.0,30.47265625,3.27,3.31,3.24,3.25,3.26,3.27,3.26,3.26,3.29,3.29,3.29,3.28,3.26,3.27,3.26,3.29,3.27,3.27,3.27,3.27,3.3,3.3,3.29,3.27,3.31,3.23,0.0,1.0,2.0,0.0,0.0,9200280,21.46753000714286,78.59,2074.0479472704715
1765227705314,0.0,0.0,1.0,10.0,0.0,0.0,3889.0,21.801,174.9,0.0,0.0,0.0,3889.0,3892.0,0.0,0.0,-0.016226,-0.000732,0.993934,-0.7000000000000001,0.35000000000000003,0.0,30.47265625,3.27,3.31,3.24,3.25,3.26,3.27,3.26,3.26,3.29,3.29,3.29,3.28,3.26,3.27,3.26,3.29,3.27,3.27,3.27,3.27,3.3,3.3,3.29,3.27,3.31,3.23,0.0,1.0,2.0,0.0,0.0,9200288,21.46753000714286,78.59,2074.0479472704715
1765227705323,0.0,0.0,1.0,10.0,0.0,0.0,3889.0,21.801,174.9,0.0,0.0,0.0,3889.0,3892.0,0.0,0.0,-0.016226,-0.000732,0.993934,-0.7000000000000001,0.35000000000000003,0.0,30.47265625,3.27,3.31,3.24,3.25,3.26,3.27,3.26,3.26,3.29,3.29,3.29,3.28,3.26,3.27,3.26,3.29,3.27,3.27,3.27,3.27,3.3,3.3,3.29,3.27,3.31,3.23,0.0,1.0,2.0,0.0,0.0,9200297,21.46753000714286,78.59,2074.0479472704715
1765227705339,0.0,0.0,1.0,10.0,0.0,0.0,3889.0,21.801,174.9,0.0,0.0,0.0,0.0,0.0,0.0,0.0,-0.016226,-0.000732,0.993934,-0.7000000000000001,0.35000000000000003,0.0,30.47265625,3.27,3.31,3.24,3.25,3.26,3.27,3.26,3.26,3.29,3.29,3.29,3.28,3.26,3.27,3.26,3.29,3.27,3.27,3.27,3.27,3.3,3.3,3.29,3.27,3.31,3.23,0.0,1.0,2.0,0.0,0.0,9200313,21.46753000714286,78.59,2074.0479472704715
1765227705365,0.0,0.0,1.0,10.0,0.0,0.0,3889.0,21.801,174.9,0.0,0.0,0.0,0.0,0.0,0.0,0.0,-0.013908,0.0023179999999999997,0.99186,-0.7000000000000001,0.35000000000000003,0.0,30.47265625,3.27,3.31,3.24,3.25,3.26,3.27,3.26,3.26,3.29,3.29,3.29,3.28,3.26,3.27,3.26,3.29,3.27,3.27,3.27,3.27,3.3,3.3,3.29,3.27,3.31,3.23,0.0,1.0,2.0,0.0,0.0,9200339,21.46753000714286,78.59,2074.0479472704715
1765227705383,0.0,0.0,1.0,10.0,0.0,0.0,0.0,0.0,0.0,0.0,0.0,0.0,0.0,0.0,0.0,0.0,-0.013908,0.0023179999999999997,0.99186,-0.7000000000000001,0.35000000000000003,0.0,30.47265625,3.27,3.31,3.24,3.25,3.26,3.27,3.26,3.26,3.29,3.29,3.29,3.28,3.26,3.27,3.26,3.29,3.27,3.27,3.27,3.27,3.3,3.3,3.29,3.27,3.31,3.23,0.0,1.0,2.0,0.0,0.0,9200357,0.0,78.59,2074.0479472704715
1765227705409,0.0,0.0,1.0,10.0,0.0,0.0,0.0,0.0,0.0,0.0,0.0,0.0,0.0,0.0,0.0,0.0,-0.013908,0.0023179999999999997,0.99186,-0.7000000000000001,0.49000000000000005,-0.07,30.47265625,3.27,3.31,3.24,3.25,3.26,3.27,3.26,3.26,3.29,3.29,3.29,3.28,3.26,3.27,3.26,3.29,3.27,3.27,3.27,3.27,3.3,3.3,3.29,3.27,3.31,3.23,0.0,1.0,2.0,0.0,0.0,9200383,0.0,78.59,2074.0479472704715
1765227705450,0.0,0.0,1.0,10.0,0.0,0.0,0.0,0.0,0.0,0.0,0.0,0.0,0.0,0.0,0.0,0.0,-0.013908,0.0023179999999999997,0.99186,-0.7000000000000001,0.49000000000000005,-0.07,30.47265625,3.27,3.31,3.24,3.25,3.26,3.27,3.26,3.26,3.29,3.29,3.29,3.28,3.26,3.27,3.26,3.29,3.27,3.27,3.27,3.27,3.3,3.3,3.29,3.27,3.31,3.23,0.0,1.0,2.0,0.0,0.0,9200424,0.0,78.59,2074.0479472704715
1765227705458,0.0,0.0,1.0,10.0,0.0,0.0,0.0,0.0,0.0,0.0,0.0,0.0,0.0,0.0,0.0,0.0,-0.013908,0.0023179999999999997,0.99186,-0.7000000000000001,0.49000000000000005,-0.07,30.47265625,3.28,3.32,3.26,3.27,3.26,3.27,3.26,3.26,3.29,3.29,3.29,3.28,3.26,3.27,3.26,3.29,3.27,3.27,3.27,3.27,3.3,3.3,3.29,3.27,3.31,3.23,0.0,1.0,2.0,0.0,0.0,9200432,0.0,78.65,2074.0479472704715
1765227705467,0.0,0.0,1.0,10.0,0.0,0.0,0.0,0.0,0.0,0.0,0.0,0.0,0.0,0.0,0.0,0.0,-0.013908,0.0023179999999999997,0.99186,-0.7000000000000001,0.49000000000000005,-0.07,30.5,3.28,3.32,3.26,3.27,3.26,3.27,3.26,3.26,3.29,3.29,3.29,3.28,3.26,3.27,3.26,3.29,3.27,3.27,3.27,3.27,3.3,3.3,3.29,3.27,3.31,3.23,0.0,1.0,2.0,0.0,0.0,9200441,0.0,78.65,2074.0479472704715
1765227705492,0.0,0.0,1.0,10.0,0.0,0.0,0.0,0.0,0.0,0.0,0.0,0.0,0.0,0.0,0.0,0.0,-0.013908,0.0023179999999999997,0.99186,-0.7000000000000001,0.49000000000000005,-0.07,30.5,3.28,3.32,3.26,3.27,3.28,3.29,3.28,3.28,3.29,3.29,3.29,3.28,3.26,3.27,3.26,3.29,3.27,3.27,3.27,3.27,3.3,3.3,3.29,3.27,3.31,3.23,0.0,1.0,2.0,0.0,0.0,9200466,0.0,78.73,2074.0479472704715
1765227705518,0.0,0.0,1.0,10.0,0.0,0.0,0.0,0.0,0.0,0.0,0.0,0.0,0.0,0.0,0.0,0.0,-0.013908,0.0023179999999999997,0.99186,-0.7000000000000001,0.49000000000000005,-0.07,30.5,3.28,3.32,3.26,3.27,3.28,3.29,3.28,3.28,3.31,3.31,3.31,3.3,3.26,3.27,3.26,3.29,3.27,3.27,3.27,3.27,3.3,3.3,3.29,3.27,3.31,3.23,0.0,1.0,2.0,0.0,0.0,9200492,0.0,78.81,2074.0479472704715
1765227705539,0.0,0.0,1.0,10.0,0.0,0.0,0.0,0.0,0.0,0.0,0.0,0.0,0.0,0.0,0.0,0.0,-0.013908,0.0023179999999999997,0.99186,-0.7000000000000001,0.49000000000000005,-0.07,30.5,3.28,3.32,3.26,3.27,3.28,3.29,3.28,3.28,3.31,3.31,3.31,3.3,3.28,3.28,3.28,3.29,3.27,3.27,3.27,3.27,3.3,3.3,3.29,3.27,3.31,3.23,0.0,1.0,2.0,0.0,0.0,9200513,0.0,78.86000000000001,2074.0479472704715
1765227705574,0.0,0.0,1.0,10.0,0.0,0.0,0.0,0.0,0.0,0.0,0.0,0.0,0.0,0.0,0.0,0.0,-0.013908,0.0023179999999999997,0.99186,-0.7000000000000001,0.49000000000000005,-0.07,30.5,3.28,3.32,3.26,3.27,3.28,3.29,3.28,3.28,3.31,3.31,3.31,3.3,3.28,3.28,3.28,3.29,3.29,3.29,3.29,3.28,3.3,3.3,3.29,3.27,3.31,3.23,0.0,1.0,2.0,0.0,0.0,9200548,0.0,78.92999999999999,2074.0479472704715
1765227705582,0.0,0.0,1.0,10.0,0.0,0.0,0.0,0.0,0.0,0.0,0.0,0.0,0.0,0.0,0.0,0.0,-0.013908,0.0023179999999999997,0.99186,-0.7000000000000001,0.49000000000000005,-0.07,30.5,3.28,3.32,3.26,3.27,3.28,3.29,3.28,3.28,3.31,3.31,3.31,3.3,3.28,3.28,3.28,3.29,3.29,3.29,3.29,3.28,3.31,3.31,3.3,3.29,3.31,3.23,0.0,1.0,2.0,0.0,0.0,9200556,0.0,78.98,2074.0479472704715
1765227705606,0.0,0.0,1.0,10.0,0.0,0.0,0.0,0.0,0.0,0.0,0.0,0.0,0.0,0.0,0.0,0.0,-0.0183,0.000366,0.994788,-0.7000000000000001,0.49000000000000005,-0.07,30.5,3.28,3.32,3.26,3.27,3.28,3.29,3.28,3.28,3.31,3.31,3.31,3.3,3.28,3.28,3.28,3.29,3.29,3.29,3.29,3.28,3.31,3.31,3.3,3.29,3.31,3.23,0.0,1.0,2.0,0.0,0.0,9200580,0.0,78.98,2074.0479472704715
1765227705623,0.0,0.0,1.0,10.0,0.0,0.0,0.0,0.0,0.0,0.0,0.0,0.0,0.0,0.0,0.0,0.0,-0.0183,0.000366,0.994788,-0.77,0.28,0.0,30.5,3.28,3.32,3.26,3.27,3.28,3.29,3.28,3.28,3.31,3.31,3.31,3.3,3.28,3.28,3.28,3.29,3.29,3.29,3.29,3.28,3.31,3.31,3.3,3.29,3.31,3.23,0.0,1.0,2.0,0.0,0.0,9200597,0.0,78.98,2074.0479472704715
1765227705649,0.0,0.0,1.0,10.0,0.0,0.0,0.0,0.0,0.0,0.0,0.0,0.0,0.0,0.0,0.0,0.0,-0.0183,0.000366,0.994788,-0.77,0.28,0.0,30.5,3.28,3.32,3.26,3.27,3.28,3.29,3.28,3.28,3.31,3.31,3.31,3.3,3.28,3.28,3.28,3.29,3.29,3.29,3.29,3.28,3.31,3.31,3.3,3.29,3.31,3.23,0.0,1.0,2.0,0.0,0.0,9200623,0.0,78.98,2074.0479472704715
1765227705657,0.0,0.0,1.0,10.0,0.0,0.0,0.0,0.0,0.0,0.0,0.0,0.0,0.0,0.0,0.0,0.0,-0.0183,0.000366,0.994788,-0.77,0.28,0.0,30.4609375,3.28,3.32,3.26,3.27,3.28,3.29,3.28,3.28,3.31,3.31,3.31,3.3,3.28,3.28,3.28,3.29,3.29,3.29,3.29,3.28,3.31,3.31,3.3,3.29,3.31,3.23,0.0,1.0,2.0,0.0,0.0,9200631,0.0,78.98,2074.0479472704715
1765227705673,0.0,0.0,1.0,10.0,0.0,0.0,0.0,0.0,0.0,0.0,0.0,0.0,0.0,0.0,0.0,0.0,-0.0183,0.000366,0.994788,-0.77,0.28,0.0,30.4609375,3.28,3.32,3.26,3.27,3.28,3.29,3.28,3.28,3.31,3.31,3.31,3.3,3.28,3.28,3.28,3.29,3.29,3.29,3.29,3.28,3.31,3.31,3.3,3.29,3.31,3.23,0.0,1.0,2.0,0.0,0.0,9200647,0.0,78.98,2074.0479472704715
1765227705689,0.0,0.0,1.0,10.0,0.0,0.0,0.0,0.0,0.0,0.0,0.0,0.0,0.0,0.0,0.0,0.0,-0.0183,0.000366,0.994788,-0.77,0.28,0.0,30.4609375,3.28,3.32,3.26,3.27,3.28,3.29,3.28,3.28,3.31,3.31,3.31,3.3,3.28,3.28,3.28,3.29,3.29,3.29,3.29,3.28,3.31,3.31,3.3,3.29,3.31,3.23,0.0,1.0,2.0,0.0,0.0,9200663,0.0,78.98,2074.0479472704715
1765227705699,0.0,0.0,1.0,10.0,0.0,0.0,0.0,0.0,0.0,0.0,0.0,0.0,0.0,0.0,0.0,0.0,-0.0183,0.000366,0.994788,-0.77,0.28,0.0,30.4609375,3.28,3.32,3.26,3.27,3.28,3.29,3.28,3.28,3.31,3.31,3.31,3.3,3.28,3.28,3.28,3.29,3.29,3.29,3.29,3.28,3.31,3.31,3.3,3.29,3.31,3.23,0.0,1.0,2.0,0.0,0.0,9200673,0.0,78.98,2074.0479472704715
1765227705723,0.0,0.0,1.0,10.0,0.0,0.0,0.0,0.0,0.0,0.0,0.0,0.0,0.0,0.0,0.0,0.0,-0.0183,0.000366,0.994788,-0.77,0.28,0.0,30.4609375,3.28,3.32,3.26,3.27,3.28,3.29,3.28,3.28,3.31,3.31,3.31,3.3,3.28,3.28,3.28,3.29,3.29,3.29,3.29,3.28,3.31,3.31,3.3,3.29,3.31,3.23,0.0,1.0,2.0,0.0,0.0,9200697,0.0,78.98,2074.0479472704715
1765227705773,0.0,0.0,1.0,10.0,0.0,0.0,0.0,0.0,0.0,0.0,0.0,0.0,0.0,0.0,0.0,0.0,-0.0183,0.000366,0.994788,-0.77,0.28,0.0,30.4609375,3.28,3.32,3.26,3.27,3.28,3.29,3.28,3.28,3.31,3.31,3.31,3.3,3.28,3.28,3.28,3.29,3.29,3.29,3.29,3.28,3.31,3.31,3.3,3.29,3.31,3.23,0.0,1.0,2.0,0.0,0.0,9200747,0.0,78.98,2074.0479472704715
1765227705790,0.0,0.0,1.0,10.0,0.0,0.0,0.0,0.0,0.0,0.0,0.0,0.0,0.0,0.0,0.0,0.0,-0.014274,0.000366,0.9928359999999999,-0.77,0.28,0.0,30.4609375,3.28,3.32,3.26,3.27,3.28,3.29,3.28,3.28,3.31,3.31,3.31,3.3,3.28,3.28,3.28,3.29,3.29,3.29,3.29,3.28,3.31,3.31,3.3,3.29,3.31,3.23,0.0,1.0,2.0,0.0,0.0,9200764,0.0,78.98,2074.0479472704715
1765227705840,0.0,0.0,1.0,10.0,0.0,0.0,0.0,0.0,0.0,0.0,0.0,0.0,0.0,0.0,0.0,0.0,-0.014274,0.000366,0.9928359999999999,-0.77,0.28,0.0,30.4609375,3.28,3.32,3.26,3.27,3.28,3.29,3.28,3.28,3.31,3.31,3.31,3.3,3.28,3.28,3.28,3.29,3.29,3.29,3.29,3.28,3.31,3.31,3.3,3.29,3.31,3.23,0.0,1.0,2.0,0.0,0.0,9200814,0.0,78.98,2074.0479472704715
1765227705856,0.0,0.0,1.0,10.0,0.0,0.0,0.0,0.0,0.0,0.0,0.0,0.0,0.0,0.0,0.0,0.0,-0.014274,0.000366,0.9928359999999999,-0.77,0.28,0.0,30.4609375,3.28,3.32,3.26,3.27,3.28,3.29,3.28,3.28,3.31,3.31,3.31,3.3,3.28,3.28,3.28,3.29,3.29,3.29,3.29,3.28,3.31,3.31,3.3,3.29,3.31,3.23,0.0,1.0,2.0,0.0,0.0,9200830,0.0,78.98,2074.0479472704715
1765227705865,0.0,0.0,1.0,10.0,0.0,0.0,0.0,0.0,0.0,0.0,0.0,0.0,0.0,0.0,0.0,0.0,-0.014274,0.000366,0.9928359999999999,-0.7000000000000001,0.49000000000000005,-0.07,30.4609375,3.28,3.32,3.26,3.27,3.28,3.29,3.28,3.28,3.31,3.31,3.31,3.3,3.28,3.28,3.28,3.29,3.29,3.29,3.29,3.28,3.31,3.31,3.3,3.29,3.31,3.23,0.0,1.0,2.0,0.0,0.0,9200839,0.0,78.98,2074.0479472704715
1765227705889,0.0,0.0,1.0,10.0,0.0,0.0,0.0,0.0,0.0,0.0,0.0,0.0,0.0,0.0,0.0,0.0,-0.014274,0.000366,0.9928359999999999,-0.7000000000000001,0.49000000000000005,-0.07,30.4609375,3.28,3.32,3.26,3.27,3.28,3.29,3.28,3.28,3.31,3.31,3.31,3.3,3.28,3.28,3.28,3.29,3.29,3.29,3.29,3.28,3.31,3.31,3.3,3.29,3.31,3.23,0.0,1.0,2.0,0.0,0.0,9200863,0.0,78.98,2074.0479472704715
1765227705897,0.0,0.0,1.0,10.0,0.0,0.0,0.0,0.0,0.0,0.0,0.0,0.0,0.0,0.0,0.0,0.0,-0.014274,0.000366,0.9928359999999999,-0.7000000000000001,0.49000000000000005,-0.07,30.44921875,3.28,3.32,3.26,3.27,3.28,3.29,3.28,3.28,3.31,3.31,3.31,3.3,3.28,3.28,3.28,3.29,3.29,3.29,3.29,3.28,3.31,3.31,3.3,3.29,3.31,3.23,0.0,1.0,2.0,0.0,0.0,9200871,0.0,78.98,2074.0479472704715
1765227705947,0.0,0.0,1.0,10.0,0.0,0.0,0.0,0.0,0.0,0.0,0.0,0.0,0.0,0.0,0.0,0.0,-0.014274,0.000366,0.9928359999999999,-0.7000000000000001,0.49000000000000005,-0.07,30.44921875,3.28,3.32,3.26,3.27,3.28,3.29,3.28,3.28,3.31,3.31,3.31,3.3,3.28,3.28,3.28,3.29,3.29,3.29,3.29,3.28,3.31,3.31,3.3,3.29,3.31,3.23,0.0,1.0,2.0,0.0,0.0,9200921,0.0,78.98,2074.0479472704715
1765227706015,0.0,0.0,1.0,10.0,0.0,0.0,0.0,0.0,0.0,0.0,0.0,0.0,0.0,0.0,0.0,0.0,-0.016347999999999998,0.000244,0.99369,-0.7000000000000001,0.49000000000000005,-0.07,30.44921875,3.28,3.32,3.26,3.27,3.28,3.29,3.28,3.28,3.31,3.31,3.31,3.3,3.28,3.28,3.28,3.29,3.29,3.29,3.29,3.28,3.31,3.31,3.3,3.29,3.31,3.23,0.0,1.0,2.0,0.0,0.0,9200989,0.0,78.98,2074.0479472704715
1765227706040,0.0,0.0,1.0,10.0,0.0,0.0,0.0,0.0,0.0,0.0,0.0,0.0,0.0,0.0,0.0,0.0,-0.016347999999999998,0.000244,0.99369,-0.7000000000000001,0.35000000000000003,-0.07,30.44921875,3.28,3.32,3.26,3.27,3.28,3.29,3.28,3.28,3.31,3.31,3.31,3.3,3.28,3.28,3.28,3.29,3.29,3.29,3.29,3.28,3.31,3.31,3.3,3.29,3.31,3.23,0.0,1.0,2.0,0.0,0.0,9201014,0.0,78.98,2074.0479472704715
1765227706048,0.0,0.0,1.0,10.0,0.0,0.0,0.0,0.0,0.0,0.0,0.0,0.0,0.0,0.0,0.0,0.0,-0.016347999999999998,0.000244,0.99369,-0.7000000000000001,0.35000000000000003,-0.07,30.4609375,3.28,3.32,3.26,3.27,3.28,3.29,3.28,3.28,3.31,3.31,3.31,3.3,3.28,3.28,3.28,3.29,3.29,3.29,3.29,3.28,3.31,3.31,3.3,3.29,3.31,3.23,0.0,1.0,2.0,0.0,0.0,9201022,0.0,78.98,2074.0479472704715
1765227706098,0.0,0.0,1.0,10.0,0.0,0.0,0.0,0.0,0.0,0.0,0.0,0.0,0.0,0.0,0.0,0.0,-0.016347999999999998,0.000244,0.99369,-0.7000000000000001,0.35000000000000003,-0.07,30.4609375,3.28,3.32,3.26,3.27,3.28,3.29,3.28,3.28,3.31,3.31,3.31,3.3,3.28,3.28,3.28,3.29,3.29,3.29,3.29,3.28,3.31,3.31,3.3,3.29,3.31,3.23,0.0,1.0,2.0,0.0,0.0,9201072,0.0,78.98,2074.0479472704715
1765227706107,0.0,0.0,1.0,10.0,0.0,0.0,0.0,0.0,0.0,0.0,0.0,0.0,0.0,0.0,0.0,0.0,-0.015982,0.0026839999999999998,0.9934459999999999,-0.7000000000000001,0.35000000000000003,-0.07,30.4609375,3.28,3.32,3.26,3.27,3.28,3.29,3.28,3.28,3.31,3.31,3.31,3.3,3.28,3.28,3.28,3.29,3.29,3.29,3.29,3.28,3.31,3.31,3.3,3.29,3.31,3.23,0.0,1.0,2.0,0.0,0.0,9201081,0.0,78.98,2074.0479472704715
1765227706115,0.0,0.0,1.0,10.0,0.0,0.0,0.0,0.0,0.0,0.0,0.0,0.0,0.0,0.0,0.0,0.0,-0.015982,0.0026839999999999998,0.9934459999999999,-0.7000000000000001,0.35000000000000003,-0.07,30.4609375,3.28,3.32,3.26,3.27,3.28,3.29,3.28,3.28,3.31,3.31,3.31,3.3,3.28,3.28,3.28,3.29,3.29,3.29,3.29,3.28,3.31,3.31,3.3,3.29,3.31,3.23,0.0,1.0,2.0,0.0,0.0,9201089,0.0,78.98,2074.0479472704715
1765227706123,0.0,0.0,1.0,10.0,0.0,0.0,0.0,0.0,0.0,0.0,0.0,0.0,0.0,0.0,0.0,0.0,-0.015982,0.0026839999999999998,0.9934459999999999,-0.7000000000000001,0.35000000000000003,-0.07,30.4609375,3.28,3.32,3.26,3.27,3.28,3.29,3.28,3.28,3.31,3.31,3.31,3.3,3.28,3.28,3.28,3.29,3.29,3.29,3.29,3.28,3.31,3.31,3.3,3.29,3.31,3.23,0.0,1.0,2.0,0.0,0.0,9201097,0.0,78.98,2074.0479472704715
1765227706141,0.0,0.0,1.0,10.0,0.0,0.0,0.0,0.0,0.0,0.0,0.0,0.0,0.0,0.0,0.0,0.0,-0.015982,0.0026839999999999998,0.9934459999999999,-0.7000000000000001,0.35000000000000003,-0.07,30.4609375,3.28,3.32,3.26,3.27,3.28,3.29,3.28,3.28,3.31,3.31,3.31,3.3,3.28,3.28,3.28,3.29,3.29,3.29,3.29,3.28,3.31,3.31,3.3,3.29,3.31,3.23,0.0,1.0,2.0,0.0,0.0,9201115,0.0,78.98,2074.0479472704715
1765227706148,0.0,0.0,1.0,10.0,0.0,0.0,0.0,0.0,0.0,0.0,0.0,0.0,0.0,0.0,0.0,0.0,-0.015982,0.0026839999999999998,0.9934459999999999,-0.6300000000000001,0.42000000000000004,0.0,30.4609375,3.28,3.32,3.26,3.27,3.28,3.29,3.28,3.28,3.31,3.31,3.31,3.3,3.28,3.28,3.28,3.29,3.29,3.29,3.29,3.28,3.31,3.31,3.3,3.29,3.31,3.23,0.0,1.0,2.0,0.0,0.0,9201122,0.0,78.98,2074.0479472704715
1765227706182,0.0,0.0,1.0,10.0,0.0,0.0,0.0,0.0,0.0,0.0,0.0,0.0,0.0,0.0,0.0,0.0,-0.015982,0.0026839999999999998,0.9934459999999999,-0.6300000000000001,0.42000000000000004,0.0,30.4609375,3.28,3.32,3.26,3.27,3.28,3.29,3.28,3.28,3.31,3.31,3.31,3.3,3.28,3.28,3.28,3.29,3.29,3.29,3.29,3.28,3.31,3.31,3.3,3.29,3.31,3.23,0.0,1.0,2.0,0.0,0.0,9201156,0.0,78.98,2074.0479472704715
1765227706198,0.0,0.0,1.0,10.0,0.0,0.0,0.0,0.0,0.0,0.0,0.0,0.0,0.0,0.0,0.0,0.0,-0.015982,0.0026839999999999998,0.9934459999999999,-0.6300000000000001,0.42000000000000004,0.0,30.44921875,3.28,3.32,3.26,3.27,3.28,3.29,3.28,3.28,3.31,3.31,3.31,3.3,3.28,3.28,3.28,3.29,3.29,3.29,3.29,3.28,3.31,3.31,3.3,3.29,3.31,3.23,0.0,1.0,2.0,0.0,0.0,9201172,0.0,78.98,2074.0479472704715
1765227706240,0.0,0.0,1.0,10.0,0.0,0.0,0.0,0.0,0.0,0.0,0.0,0.0,0.0,0.0,0.0,0.0,-0.015982,0.0026839999999999998,0.9934459999999999,-0.6300000000000001,0.42000000000000004,0.0,30.44921875,3.28,3.32,3.26,3.27,3.28,3.29,3.28,3.28,3.31,3.31,3.31,3.3,3.28,3.28,3.28,3.29,3.29,3.29,3.29,3.28,3.31,3.31,3.3,3.29,3.31,3.23,0.0,1.0,2.0,0.0,0.0,9201214,0.0,78.98,2074.0479472704715
1765227706306,0.0,0.0,1.0,10.0,0.0,0.0,0.0,0.0,0.0,0.0,0.0,0.0,0.0,0.0,0.0,0.0,-0.016958,-0.0017079999999999999,0.99369,-0.6300000000000001,0.42000000000000004,0.0,30.44921875,3.28,3.32,3.26,3.27,3.28,3.29,3.28,3.28,3.31,3.31,3.31,3.3,3.28,3.28,3.28,3.29,3.29,3.29,3.29,3.28,3.31,3.31,3.3,3.29,3.31,3.23,0.0,1.0,2.0,0.0,0.0,9201280,0.0,78.98,2074.0479472704715
1765227706323,0.0,0.0,1.0,10.0,0.0,0.0,0.0,0.0,0.0,0.0,0.0,0.0,0.0,0.0,0.0,0.0,-0.016958,-0.0017079999999999999,0.99369,-0.6300000000000001,0.28,0.0,30.44921875,3.28,3.32,3.26,3.27,3.28,3.29,3.28,3.28,3.31,3.31,3.31,3.3,3.28,3.28,3.28,3.29,3.29,3.29,3.29,3.28,3.31,3.31,3.3,3.29,3.31,3.23,0.0,1.0,2.0,0.0,0.0,9201297,0.0,78.98,2074.0479472704715
1765227706332,0.0,0.0,1.0,10.0,0.0,0.0,0.0,0.0,0.0,0.0,0.0,0.0,0.0,0.0,0.0,0.0,-0.016958,-0.0017079999999999999,0.99369,-0.6300000000000001,0.28,0.0,30.484375,3.28,3.32,3.26,3.27,3.28,3.29,3.28,3.28,3.31,3.31,3.31,3.3,3.28,3.28,3.28,3.29,3.29,3.29,3.29,3.28,3.31,3.31,3.3,3.29,3.31,3.23,0.0,1.0,2.0,0.0,0.0,9201306,0.0,78.98,2074.0479472704715
1765227706348,0.0,0.0,1.0,10.0,0.0,0.0,0.0,0.0,0.0,0.0,0.0,0.0,0.0,0.0,0.0,0.0,-0.016958,-0.0017079999999999999,0.99369,-0.6300000000000001,0.28,0.0,30.484375,3.28,3.32,3.26,3.27,3.28,3.29,3.28,3.28,3.31,3.31,3.31,3.3,3.28,3.28,3.28,3.29,3.29,3.29,3.29,3.28,3.31,3.31,3.3,3.29,3.32,3.26,44.0,1.0,2.0,0.0,0.0,9201322,0.0,78.98,2074.0479472704715
1765227706356,0.0,0.0,1.0,10.0,0.0,0.0,0.0,0.0,0.0,0.0,0.0,0.0,0.0,0.0,0.0,0.0,-0.016958,-0.0017079999999999999,0.99369,-0.6300000000000001,0.28,0.0,30.484375,3.28,3.32,3.26,3.27,3.28,3.29,3.28,3.28,3.31,3.31,3.31,3.3,3.28,3.28,3.28,3.29,3.29,3.29,3.29,3.28,3.31,3.31,3.3,3.29,3.32,3.26,44.0,1.0,0.0,1.0,1.0,9201330,0.0,78.98,2074.0479472704715
1765227706415,0.0,0.0,1.0,10.0,0.0,0.0,0.0,0.0,0.0,0.0,0.0,0.0,0.0,0.0,0.0,0.0,-0.016958,-0.0017079999999999999,0.99369,-0.6300000000000001,0.28,0.0,30.484375,3.28,3.32,3.26,3.27,3.28,3.29,3.28,3.28,3.31,3.31,3.31,3.3,3.28,3.28,3.28,3.29,3.29,3.29,3.29,3.28,3.31,3.31,3.3,3.29,3.32,3.26,44.0,1.0,0.0,1.0,1.0,9201389,0.0,78.98,2074.0479472704715
1765227706439,0.0,0.0,1.0,10.0,0.0,0.0,0.0,0.0,0.0,0.0,0.0,0.0,0.0,0.0,0.0,0.0,-0.016958,-0.0017079999999999999,0.99369,-0.6300000000000001,0.28,0.0,30.46875,3.28,3.32,3.26,3.27,3.28,3.29,3.28,3.28,3.31,3.31,3.31,3.3,3.28,3.28,3.28,3.29,3.29,3.29,3.29,3.28,3.31,3.31,3.3,3.29,3.32,3.26,44.0,1.0,0.0,1.0,1.0,9201413,0.0,78.98,2074.0479472704715
1765227706498,0.0,0.0,1.0,10.0,0.0,0.0,0.0,0.0,0.0,0.0,0.0,0.0,0.0,0.0,0.0,0.0,-0.016958,-0.0017079999999999999,0.99369,-0.6300000000000001,0.56,0.07,30.46875,3.28,3.32,3.26,3.27,3.28,3.29,3.28,3.28,3.31,3.31,3.31,3.3,3.28,3.28,3.28,3.29,3.29,3.29,3.29,3.28,3.31,3.31,3.3,3.29,3.32,3.26,44.0,1.0,0.0,1.0,1.0,9201472,0.0,78.98,2074.0479472704715
1765227706506,0.0,0.0,1.0,10.0,0.0,0.0,0.0,0.0,0.0,0.0,0.0,0.0,0.0,0.0,0.0,0.0,-0.016958,-0.0017079999999999999,0.99369,-0.6300000000000001,0.56,0.07,30.46875,3.28,3.32,3.26,3.27,3.28,3.29,3.28,3.28,3.31,3.31,3.31,3.3,3.28,3.28,3.28,3.29,3.29,3.29,3.29,3.28,3.31,3.31,3.3,3.29,3.32,3.26,45.0,1.0,0.0,1.0,1.0,9201480,0.0,78.98,2074.0479472704715
1765227706541,0.0,0.0,1.0,10.0,0.0,0.0,0.0,0.0,0.0,0.0,0.0,0.0,0.0,0.0,0.0,0.0,-0.016958,-0.0017079999999999999,0.99369,-0.6300000000000001,0.56,0.07,30.46875,3.28,3.32,3.26,3.27,3.28,3.29,3.28,3.28,3.31,3.31,3.31,3.3,3.28,3.28,3.28,3.29,3.29,3.29,3.29,3.28,3.31,3.31,3.3,3.29,3.32,3.26,45.0,1.0,0.0,1.0,1.0,9201515,0.0,78.98,2074.0479472704715
1765227706565,0.0,0.0,1.0,10.0,0.0,0.0,0.0,0.0,0.0,0.0,0.0,0.0,0.0,0.0,0.0,0.0,-0.016958,-0.0017079999999999999,0.99369,-0.6300000000000001,0.56,0.07,30.4609375,3.28,3.32,3.26,3.27,3.28,3.29,3.28,3.28,3.31,3.31,3.31,3.3,3.28,3.28,3.28,3.29,3.29,3.29,3.29,3.28,3.31,3.31,3.3,3.29,3.32,3.26,45.0,1.0,0.0,1.0,1.0,9201539,0.0,78.98,2074.0479472704715
1765227706589,0.0,0.0,1.0,10.0,0.0,0.0,0.0,0.0,0.0,0.0,0.0,0.0,0.0,0.0,0.0,0.0,-0.016958,-0.0017079999999999999,0.99369,-0.6300000000000001,0.56,0.07,30.4609375,3.28,3.32,3.26,3.27,3.28,3.29,3.28,3.28,3.31,3.31,3.31,3.3,3.28,3.28,3.28,3.29,3.29,3.29,3.29,3.28,3.31,3.31,3.3,3.29,3.32,3.26,45.0,1.0,0.0,1.0,1.0,9201563,0.0,78.98,2074.0479472704715
1765227706599,0.0,0.0,1.0,10.0,0.0,0.0,0.0,0.0,0.0,0.0,0.0,0.0,0.0,0.0,0.0,0.0,-0.016958,-0.0017079999999999999,0.99369,-0.6300000000000001,0.56,0.07,30.4609375,3.28,3.32,3.26,3.27,3.28,3.29,3.28,3.28,3.31,3.31,3.31,3.3,3.28,3.28,3.28,3.29,3.29,3.29,3.29,3.28,3.31,3.31,3.3,3.29,3.32,3.26,45.0,1.0,0.0,1.0,1.0,9201573,0.0,78.98,2074.0479472704715
1765227706606,0.0,0.0,1.0,10.0,0.0,0.0,0.0,0.0,0.0,0.0,0.0,0.0,0.0,0.0,0.0,0.0,-0.016958,-0.0017079999999999999,0.99369,-0.6300000000000001,0.56,0.07,30.4609375,3.28,3.32,3.26,3.27,3.28,3.29,3.28,3.28,3.31,3.31,3.31,3.3,3.28,3.28,3.28,3.29,3.29,3.29,3.29,3.28,3.31,3.31,3.3,3.29,3.32,3.26,45.0,1.0,0.0,1.0,1.0,9201580,0.0,78.98,2074.0479472704715
1765227706631,0.0,0.0,1.0,10.0,0.0,0.0,0.0,0.0,0.0,0.0,0.0,0.0,0.0,0.0,0.0,0.0,-0.016958,-0.0017079999999999999,0.99369,-0.6300000000000001,0.56,0.07,30.4609375,3.28,3.32,3.26,3.27,3.28,3.29,3.28,3.28,3.31,3.31,3.31,3.3,3.28,3.28,3.28,3.29,3.29,3.29,3.29,3.28,3.31,3.31,3.3,3.29,3.32,3.26,45.0,1.0,0.0,1.0,1.0,9201605,0.0,78.98,2074.0479472704715
1765227706648,0.0,0.0,1.0,10.0,0.0,0.0,0.0,0.0,0.0,0.0,0.0,0.0,0.0,0.0,0.0,0.0,-0.016958,-0.0017079999999999999,0.99369,-0.6300000000000001,0.56,0.07,30.4609375,3.28,3.32,3.26,3.27,3.28,3.29,3.28,3.28,3.31,3.31,3.31,3.3,3.28,3.28,3.28,3.29,3.29,3.29,3.29,3.28,3.31,3.31,3.3,3.29,3.32,3.26,45.0,1.0,0.0,1.0,1.0,9201622,0.0,78.98,2074.0479472704715
1765227706690,0.0,0.0,1.0,10.0,0.0,0.0,0.0,0.0,0.0,0.0,0.0,0.0,0.0,0.0,0.0,0.0,-0.014274,0.0017079999999999999,0.992958,-0.6300000000000001,0.56,0.07,30.4609375,3.28,3.32,3.26,3.27,3.28,3.29,3.28,3.28,3.31,3.31,3.31,3.3,3.28,3.28,3.28,3.29,3.29,3.29,3.29,3.28,3.31,3.31,3.3,3.29,3.32,3.26,45.0,1.0,0.0,1.0,1.0,9201664,0.0,78.98,2074.0479472704715
1765227706714,0.0,0.0,1.0,10.0,0.0,0.0,0.0,0.0,0.0,0.0,0.0,0.0,0.0,0.0,0.0,0.0,-0.014274,0.0017079999999999999,0.992958,-0.6300000000000001,0.56,0.07,30.4609375,3.28,3.32,3.26,3.27,3.28,3.29,3.28,3.28,3.31,3.31,3.31,3.3,3.28,3.28,3.28,3.29,3.29,3.29,3.29,3.28,3.31,3.31,3.3,3.29,3.32,3.26,45.0,1.0,0.0,1.0,1.0,9201688,0.0,78.98,2074.0479472704715
1765227706739,0.0,0.0,1.0,10.0,0.0,0.0,0.0,0.0,0.0,0.0,0.0,0.0,0.0,0.0,0.0,0.0,-0.014274,0.0017079999999999999,0.992958,-0.7000000000000001,0.42000000000000004,0.0,30.4609375,3.28,3.32,3.26,3.27,3.28,3.29,3.28,3.28,3.31,3.31,3.31,3.3,3.28,3.28,3.28,3.29,3.29,3.29,3.29,3.28,3.31,3.31,3.3,3.29,3.32,3.26,45.0,1.0,0.0,1.0,1.0,9201713,0.0,78.98,2074.0479472704715
1765227706790,0.0,0.0,1.0,10.0,0.0,0.0,0.0,0.0,0.0,0.0,0.0,0.0,0.0,0.0,0.0,0.0,-0.014274,0.0017079999999999999,0.992958,-0.7000000000000001,0.42000000000000004,0.0,30.50390625,3.28,3.32,3.26,3.27,3.28,3.29,3.28,3.28,3.31,3.31,3.31,3.3,3.28,3.28,3.28,3.29,3.29,3.29,3.29,3.28,3.31,3.31,3.3,3.29,3.32,3.26,45.0,1.0,0.0,1.0,1.0,9201764,0.0,78.98,2074.0479472704715
1765227706814,0.0,0.0,1.0,10.0,0.0,0.0,0.0,0.0,0.0,0.0,0.0,0.0,0.0,0.0,0.0,0.0,-0.015982,0.0,0.9922259999999999,-0.7000000000000001,0.42000000000000004,0.0,30.50390625,3.28,3.32,3.26,3.27,3.28,3.29,3.28,3.28,3.31,3.31,3.31,3.3,3.28,3.28,3.28,3.29,3.29,3.29,3.29,3.28,3.31,3.31,3.3,3.29,3.32,3.26,45.0,1.0,0.0,1.0,1.0,9201788,0.0,78.98,2074.0479472704715
1765227706839,0.0,0.0,1.0,10.0,0.0,0.0,0.0,0.0,0.0,0.0,0.0,0.0,0.0,0.0,0.0,0.0,-0.015982,0.0,0.9922259999999999,-0.7000000000000001,0.35000000000000003,0.0,30.50390625,3.28,3.32,3.26,3.27,3.28,3.29,3.28,3.28,3.31,3.31,3.31,3.3,3.28,3.28,3.28,3.29,3.29,3.29,3.29,3.28,3.31,3.31,3.3,3.29,3.32,3.26,45.0,1.0,0.0,1.0,1.0,9201813,0.0,78.98,2074.0479472704715
1765227706849,0.0,0.0,1.0,10.0,0.0,0.0,0.0,0.0,0.0,0.0,0.0,0.0,0.0,0.0,0.0,0.0,-0.015982,0.0,0.9922259999999999,-0.7000000000000001,0.35000000000000003,0.0,30.48046875,3.28,3.32,3.26,3.27,3.28,3.29,3.28,3.28,3.31,3.31,3.31,3.3,3.28,3.28,3.28,3.29,3.29,3.29,3.29,3.28,3.31,3.31,3.3,3.29,3.32,3.26,45.0,1.0,0.0,1.0,1.0,9201823,0.0,78.98,2074.0479472704715
1765227706873,0.0,0.0,1.0,10.0,0.0,0.0,0.0,0.0,0.0,0.0,0.0,0.0,0.0,0.0,0.0,0.0,-0.015982,0.0,0.9922259999999999,-0.7000000000000001,0.35000000000000003,0.0,30.48046875,3.28,3.32,3.26,3.27,3.28,3.29,3.28,3.28,3.31,3.31,3.31,3.3,3.28,3.28,3.28,3.29,3.29,3.29,3.29,3.28,3.31,3.31,3.3,3.29,3.32,3.26,45.0,1.0,0.0,1.0,1.0,9201847,0.0,78.98,2074.0479472704715
1765227706890,0.0,0.0,1.0,10.0,0.0,0.0,0.0,0.0,0.0,0.0,0.0,0.0,0.0,0.0,0.0,0.0,-0.015982,0.0,0.9922259999999999,-0.7000000000000001,0.35000000000000003,0.0,30.48046875,3.28,3.32,3.26,3.27,3.28,3.29,3.28,3.28,3.31,3.31,3.31,3.3,3.28,3.28,3.28,3.29,3.29,3.29,3.29,3.28,3.31,3.31,3.3,3.29,3.32,3.26,45.0,1.0,0.0,1.0,1.0,9201864,0.0,78.98,2074.0479472704715
1765227706898,0.0,0.0,1.0,10.0,0.0,0.0,0.0,0.0,0.0,0.0,0.0,0.0,0.0,0.0,0.0,0.0,-0.015982,0.0,0.9922259999999999,-0.7000000000000001,0.35000000000000003,0.0,30.48046875,3.28,3.32,3.26,3.27,3.28,3.29,3.28,3.28,3.31,3.31,3.31,3.3,3.28,3.28,3.28,3.29,3.29,3.29,3.29,3.28,3.31,3.31,3.3,3.29,3.32,3.26,45.0,1.0,0.0,1.0,1.0,9201872,0.0,78.98,2074.0479472704715
1765227706916,0.0,0.0,1.0,10.0,0.0,0.0,0.0,0.0,0.0,0.0,0.0,0.0,0.0,0.0,0.0,0.0,-0.015982,0.0,0.9922259999999999,-0.7000000000000001,0.35000000000000003,0.0,30.48046875,3.28,3.32,3.26,3.27,3.28,3.29,3.28,3.28,3.31,3.31,3.31,3.3,3.28,3.28,3.28,3.29,3.29,3.29,3.29,3.28,3.31,3.31,3.3,3.29,3.32,3.26,45.0,1.0,0.0,1.0,1.0,9201890,0.0,78.98,2074.0479472704715
1765227706940,0.0,0.0,1.0,10.0,0.0,0.0,0.0,0.0,0.0,0.0,0.0,0.0,0.0,0.0,0.0,0.0,-0.015982,0.0,0.9922259999999999,-0.7000000000000001,0.35000000000000003,0.0,30.48046875,3.28,3.32,3.26,3.27,3.28,3.29,3.28,3.28,3.31,3.31,3.31,3.3,3.28,3.28,3.28,3.29,3.29,3.29,3.29,3.28,3.31,3.31,3.3,3.29,3.32,3.26,45.0,1.0,0.0,1.0,1.0,9201914,0.0,78.98,2074.0479472704715
1765227706967,0.0,0.0,1.0,10.0,0.0,0.0,0.0,0.0,0.0,0.0,0.0,0.0,0.0,0.0,0.0,0.0,-0.014884,-0.000244,0.994178,-0.7000000000000001,0.35000000000000003,0.0,30.48046875,3.28,3.32,3.26,3.27,3.28,3.29,3.28,3.28,3.31,3.31,3.31,3.3,3.28,3.28,3.28,3.29,3.29,3.29,3.29,3.28,3.31,3.31,3.3,3.29,3.32,3.26,45.0,1.0,0.0,1.0,1.0,9201941,0.0,78.98,2074.0479472704715
1765227706998,0.0,0.0,1.0,10.0,0.0,0.0,0.0,0.0,0.0,0.0,0.0,0.0,0.0,0.0,0.0,0.0,-0.014884,-0.000244,0.994178,-0.7000000000000001,0.35000000000000003,0.0,30.48046875,3.28,3.32,3.26,3.27,3.28,3.29,3.28,3.28,3.31,3.31,3.31,3.3,3.28,3.28,3.28,3.29,3.29,3.29,3.29,3.28,3.31,3.31,3.3,3.29,3.32,3.26,45.0,1.0,0.0,1.0,1.0,9201972,0.0,78.98,2074.0479472704715
1765227707015,0.0,0.0,1.0,10.0,0.0,0.0,0.0,0.0,0.0,0.0,0.0,0.0,0.0,0.0,0.0,0.0,-0.014884,-0.000244,0.994178,-0.7000000000000001,0.28,-17.92,30.48046875,3.28,3.32,3.26,3.27,3.28,3.29,3.28,3.28,3.31,3.31,3.31,3.3,3.28,3.28,3.28,3.29,3.29,3.29,3.29,3.28,3.31,3.31,3.3,3.29,3.32,3.26,45.0,1.0,0.0,1.0,1.0,9201989,0.0,78.98,2074.0479472704715
1765227707039,0.0,0.0,1.0,10.0,0.0,0.0,0.0,0.0,0.0,0.0,0.0,0.0,0.0,0.0,0.0,0.0,-0.014884,-0.000244,0.994178,-0.7000000000000001,0.28,-17.92,30.48046875,3.28,3.32,3.26,3.27,3.28,3.29,3.28,3.28,3.31,3.31,3.31,3.3,3.28,3.28,3.28,3.29,3.29,3.29,3.29,3.28,3.31,3.31,3.3,3.29,3.32,3.26,45.0,1.0,0.0,1.0,1.0,9202013,0.0,78.98,2074.0479472704715
1765227707064,0.0,0.0,1.0,10.0,0.0,0.0,0.0,0.0,0.0,0.0,0.0,0.0,0.0,0.0,0.0,0.0,-0.014884,-0.000244,0.994178,-0.7000000000000001,0.28,-17.92,30.48046875,3.28,3.32,3.26,3.27,3.28,3.29,3.28,3.28,3.31,3.31,3.31,3.3,3.28,3.28,3.28,3.29,3.29,3.29,3.29,3.28,3.31,3.31,3.3,3.29,3.32,3.26,45.0,1.0,0.0,1.0,1.0,9202038,0.0,78.98,2074.0479472704715
1765227707074,0.0,0.0,1.0,10.0,0.0,0.0,0.0,0.0,0.0,0.0,0.0,0.0,0.0,0.0,0.0,0.0,-0.014884,-0.000244,0.994178,-0.7000000000000001,0.28,-17.92,30.45703125,3.28,3.32,3.26,3.27,3.28,3.29,3.28,3.28,3.31,3.31,3.31,3.3,3.28,3.28,3.28,3.29,3.29,3.29,3.29,3.28,3.31,3.31,3.3,3.29,3.32,3.26,45.0,1.0,0.0,1.0,1.0,9202048,0.0,78.98,2074.0479472704715
1765227707089,0.0,0.0,1.0,10.0,0.0,0.0,0.0,0.0,0.0,0.0,0.0,0.0,0.0,0.0,0.0,0.0,-0.014884,-0.000244,0.994178,-0.7000000000000001,0.28,-17.92,30.45703125,3.28,3.32,3.26,3.27,3.28,3.29,3.28,3.28,3.31,3.31,3.31,3.3,3.28,3.28,3.28,3.29,3.29,3.29,3.29,3.28,3.31,3.31,3.3,3.29,3.32,3.26,45.0,1.0,0.0,1.0,1.0,9202063,0.0,78.98,2074.0479472704715
1765227707114,0.0,0.0,1.0,10.0,0.0,0.0,0.0,0.0,0.0,0.0,0.0,0.0,0.0,0.0,0.0,0.0,-0.014884,-0.000244,0.994178,-0.7000000000000001,0.28,-17.92,30.45703125,3.28,3.32,3.26,3.27,3.28,3.29,3.28,3.28,3.31,3.31,3.31,3.3,3.28,3.28,3.28,3.29,3.29,3.29,3.29,3.28,3.31,3.31,3.3,3.29,3.32,3.26,45.0,1.0,0.0,1.0,1.0,9202088,0.0,78.98,2074.0479472704715
1765227707165,0.0,0.0,1.0,10.0,0.0,0.0,0.0,0.0,0.0,0.0,0.0,0.0,0.0,0.0,0.0,0.0,-0.014884,-0.000244,0.994178,-0.7000000000000001,0.28,-17.92,30.45703125,3.28,3.32,3.26,3.27,3.28,3.29,3.28,3.28,3.31,3.31,3.31,3.3,3.28,3.28,3.28,3.29,3.29,3.29,3.29,3.28,3.31,3.31,3.3,3.29,3.32,3.26,45.0,1.0,0.0,1.0,1.0,9202139,0.0,78.98,2074.0479472704715
1765227707189,0.0,0.0,1.0,10.0,0.0,0.0,0.0,0.0,0.0,0.0,0.0,0.0,0.0,0.0,0.0,0.0,-0.016104,-0.001952,0.993324,-0.7000000000000001,0.28,-17.92,30.45703125,3.28,3.32,3.26,3.27,3.28,3.29,3.28,3.28,3.31,3.31,3.31,3.3,3.28,3.28,3.28,3.29,3.29,3.29,3.29,3.28,3.31,3.31,3.3,3.29,3.32,3.26,45.0,1.0,0.0,1.0,1.0,9202163,0.0,78.98,2074.0479472704715
1765227707239,0.0,0.0,1.0,10.0,0.0,0.0,0.0,0.0,0.0,0.0,0.0,0.0,0.0,0.0,0.0,0.0,-0.016104,-0.001952,0.993324,-0.6300000000000001,0.42000000000000004,0.0,30.45703125,3.28,3.32,3.26,3.27,3.28,3.29,3.28,3.28,3.31,3.31,3.31,3.3,3.28,3.28,3.28,3.29,3.29,3.29,3.29,3.28,3.31,3.31,3.3,3.29,3.32,3.26,45.0,1.0,0.0,1.0,1.0,9202213,0.0,78.98,2074.0479472704715
1765227707249,0.0,0.0,1.0,10.0,0.0,0.0,0.0,0.0,0.0,0.0,0.0,0.0,0.0,0.0,0.0,0.0,-0.016104,-0.001952,0.993324,-0.6300000000000001,0.42000000000000004,0.0,30.47265625,3.28,3.32,3.26,3.27,3.28,3.29,3.28,3.28,3.31,3.31,3.31,3.3,3.28,3.28,3.28,3.29,3.29,3.29,3.29,3.28,3.31,3.31,3.3,3.29,3.32,3.26,45.0,1.0,0.0,1.0,1.0,9202223,0.0,78.98,2074.0479472704715
1765227707289,0.0,0.0,1.0,10.0,0.0,0.0,0.0,0.0,0.0,0.0,0.0,0.0,0.0,0.0,0.0,0.0,-0.01647,0.00061,0.9940559999999999,-0.6300000000000001,0.42000000000000004,0.0,30.47265625,3.28,3.32,3.26,3.27,3.28,3.29,3.28,3.28,3.31,3.31,3.31,3.3,3.28,3.28,3.28,3.29,3.29,3.29,3.29,3.28,3.31,3.31,3.3,3.29,3.32,3.26,45.0,1.0,0.0,1.0,1.0,9202263,0.0,78.98,2074.0479472704715
1765227707298,0.0,0.0,1.0,10.0,0.0,0.0,0.0,0.0,0.0,0.0,0.0,0.0,0.0,0.0,0.0,0.0,-0.01647,0.00061,0.9940559999999999,-0.6300000000000001,0.42000000000000004,0.0,30.47265625,3.28,3.32,3.26,3.27,3.28,3.29,3.28,3.28,3.31,3.31,3.31,3.3,3.28,3.28,3.28,3.29,3.29,3.29,3.29,3.28,3.31,3.31,3.3,3.29,3.32,3.26,45.0,1.0,0.0,1.0,1.0,9202272,0.0,78.98,2074.0479472704715
1765227707331,0.0,0.0,1.0,10.0,0.0,0.0,0.0,0.0,0.0,0.0,0.0,0.0,0.0,0.0,0.0,0.0,-0.01647,0.00061,0.9940559999999999,-0.6300000000000001,0.42000000000000004,0.0,30.47265625,3.28,3.32,3.26,3.27,3.28,3.29,3.28,3.28,3.31,3.31,3.31,3.3,3.28,3.28,3.28,3.29,3.29,3.29,3.29,3.28,3.31,3.31,3.3,3.29,3.32,3.26,45.0,1.0,0.0,1.0,1.0,9202305,0.0,78.98,2074.0479472704715
1765227707356,0.0,0.0,1.0,10.0,0.0,0.0,0.0,0.0,0.0,0.0,0.0,0.0,0.0,0.0,0.0,0.0,-0.01647,0.00061,0.9940559999999999,-0.6300000000000001,0.42000000000000004,0.0,30.47265625,3.28,3.32,3.26,3.27,3.28,3.29,3.28,3.28,3.31,3.31,3.31,3.3,3.28,3.28,3.28,3.29,3.29,3.29,3.29,3.28,3.31,3.31,3.3,3.29,3.32,3.26,45.0,1.0,0.0,1.0,1.0,9202330,0.0,78.98,2074.0479472704715
1765227707365,0.0,0.0,1.0,10.0,0.0,0.0,0.0,0.0,0.0,0.0,0.0,0.0,0.0,0.0,0.0,0.0,-0.01647,0.00061,0.9940559999999999,-0.7000000000000001,0.35000000000000003,-0.07,30.47265625,3.28,3.32,3.26,3.27,3.28,3.29,3.28,3.28,3.31,3.31,3.31,3.3,3.28,3.28,3.28,3.29,3.29,3.29,3.29,3.28,3.31,3.31,3.3,3.29,3.32,3.26,45.0,1.0,0.0,1.0,1.0,9202339,0.0,78.98,2074.0479472704715
1765227707373,0.0,0.0,1.0,10.0,0.0,0.0,0.0,0.0,0.0,0.0,0.0,0.0,0.0,0.0,0.0,0.0,-0.01647,0.00061,0.9940559999999999,-0.7000000000000001,0.35000000000000003,-0.07,30.47265625,3.28,3.32,3.26,3.27,3.28,3.29,3.28,3.28,3.31,3.31,3.31,3.3,3.28,3.28,3.28,3.29,3.29,3.29,3.29,3.28,3.31,3.31,3.3,3.29,3.32,3.26,45.0,1.0,0.0,1.0,1.0,9202347,0.0,78.98,2074.0479472704715
1765227707381,0.0,0.0,1.0,10.0,0.0,0.0,0.0,0.0,0.0,0.0,0.0,0.0,0.0,0.0,0.0,0.0,-0.01647,0.00061,0.9940559999999999,-0.7000000000000001,0.35000000000000003,-0.07,30.47265625,3.28,3.32,3.26,3.27,3.28,3.29,3.28,3.28,3.31,3.31,3.31,3.3,3.28,3.28,3.28,3.29,3.29,3.29,3.29,3.28,3.31,3.31,3.3,3.29,3.32,3.26,45.0,1.0,0.0,1.0,1.0,9202355,0.0,78.98,2074.0479472704715
1765227707929,0.0,0.0,1.0,10.0,0.0,0.0,0.0,0.0,0.0,0.0,0.0,0.0,0.0,0.0,0.0,0.0,-0.01647,0.00061,0.9940559999999999,-0.7000000000000001,0.35000000000000003,-0.07,30.47265625,3.28,3.32,3.26,3.27,3.28,3.29,3.28,3.28,3.31,3.31,3.31,3.3,3.28,3.28,3.28,3.29,3.29,3.29,3.29,3.28,3.31,3.31,3.3,3.29,3.32,3.26,45.0,1.0,0.0,1.0,1.0,9202903,0.0,78.98,2074.0479472704715
1765227707933,0.0,0.0,1.0,10.0,0.0,0.0,0.0,0.0,0.0,0.0,0.0,0.0,0.0,0.0,0.0,0.0,-0.01647,0.00061,0.9940559999999999,-0.7000000000000001,0.35000000000000003,-0.07,30.47265625,3.28,3.32,3.26,3.27,3.28,3.29,3.28,3.28,3.31,3.31,3.31,3.3,3.28,3.28,3.28,3.29,3.29,3.29,3.29,3.28,3.31,3.31,3.3,3.29,3.32,3.26,45.0,1.0,0.0,1.0,1.0,9202907,0.0,78.98,2074.0479472704715
1765227707938,0.0,0.0,1.0,10.0,0.0,0.0,0.0,0.0,0.0,0.0,0.0,0.0,0.0,0.0,0.0,0.0,-0.01647,0.00061,0.9940559999999999,-0.7000000000000001,0.35000000000000003,-0.07,30.47265625,3.28,3.32,3.26,3.27,3.28,3.29,3.28,3.28,3.31,3.31,3.31,3.3,3.28,3.28,3.28,3.29,3.29,3.29,3.29,3.28,3.31,3.31,3.3,3.29,3.32,3.26,45.0,1.0,0.0,1.0,1.0,9202912,0.0,78.98,2074.0479472704715
1765227707943,0.0,0.0,1.0,10.0,0.0,0.0,0.0,0.0,0.0,0.0,0.0,0.0,0.0,0.0,0.0,0.0,-0.01647,0.00061,0.9940559999999999,-0.7000000000000001,0.35000000000000003,-0.07,30.46484375,3.28,3.32,3.26,3.27,3.28,3.29,3.28,3.28,3.31,3.31,3.31,3.3,3.28,3.28,3.28,3.29,3.29,3.29,3.29,3.28,3.31,3.31,3.3,3.29,3.32,3.26,45.0,1.0,0.0,1.0,1.0,9202917,0.0,78.98,2074.0479472704715
1765227707960,0.0,0.0,1.0,10.0,0.0,0.0,0.0,0.0,0.0,0.0,0.0,0.0,0.0,0.0,0.0,0.0,-0.016592,0.004514,0.9916159999999999,-0.7000000000000001,0.35000000000000003,-0.07,30.46484375,3.28,3.32,3.26,3.27,3.28,3.29,3.28,3.28,3.31,3.31,3.31,3.3,3.28,3.28,3.28,3.29,3.29,3.29,3.29,3.28,3.31,3.31,3.3,3.29,3.32,3.26,45.0,1.0,0.0,1.0,1.0,9202934,0.0,78.98,2074.0479472704715
1765227707966,0.0,0.0,1.0,10.0,0.0,0.0,0.0,0.0,0.0,0.0,0.0,0.0,0.0,0.0,0.0,0.0,-0.016592,0.004514,0.9916159999999999,-0.6300000000000001,0.35000000000000003,-0.07,30.46484375,3.28,3.32,3.26,3.27,3.28,3.29,3.28,3.28,3.31,3.31,3.31,3.3,3.28,3.28,3.28,3.29,3.29,3.29,3.29,3.28,3.31,3.31,3.3,3.29,3.32,3.26,45.0,1.0,0.0,1.0,1.0,9202940,0.0,78.98,2074.0479472704715
1765227707972,0.0,0.0,1.0,10.0,0.0,0.0,0.0,0.0,0.0,0.0,0.0,0.0,0.0,0.0,0.0,0.0,-0.016592,0.004514,0.9916159999999999,-0.6300000000000001,0.35000000000000003,-0.07,30.46484375,3.28,3.32,3.26,3.27,3.28,3.29,3.28,3.28,3.31,3.31,3.31,3.3,3.28,3.28,3.28,3.29,3.29,3.29,3.29,3.28,3.31,3.31,3.3,3.29,3.32,3.26,45.0,1.0,0.0,1.0,1.0,9202946,0.0,78.98,2074.0479472704715
1765227707984,0.0,0.0,1.0,10.0,0.0,0.0,0.0,0.0,0.0,0.0,0.0,0.0,0.0,0.0,0.0,0.0,-0.016592,0.004514,0.9916159999999999,-0.7000000000000001,0.49000000000000005,-0.07,30.46484375,3.28,3.32,3.26,3.27,3.28,3.29,3.28,3.28,3.31,3.31,3.31,3.3,3.28,3.28,3.28,3.29,3.29,3.29,3.29,3.28,3.31,3.31,3.3,3.29,3.32,3.26,45.0,1.0,0.0,1.0,1.0,9202958,0.0,78.98,2074.0479472704715
1765227707990,0.0,0.0,1.0,10.0,0.0,0.0,0.0,0.0,0.0,0.0,0.0,0.0,0.0,0.0,0.0,0.0,-0.016592,0.004514,0.9916159999999999,-0.7000000000000001,0.49000000000000005,-0.07,30.44921875,3.28,3.32,3.26,3.27,3.28,3.29,3.28,3.28,3.31,3.31,3.31,3.3,3.28,3.28,3.28,3.29,3.29,3.29,3.29,3.28,3.31,3.31,3.3,3.29,3.32,3.26,45.0,1.0,0.0,1.0,1.0,9202964,0.0,78.98,2074.0479472704715
1765227707996,0.0,0.0,1.0,10.0,0.0,0.0,0.0,0.0,0.0,0.0,0.0,0.0,0.0,0.0,0.0,0.0,-0.01586,0.001464,0.994788,-0.6300000000000001,0.35000000000000003,0.0,30.44921875,3.28,3.32,3.26,3.27,3.28,3.29,3.28,3.28,3.31,3.31,3.31,3.3,3.28,3.28,3.28,3.29,3.29,3.29,3.29,3.28,3.31,3.31,3.3,3.29,3.32,3.26,45.0,1.0,0.0,1.0,1.0,9202970,0.0,78.98,2074.0479472704715
1765227708004,0.0,0.0,1.0,10.0,0.0,0.0,0.0,0.0,0.0,0.0,0.0,0.0,0.0,0.0,0.0,0.0,-0.01586,0.001464,0.994788,-0.6300000000000001,0.35000000000000003,0.0,30.4453125,3.28,3.32,3.26,3.27,3.28,3.29,3.28,3.28,3.31,3.31,3.31,3.3,3.28,3.28,3.28,3.29,3.29,3.29,3.29,3.28,3.31,3.31,3.3,3.29,3.32,3.26,45.0,1.0,0.0,1.0,1.0,9202978,0.0,78.98,2074.0479472704715
1765227708014,0.0,0.0,1.0,10.0,0.0,0.0,0.0,0.0,0.0,0.0,0.0,0.0,0.0,0.0,0.0,0.0,-0.01586,0.001464,0.994788,-0.6300000000000001,0.35000000000000003,0.0,30.4453125,3.28,3.32,3.26,3.27,3.28,3.29,3.28,3.28,3.31,3.31,3.31,3.3,3.28,3.28,3.28,3.29,3.29,3.29,3.29,3.28,3.31,3.31,3.3,3.29,3.32,3.26,45.0,1.0,0.0,1.0,1.0,9202988,0.0,78.98,2074.0479472704715
1765227708022,0.0,0.0,1.0,10.0,0.0,0.0,0.0,0.0,0.0,0.0,0.0,0.0,0.0,0.0,0.0,0.0,-0.01586,0.001464,0.994788,-0.6300000000000001,0.35000000000000003,0.0,30.4453125,3.28,3.32,3.26,3.27,3.28,3.29,3.28,3.28,3.31,3.31,3.31,3.3,3.28,3.28,3.28,3.29,3.29,3.29,3.29,3.28,3.31,3.31,3.3,3.29,3.32,3.26,45.0,1.0,0.0,1.0,1.0,9202996,0.0,78.98,2074.0479472704715
1765227708030,0.0,0.0,1.0,10.0,0.0,0.0,0.0,0.0,0.0,0.0,0.0,0.0,0.0,0.0,0.0,0.0,-0.017446,0.0008539999999999999,0.993202,-0.6300000000000001,0.35000000000000003,0.0,30.4453125,3.28,3.32,3.26,3.27,3.28,3.29,3.28,3.28,3.31,3.31,3.31,3.3,3.28,3.28,3.28,3.29,3.29,3.29,3.29,3.28,3.31,3.31,3.3,3.29,3.32,3.26,45.0,1.0,0.0,1.0,1.0,9203004,0.0,78.98,2074.0479472704715
1765227708039,0.0,0.0,1.0,10.0,0.0,0.0,0.0,0.0,0.0,0.0,0.0,0.0,0.0,0.0,0.0,0.0,-0.017446,0.0008539999999999999,0.993202,-0.6300000000000001,0.35000000000000003,0.0,30.4453125,3.28,3.32,3.26,3.27,3.28,3.29,3.28,3.28,3.31,3.31,3.31,3.3,3.28,3.28,3.28,3.29,3.29,3.29,3.29,3.28,3.31,3.31,3.3,3.29,3.32,3.26,45.0,1.0,0.0,1.0,1.0,9203013,0.0,78.98,2074.0479472704715
1765227708047,0.0,0.0,1.0,10.0,0.0,0.0,0.0,0.0,0.0,0.0,0.0,0.0,0.0,0.0,0.0,0.0,-0.017446,0.0008539999999999999,0.993202,-0.77,0.49000000000000005,0.0,30.4453125,3.28,3.32,3.26,3.27,3.28,3.29,3.28,3.28,3.31,3.31,3.31,3.3,3.28,3.28,3.28,3.29,3.29,3.29,3.29,3.28,3.31,3.31,3.3,3.29,3.32,3.26,45.0,1.0,0.0,1.0,1.0,9203021,0.0,78.98,2074.0479472704715
1765227708056,0.0,0.0,1.0,10.0,0.0,0.0,0.0,0.0,0.0,0.0,0.0,0.0,0.0,0.0,0.0,0.0,-0.017446,0.0008539999999999999,0.993202,-0.77,0.49000000000000005,0.0,30.44921875,3.28,3.32,3.26,3.27,3.28,3.29,3.28,3.28,3.31,3.31,3.31,3.3,3.28,3.28,3.28,3.29,3.29,3.29,3.29,3.28,3.31,3.31,3.3,3.29,3.32,3.26,45.0,1.0,0.0,1.0,1.0,9203030,0.0,78.98,2074.0479472704715
1765227708064,0.0,0.0,1.0,10.0,0.0,0.0,0.0,0.0,0.0,0.0,0.0,0.0,0.0,0.0,0.0,0.0,-0.015493999999999999,0.000244,0.99308,-0.77,0.49000000000000005,0.0,30.44921875,3.28,3.32,3.26,3.27,3.28,3.29,3.28,3.28,3.31,3.31,3.31,3.3,3.28,3.28,3.28,3.29,3.29,3.29,3.29,3.28,3.31,3.31,3.3,3.29,3.32,3.26,45.0,1.0,0.0,1.0,1.0,9203038,0.0,78.98,2074.0479472704715
1765227708081,0.0,0.0,1.0,10.0,0.0,0.0,0.0,0.0,0.0,0.0,0.0,0.0,0.0,0.0,0.0,0.0,-0.015493999999999999,0.000244,0.99308,-0.7000000000000001,0.35000000000000003,-0.07,30.46875,3.28,3.32,3.26,3.27,3.28,3.29,3.28,3.28,3.31,3.31,3.31,3.3,3.28,3.28,3.28,3.29,3.29,3.29,3.29,3.28,3.31,3.31,3.3,3.29,3.32,3.26,45.0,1.0,0.0,1.0,1.0,9203055,0.0,78.98,2074.0479472704715
1765227708106,0.0,0.0,1.0,10.0,0.0,0.0,0.0,0.0,0.0,0.0,0.0,0.0,0.0,0.0,0.0,0.0,-0.015493999999999999,0.000244,0.99308,-0.7000000000000001,0.35000000000000003,-0.07,30.46875,3.28,3.32,3.26,3.27,3.28,3.29,3.28,3.28,3.31,3.31,3.31,3.3,3.28,3.28,3.28,3.29,3.29,3.29,3.29,3.28,3.31,3.31,3.3,3.29,3.32,3.26,45.0,1.0,0.0,1.0,1.0,9203080,0.0,78.98,2074.0479472704715
1765227708124,0.0,0.0,1.0,10.0,0.0,0.0,0.0,0.0,0.0,0.0,0.0,0.0,0.0,0.0,0.0,0.0,-0.015493999999999999,0.000244,0.99308,-0.7000000000000001,0.35000000000000003,-0.07,30.46875,3.28,3.32,3.26,3.27,3.28,3.29,3.28,3.28,3.31,3.31,3.31,3.3,3.28,3.28,3.28,3.29,3.29,3.29,3.29,3.28,3.31,3.31,3.3,3.29,3.32,3.26,45.0,1.0,0.0,1.0,1.0,9203098,0.0,78.98,2074.0479472704715
1765227708141,0.0,0.0,1.0,10.0,0.0,0.0,0.0,0.0,0.0,0.0,0.0,0.0,0.0,0.0,0.0,0.0,-0.015493999999999999,0.000244,0.99308,-0.7000000000000001,0.35000000000000003,-0.07,30.46875,3.28,3.32,3.26,3.27,3.28,3.29,3.28,3.28,3.31,3.31,3.31,3.3,3.28,3.28,3.28,3.29,3.29,3.29,3.29,3.28,3.31,3.31,3.3,3.29,3.32,3.26,45.0,1.0,0.0,1.0,1.0,9203115,0.0,78.98,2074.0479472704715
1765227708149,0.0,0.0,1.0,10.0,0.0,0.0,0.0,0.0,0.0,0.0,0.0,0.0,0.0,0.0,0.0,0.0,-0.015493999999999999,0.000244,0.99308,-0.7000000000000001,0.35000000000000003,-0.07,30.46875,3.28,3.32,3.26,3.27,3.28,3.29,3.28,3.28,3.31,3.31,3.31,3.3,3.28,3.28,3.28,3.29,3.29,3.29,3.29,3.28,3.31,3.31,3.3,3.29,3.32,3.26,45.0,1.0,0.0,1.0,1.0,9203123,0.0,78.98,2074.0479472704715
1765227708174,0.0,0.0,1.0,10.0,0.0,0.0,0.0,0.0,0.0,0.0,0.0,0.0,0.0,0.0,0.0,0.0,-0.015493999999999999,0.000244,0.99308,-0.7000000000000001,0.35000000000000003,-0.07,30.46875,3.28,3.32,3.26,3.27,3.28,3.29,3.28,3.28,3.31,3.31,3.31,3.3,3.28,3.28,3.28,3.29,3.29,3.29,3.29,3.28,3.31,3.31,3.3,3.29,3.32,3.26,45.0,1.0,0.0,1.0,1.0,9203148,0.0,78.98,2074.0479472704715
1765227708224,0.0,0.0,1.0,10.0,0.0,0.0,0.0,0.0,0.0,0.0,0.0,0.0,0.0,0.0,0.0,0.0,-0.016958,0.00061,0.9940559999999999,-0.7000000000000001,0.35000000000000003,-0.07,30.46875,3.28,3.32,3.26,3.27,3.28,3.29,3.28,3.28,3.31,3.31,3.31,3.3,3.28,3.28,3.28,3.29,3.29,3.29,3.29,3.28,3.31,3.31,3.3,3.29,3.32,3.26,45.0,1.0,0.0,1.0,1.0,9203198,0.0,78.98,2074.0479472704715
1765227708241,0.0,0.0,1.0,10.0,0.0,0.0,0.0,0.0,0.0,0.0,0.0,0.0,0.0,0.0,0.0,0.0,-0.016958,0.00061,0.9940559999999999,-0.7000000000000001,0.35000000000000003,-0.07,30.46875,3.28,3.32,3.26,3.27,3.28,3.29,3.28,3.28,3.31,3.31,3.31,3.3,3.28,3.28,3.28,3.29,3.29,3.29,3.29,3.28,3.31,3.31,3.3,3.29,3.32,3.26,45.0,1.0,0.0,1.0,1.0,9203215,0.0,78.98,2074.0479472704715
1765227708250,0.0,0.0,1.0,10.0,0.0,0.0,0.0,0.0,0.0,0.0,0.0,0.0,0.0,0.0,0.0,0.0,-0.016958,0.00061,0.9940559999999999,-0.7000000000000001,0.35000000000000003,-0.07,30.46875,3.28,3.32,3.26,3.27,3.28,3.29,3.28,3.28,3.31,3.31,3.31,3.3,3.28,3.28,3.28,3.29,3.29,3.29,3.29,3.28,3.31,3.31,3.3,3.29,3.32,3.26,45.0,1.0,0.0,1.0,1.0,9203224,0.0,78.98,2074.0479472704715
1765227708258,0.0,0.0,1.0,10.0,0.0,0.0,0.0,0.0,0.0,0.0,0.0,0.0,0.0,0.0,0.0,0.0,-0.016958,0.00061,0.9940559999999999,-0.7000000000000001,0.35000000000000003,-0.07,30.46875,3.28,3.32,3.26,3.27,3.28,3.29,3.28,3.28,3.31,3.31,3.31,3.3,3.28,3.28,3.28,3.29,3.29,3.29,3.29,3.28,3.31,3.31,3.3,3.29,3.32,3.26,45.0,1.0,0.0,1.0,1.0,9203232,0.0,78.98,2074.0479472704715
1765227708284,0.0,0.0,1.0,10.0,0.0,0.0,0.0,0.0,0.0,0.0,0.0,0.0,0.0,0.0,0.0,0.0,-0.016958,0.00061,0.9940559999999999,-0.77,0.49000000000000005,0.0,30.46875,3.28,3.32,3.26,3.27,3.28,3.29,3.28,3.28,3.31,3.31,3.31,3.3,3.28,3.28,3.28,3.29,3.29,3.29,3.29,3.28,3.31,3.31,3.3,3.29,3.32,3.26,45.0,1.0,0.0,1.0,1.0,9203258,0.0,78.98,2074.0479472704715
1765227708292,0.0,0.0,1.0,10.0,0.0,0.0,0.0,0.0,0.0,0.0,0.0,0.0,0.0,0.0,0.0,0.0,-0.016958,0.00061,0.9940559999999999,-0.77,0.49000000000000005,0.0,30.46875,3.28,3.32,3.26,3.27,3.28,3.29,3.28,3.28,3.31,3.31,3.31,3.3,3.28,3.28,3.28,3.29,3.29,3.29,3.29,3.28,3.31,3.31,3.3,3.29,3.32,3.26,45.0,1.0,0.0,1.0,1.0,9203266,0.0,78.98,2074.0479472704715
1765227708308,0.0,0.0,1.0,10.0,0.0,0.0,0.0,0.0,0.0,0.0,0.0,0.0,0.0,0.0,0.0,0.0,-0.016958,0.00061,0.9940559999999999,-0.77,0.49000000000000005,0.0,30.46875,3.28,3.32,3.26,3.27,3.28,3.29,3.28,3.28,3.31,3.31,3.31,3.3,3.28,3.28,3.28,3.29,3.29,3.29,3.29,3.28,3.31,3.31,3.3,3.29,3.32,3.26,45.0,1.0,0.0,1.0,1.0,9203282,0.0,78.98,2074.0479472704715
1765227708324,0.0,0.0,1.0,10.0,0.0,0.0,0.0,0.0,0.0,0.0,0.0,0.0,0.0,0.0,0.0,0.0,-0.016958,0.00061,0.9940559999999999,-0.77,0.49000000000000005,0.0,30.51953125,3.28,3.32,3.26,3.27,3.28,3.29,3.28,3.28,3.31,3.31,3.31,3.3,3.28,3.28,3.28,3.29,3.29,3.29,3.29,3.28,3.31,3.31,3.3,3.29,3.32,3.26,45.0,1.0,0.0,1.0,1.0,9203298,0.0,78.98,2074.0479472704715
1765227708341,0.0,0.0,1.0,10.0,0.0,0.0,0.0,0.0,0.0,0.0,0.0,0.0,0.0,0.0,0.0,0.0,-0.016958,0.00061,0.9940559999999999,-0.77,0.49000000000000005,0.0,30.51953125,3.28,3.32,3.26,3.27,3.28,3.29,3.28,3.28,3.31,3.31,3.31,3.3,3.28,3.28,3.28,3.29,3.29,3.29,3.29,3.28,3.31,3.31,3.3,3.29,3.32,3.26,45.0,1.0,0.0,1.0,1.0,9203315,0.0,78.98,2074.0479472704715
1765227708392,0.0,0.0,1.0,10.0,0.0,0.0,0.0,0.0,0.0,0.0,0.0,0.0,0.0,0.0,0.0,0.0,-0.016958,0.00061,0.9940559999999999,-0.77,0.49000000000000005,0.0,30.51953125,3.28,3.32,3.26,3.27,3.28,3.29,3.28,3.28,3.31,3.31,3.31,3.3,3.28,3.28,3.28,3.29,3.29,3.29,3.29,3.28,3.31,3.31,3.3,3.29,3.32,3.26,45.0,1.0,0.0,1.0,1.0,9203366,0.0,78.98,2074.0479472704715
1765227708441,0.0,0.0,1.0,10.0,0.0,0.0,0.0,0.0,0.0,0.0,0.0,0.0,0.0,0.0,0.0,0.0,-0.016958,0.00061,0.9940559999999999,-0.77,0.49000000000000005,0.0,30.51953125,3.28,3.32,3.26,3.27,3.28,3.29,3.28,3.28,3.31,3.31,3.31,3.3,3.28,3.28,3.28,3.29,3.29,3.29,3.29,3.28,3.31,3.31,3.3,3.29,3.32,3.26,45.0,1.0,0.0,1.0,1.0,9203415,0.0,78.98,2074.0479472704715
1765227708466,0.0,0.0,1.0,10.0,0.0,0.0,0.0,0.0,0.0,0.0,0.0,0.0,0.0,0.0,0.0,0.0,-0.016958,0.00061,0.9940559999999999,-0.77,0.49000000000000005,0.0,30.51953125,3.28,3.32,3.26,3.27,3.28,3.29,3.28,3.28,3.31,3.31,3.31,3.3,3.28,3.28,3.28,3.29,3.29,3.29,3.29,3.28,3.31,3.31,3.3,3.29,3.32,3.26,46.0,1.0,0.0,1.0,1.0,9203440,0.0,78.98,2074.0479472704715
1765227708499,0.0,0.0,1.0,10.0,0.0,0.0,0.0,0.0,0.0,0.0,0.0,0.0,0.0,0.0,0.0,0.0,-0.016226,0.001952,0.99491,-0.77,0.49000000000000005,0.0,30.51953125,3.28,3.32,3.26,3.27,3.28,3.29,3.28,3.28,3.31,3.31,3.31,3.3,3.28,3.28,3.28,3.29,3.29,3.29,3.29,3.28,3.31,3.31,3.3,3.29,3.32,3.26,46.0,1.0,0.0,1.0,1.0,9203473,0.0,78.98,2074.0479472704715
1765227708517,0.0,0.0,1.0,10.0,0.0,0.0,0.0,0.0,0.0,0.0,0.0,0.0,0.0,0.0,0.0,0.0,-0.016226,0.001952,0.99491,-0.77,0.56,0.0,30.51953125,3.28,3.32,3.26,3.27,3.28,3.29,3.28,3.28,3.31,3.31,3.31,3.3,3.28,3.28,3.28,3.29,3.29,3.29,3.29,3.28,3.31,3.31,3.3,3.29,3.32,3.26,46.0,1.0,0.0,1.0,1.0,9203491,0.0,78.98,2074.0479472704715
1765227708533,0.0,0.0,1.0,10.0,0.0,0.0,0.0,0.0,0.0,0.0,0.0,0.0,0.0,0.0,0.0,0.0,-0.016226,0.001952,0.99491,-0.77,0.56,0.0,30.45703125,3.28,3.32,3.26,3.27,3.28,3.29,3.28,3.28,3.31,3.31,3.31,3.3,3.28,3.28,3.28,3.29,3.29,3.29,3.29,3.28,3.31,3.31,3.3,3.29,3.32,3.26,46.0,1.0,0.0,1.0,1.0,9203507,0.0,78.98,2074.0479472704715
1765227708568,0.0,0.0,1.0,10.0,0.0,0.0,0.0,0.0,0.0,0.0,0.0,0.0,0.0,0.0,0.0,0.0,-0.016226,0.001952,0.99491,-0.77,0.56,0.0,30.45703125,3.28,3.32,3.26,3.27,3.28,3.29,3.28,3.28,3.31,3.31,3.31,3.3,3.28,3.28,3.28,3.29,3.29,3.29,3.29,3.28,3.31,3.31,3.3,3.29,3.32,3.26,46.0,1.0,0.0,1.0,1.0,9203542,0.0,78.98,2074.0479472704715
1765227708576,0.0,0.0,1.0,10.0,0.0,0.0,0.0,0.0,0.0,0.0,0.0,0.0,0.0,0.0,0.0,0.0,-0.016226,0.001952,0.99491,-0.77,0.56,0.0,30.45703125,3.28,3.32,3.26,3.27,3.28,3.29,3.28,3.28,3.31,3.31,3.31,3.3,3.28,3.28,3.28,3.29,3.29,3.29,3.29,3.28,3.31,3.31,3.3,3.29,3.32,3.26,46.0,1.0,0.0,1.0,1.0,9203550,0.0,78.98,2074.0479472704715
1765227708583,0.0,0.0,1.0,10.0,0.0,0.0,0.0,0.0,0.0,0.0,0.0,0.0,0.0,0.0,0.0,0.0,-0.016226,0.001952,0.99491,-0.77,0.56,0.0,30.45703125,3.28,3.32,3.26,3.27,3.28,3.29,3.28,3.28,3.31,3.31,3.31,3.3,3.28,3.28,3.28,3.29,3.29,3.29,3.29,3.28,3.31,3.31,3.3,3.29,3.32,3.26,46.0,1.0,0.0,1.0,1.0,9203557,0.0,78.98,2074.0479472704715
1765227708601,0.0,0.0,1.0,10.0,0.0,0.0,0.0,0.0,0.0,0.0,0.0,0.0,0.0,0.0,0.0,0.0,-0.016347999999999998,-0.00061,0.991128,-0.77,0.56,0.0,30.45703125,3.28,3.32,3.26,3.27,3.28,3.29,3.28,3.28,3.31,3.31,3.31,3.3,3.28,3.28,3.28,3.29,3.29,3.29,3.29,3.28,3.31,3.31,3.3,3.29,3.32,3.26,46.0,1.0,0.0,1.0,1.0,9203575,0.0,78.98,2074.0479472704715
1765227708609,0.0,0.0,1.0,10.0,0.0,0.0,0.0,0.0,0.0,0.0,0.0,0.0,0.0,0.0,0.0,0.0,-0.016347999999999998,-0.00061,0.991128,-0.77,0.56,0.0,30.45703125,3.28,3.32,3.26,3.27,3.28,3.29,3.28,3.28,3.31,3.31,3.31,3.3,3.28,3.28,3.28,3.29,3.29,3.29,3.29,3.28,3.31,3.31,3.3,3.29,3.32,3.26,46.0,1.0,0.0,1.0,1.0,9203583,0.0,78.98,2074.0479472704715
1765227708643,0.0,0.0,1.0,10.0,0.0,0.0,0.0,0.0,0.0,0.0,0.0,0.0,0.0,0.0,0.0,0.0,-0.016347999999999998,-0.00061,0.991128,-0.77,0.56,0.0,30.45703125,3.28,3.32,3.26,3.27,3.28,3.29,3.28,3.28,3.31,3.31,3.31,3.3,3.28,3.28,3.28,3.29,3.29,3.29,3.29,3.28,3.31,3.31,3.3,3.29,3.32,3.26,46.0,1.0,0.0,1.0,1.0,9203617,0.0,78.98,2074.0479472704715
1765227708667,0.0,0.0,1.0,10.0,0.0,0.0,0.0,0.0,0.0,0.0,0.0,0.0,0.0,0.0,0.0,0.0,-0.016347999999999998,-0.00061,0.991128,-0.6300000000000001,0.35000000000000003,-0.07,30.45703125,3.28,3.32,3.26,3.27,3.28,3.29,3.28,3.28,3.31,3.31,3.31,3.3,3.28,3.28,3.28,3.29,3.29,3.29,3.29,3.28,3.31,3.31,3.3,3.29,3.32,3.26,46.0,1.0,0.0,1.0,1.0,9203641,0.0,78.98,2074.0479472704715
1765227708709,0.0,0.0,1.0,10.0,0.0,0.0,0.0,0.0,0.0,0.0,0.0,0.0,0.0,0.0,0.0,0.0,-0.016347999999999998,-0.00061,0.991128,-0.6300000000000001,0.35000000000000003,-0.07,30.45703125,3.28,3.32,3.26,3.27,3.28,3.29,3.28,3.28,3.31,3.31,3.31,3.3,3.28,3.28,3.28,3.29,3.29,3.29,3.29,3.28,3.31,3.31,3.3,3.29,3.32,3.26,46.0,1.0,0.0,1.0,1.0,9203683,0.0,78.98,2074.0479472704715
1765227708718,0.0,0.0,1.0,10.0,0.0,0.0,0.0,0.0,0.0,0.0,0.0,0.0,0.0,0.0,0.0,0.0,-0.016347999999999998,-0.00061,0.991128,-0.6300000000000001,0.35000000000000003,-0.07,30.5,3.28,3.32,3.26,3.27,3.28,3.29,3.28,3.28,3.31,3.31,3.31,3.3,3.28,3.28,3.28,3.29,3.29,3.29,3.29,3.28,3.31,3.31,3.3,3.29,3.32,3.26,46.0,1.0,0.0,1.0,1.0,9203692,0.0,78.98,2074.0479472704715
1765227708792,0.0,0.0,1.0,10.0,0.0,0.0,0.0,0.0,0.0,0.0,0.0,0.0,0.0,0.0,0.0,0.0,-0.015372,-0.002074,0.9928359999999999,-0.6300000000000001,0.35000000000000003,-0.07,30.5,3.28,3.32,3.26,3.27,3.28,3.29,3.28,3.28,3.31,3.31,3.31,3.3,3.28,3.28,3.28,3.29,3.29,3.29,3.29,3.28,3.31,3.31,3.3,3.29,3.32,3.26,46.0,1.0,0.0,1.0,1.0,9203766,0.0,78.98,2074.0479472704715
1765227708808,0.0,0.0,1.0,10.0,0.0,0.0,0.0,0.0,0.0,0.0,0.0,0.0,0.0,0.0,0.0,0.0,-0.015372,-0.002074,0.9928359999999999,-0.7000000000000001,0.42000000000000004,0.0,30.5,3.28,3.32,3.26,3.27,3.28,3.29,3.28,3.28,3.31,3.31,3.31,3.3,3.28,3.28,3.28,3.29,3.29,3.29,3.29,3.28,3.31,3.31,3.3,3.29,3.32,3.26,46.0,1.0,0.0,1.0,1.0,9203782,0.0,78.98,2074.0479472704715
1765227708817,0.0,0.0,1.0,10.0,0.0,0.0,0.0,0.0,0.0,0.0,0.0,0.0,0.0,0.0,0.0,0.0,-0.015372,-0.002074,0.9928359999999999,-0.7000000000000001,0.42000000000000004,0.0,30.49609375,3.28,3.32,3.26,3.27,3.28,3.29,3.28,3.28,3.31,3.31,3.31,3.3,3.28,3.28,3.28,3.29,3.29,3.29,3.29,3.28,3.31,3.31,3.3,3.29,3.32,3.26,46.0,1.0,0.0,1.0,1.0,9203791,0.0,78.98,2074.0479472704715
1765227708875,0.0,0.0,1.0,10.0,0.0,0.0,0.0,0.0,0.0,0.0,0.0,0.0,0.0,0.0,0.0,0.0,-0.015372,-0.002074,0.9928359999999999,-0.7000000000000001,0.35000000000000003,-0.07,30.49609375,3.28,3.32,3.26,3.27,3.28,3.29,3.28,3.28,3.31,3.31,3.31,3.3,3.28,3.28,3.28,3.29,3.29,3.29,3.29,3.28,3.31,3.31,3.3,3.29,3.32,3.26,46.0,1.0,0.0,1.0,1.0,9203849,0.0,78.98,2074.0479472704715
1765227708917,0.0,0.0,1.0,10.0,0.0,0.0,0.0,0.0,0.0,0.0,0.0,0.0,0.0,0.0,0.0,0.0,-0.015372,-0.002074,0.9928359999999999,-0.7000000000000001,0.35000000000000003,-0.07,30.42578125,3.28,3.32,3.26,3.27,3.28,3.29,3.28,3.28,3.31,3.31,3.31,3.3,3.28,3.28,3.28,3.29,3.29,3.29,3.29,3.28,3.31,3.31,3.3,3.29,3.32,3.26,46.0,1.0,0.0,1.0,1.0,9203891,0.0,78.98,2074.0479472704715
1765227708943,0.0,0.0,1.0,10.0,0.0,0.0,0.0,0.0,0.0,0.0,0.0,0.0,0.0,0.0,0.0,0.0,-0.017446,-0.0013419999999999999,0.9910059999999999,-0.7000000000000001,0.35000000000000003,-0.07,30.42578125,3.28,3.32,3.26,3.27,3.28,3.29,3.28,3.28,3.31,3.31,3.31,3.3,3.28,3.28,3.28,3.29,3.29,3.29,3.29,3.28,3.31,3.31,3.3,3.29,3.32,3.26,46.0,1.0,0.0,1.0,1.0,9203917,0.0,78.98,2074.0479472704715
1765227708967,0.0,0.0,1.0,10.0,0.0,0.0,0.0,0.0,0.0,0.0,0.0,0.0,0.0,0.0,0.0,0.0,-0.017446,-0.0013419999999999999,0.9910059999999999,-0.6300000000000001,0.35000000000000003,0.0,30.42578125,3.28,3.32,3.26,3.27,3.28,3.29,3.28,3.28,3.31,3.31,3.31,3.3,3.28,3.28,3.28,3.29,3.29,3.29,3.29,3.28,3.31,3.31,3.3,3.29,3.32,3.26,46.0,1.0,0.0,1.0,1.0,9203941,0.0,78.98,2074.0479472704715
1765227708987,0.0,0.0,1.0,10.0,0.0,0.0,0.0,0.0,0.0,0.0,0.0,0.0,0.0,0.0,0.0,0.0,-0.017446,-0.0013419999999999999,0.9910059999999999,-0.6300000000000001,0.35000000000000003,0.0,30.42578125,3.28,3.32,3.26,3.27,3.28,3.29,3.28,3.28,3.31,3.31,3.31,3.3,3.28,3.28,3.28,3.29,3.29,3.29,3.29,3.28,3.31,3.31,3.3,3.29,3.32,3.26,46.0,1.0,0.0,1.0,1.0,9203961,0.0,78.98,2074.0479472704715
1765227708994,0.0,0.0,1.0,10.0,0.0,0.0,0.0,0.0,0.0,0.0,0.0,0.0,0.0,0.0,0.0,0.0,-0.017446,-0.0013419999999999999,0.9910059999999999,-0.6300000000000001,0.35000000000000003,0.0,30.54296875,3.28,3.32,3.26,3.27,3.28,3.29,3.28,3.28,3.31,3.31,3.31,3.3,3.28,3.28,3.28,3.29,3.29,3.29,3.29,3.28,3.31,3.31,3.3,3.29,3.32,3.26,46.0,1.0,0.0,1.0,1.0,9203968,0.0,78.98,2074.0479472704715
1765227709001,0.0,0.0,1.0,10.0,0.0,0.0,0.0,0.0,0.0,0.0,0.0,0.0,0.0,0.0,0.0,0.0,-0.017446,-0.0013419999999999999,0.9910059999999999,-0.6300000000000001,0.35000000000000003,0.0,30.54296875,3.28,3.32,3.26,3.27,3.28,3.29,3.28,3.28,3.31,3.31,3.31,3.3,3.28,3.28,3.28,3.29,3.29,3.29,3.29,3.28,3.31,3.31,3.3,3.29,3.32,3.26,46.0,1.0,0.0,1.0,1.0,9203975,0.0,78.98,2074.0479472704715
1765227709015,0.0,0.0,1.0,10.0,0.0,0.0,0.0,0.0,0.0,0.0,0.0,0.0,0.0,0.0,0.0,0.0,-0.017446,-0.0013419999999999999,0.9910059999999999,-0.6300000000000001,0.35000000000000003,0.0,30.54296875,3.28,3.32,3.26,3.27,3.28,3.29,3.28,3.28,3.31,3.31,3.31,3.3,3.28,3.28,3.28,3.29,3.29,3.29,3.29,3.28,3.31,3.31,3.3,3.29,3.32,3.26,46.0,1.0,0.0,1.0,1.0,9203989,0.0,78.98,2074.0479472704715
1765227709040,0.0,0.0,1.0,10.0,0.0,0.0,0.0,0.0,0.0,0.0,0.0,0.0,0.0,0.0,0.0,0.0,-0.017446,-0.0013419999999999999,0.9910059999999999,-0.6300000000000001,0.35000000000000003,0.0,30.54296875,3.28,3.32,3.26,3.27,3.28,3.29,3.28,3.28,3.31,3.31,3.31,3.3,3.28,3.28,3.28,3.29,3.29,3.29,3.29,3.28,3.31,3.31,3.3,3.29,3.32,3.26,46.0,1.0,0.0,1.0,1.0,9204014,0.0,78.98,2074.0479472704715
1765227709057,0.0,0.0,1.0,10.0,0.0,0.0,0.0,0.0,0.0,0.0,0.0,0.0,0.0,0.0,0.0,0.0,-0.017446,-0.0013419999999999999,0.9910059999999999,-0.6300000000000001,0.35000000000000003,0.0,30.54296875,3.28,3.32,3.26,3.27,3.28,3.29,3.28,3.28,3.31,3.31,3.31,3.3,3.28,3.28,3.28,3.29,3.29,3.29,3.29,3.28,3.31,3.31,3.3,3.29,3.32,3.26,46.0,1.0,0.0,1.0,1.0,9204031,0.0,78.98,2074.0479472704715
1765227709116,0.0,0.0,1.0,10.0,0.0,0.0,0.0,0.0,0.0,0.0,0.0,0.0,0.0,0.0,0.0,0.0,-0.017446,-0.0013419999999999999,0.9910059999999999,-0.6300000000000001,0.35000000000000003,0.0,30.54296875,3.28,3.32,3.26,3.27,3.28,3.29,3.28,3.28,3.31,3.31,3.31,3.3,3.28,3.28,3.28,3.29,3.29,3.29,3.29,3.28,3.31,3.31,3.3,3.29,3.32,3.26,46.0,1.0,0.0,1.0,1.0,9204090,0.0,78.98,2074.0479472704715
1765227709149,0.0,0.0,1.0,10.0,0.0,0.0,0.0,0.0,0.0,0.0,0.0,0.0,0.0,0.0,0.0,0.0,-0.016958,0.005612,0.9964959999999999,-0.6300000000000001,0.35000000000000003,0.0,30.54296875,3.28,3.32,3.26,3.27,3.28,3.29,3.28,3.28,3.31,3.31,3.31,3.3,3.28,3.28,3.28,3.29,3.29,3.29,3.29,3.28,3.31,3.31,3.3,3.29,3.32,3.26,46.0,1.0,0.0,1.0,1.0,9204123,0.0,78.98,2074.0479472704715
