timestamp,THROTTLE,BRAKE,ECU_MODE_ID,TORQUE_GAIN,TORQUE_REF_LEFT_MOTOR,TORQUE_REF_RIGHT_MOTOR,LEFT_MOTOR_RPM,LEFT_MOTOR_TORQUE,LEFT_MOTOR_POWER,LEFT_MOTOR_CURRENT,RIGHT_MOTOR_RPM,RIGHT_MOTOR_TORQUE,RIGHT_MOTOR_POWER,RIGHT_MOTOR_CURRENT,REAR_LEFT_WHEEL_SPEED,REAR_RIGHT_WHEEL_SPEED,FRONT_LEFT_WHEEL_SPEED,FRONT_RIGHT_WHEEL_SPEED,ACCEL_LONGITUDINAL,ACCEL_LATERAL,ACCEL_NORMAL,VEL_ANGULAR_YAW,VEL_ANGULAR_PITCH,VEL_ANGULAR_ROLL,ELETROBUILD_TEMPERATURE,STACK_1_CELL_1,STACK_1_CELL_2,STACK_1_CELL_3,STACK_1_CELL_4,STACK_2_CELL_1,STACK_2_CELL_2,STACK_2_CELL_3,STACK_2_CELL_4,STACK_3_CELL_1,STACK_3_CELL_2,STACK_3_CELL_3,STACK_3_CELL_4,STACK_4_CELL_1,STACK_4_CELL_2,STACK_4_CELL_3,STACK_4_CELL_4,STACK_5_CELL_1,STACK_5_CELL_2,STACK_5_CELL_3,STACK_5_CELL_4,STACK_6_CELL_1,STACK_6_CELL_2,STACK_6_CELL_3,STACK_6_CELL_4,MAX_VOLTAGE,MIN_VOLTAGE,SHUNT_CURRENT,BMS_MODE_ID,BMS_ERROR_ID,AIR_P,AIR_N,t,VEHICLE_SPEED,TOTAL_VOLTAGE,HODOMETRO
1765228585342,0.0,0.0,1.0,10.0,0.0,0.0,0.0,0.0,0.0,0.0,0.0,0.0,0.0,0.0,0.0,0.0,0.0,0.0,-0.092232,-0.01281,0.983686,-0.6300000000000001,0.49000000000000005,-0.07,25.0,3.27,3.32,3.23,3.25,3.26,3.28,3.25,3.25,3.28,3.28,3.29,3.28,3.27,3.27,3.27,3.29,3.28,3.27,3.27,3.27,3.29,3.29,3.28,3.27,3.32,3.23,44.0,1.0,0.0,1.0,1.0,10080316,0.0,78.56000000000003,2385.019716160598
1765228585351,0.0,0.0,1.0,10.0,0.0,0.0,0.0,0.0,0.0,0.0,0.0,0.0,0.0,0.0,0.0,0.0,0.0,0.0,-0.018056,0.002562,0.99552,-0.6300000000000001,0.49000000000000005,-0.07,25.0,3.27,3.32,3.23,3.25,3.26,3.28,3.25,3.25,3.28,3.28,3.29,3.28,3.27,3.27,3.27,3.29,3.28,3.27,3.27,3.27,3.29,3.29,3.28,3.27,3.32,3.23,44.0,1.0,0.0,1.0,1.0,10080325,0.0,78.56000000000003,2385.019716160598
1765228585358,0.0,0.0,1.0,10.0,0.0,0.0,0.0,0.0,0.0,0.0,0.0,0.0,0.0,0.0,0.0,0.0,0.0,0.0,-0.018056,0.002562,0.99552,-0.56,0.21000000000000002,0.0,25.0,3.27,3.32,3.23,3.25,3.26,3.28,3.25,3.25,3.28,3.28,3.29,3.28,3.27,3.27,3.27,3.29,3.28,3.27,3.27,3.27,3.29,3.29,3.28,3.27,3.32,3.23,44.0,1.0,0.0,1.0,1.0,10080332,0.0,78.56000000000003,2385.019716160598
1765228585369,0.0,0.0,1.0,10.0,0.0,0.0,0.0,0.0,0.0,0.0,0.0,0.0,0.0,0.0,0.0,0.0,0.0,0.0,-0.01952,0.000122,0.9916159999999999,-0.56,0.21000000000000002,0.0,25.0,3.27,3.32,3.23,3.25,3.26,3.28,3.25,3.25,3.28,3.28,3.29,3.28,3.27,3.27,3.27,3.29,3.28,3.27,3.27,3.27,3.29,3.29,3.28,3.27,3.32,3.23,44.0,1.0,0.0,1.0,1.0,10080343,0.0,78.56000000000003,2385.019716160598
1765228585376,0.0,0.0,2.0,20.0,0.0,0.0,0.0,0.0,0.0,0.0,0.0,0.0,0.0,0.0,0.0,0.0,0.0,0.0,-0.01952,0.000122,0.9916159999999999,-0.6300000000000001,0.35000000000000003,0.0,25.0,3.27,3.32,3.23,3.25,3.26,3.28,3.25,3.25,3.28,3.28,3.29,3.28,3.27,3.27,3.27,3.29,3.28,3.27,3.27,3.27,3.29,3.29,3.28,3.27,3.32,3.23,44.0,1.0,0.0,1.0,1.0,10080350,0.0,78.56000000000003,2385.019716160598
1765228585384,0.0,0.0,2.0,20.0,0.0,0.0,0.0,0.0,0.0,0.0,0.0,0.0,0.0,0.0,0.0,0.0,0.0,0.0,-0.01952,0.000122,0.9916159999999999,-0.6300000000000001,0.35000000000000003,0.0,25.0,3.27,3.32,3.23,3.25,3.26,3.28,3.25,3.25,3.28,3.28,3.29,3.28,3.27,3.27,3.27,3.29,3.28,3.27,3.27,3.27,3.29,3.29,3.28,3.27,3.32,3.23,44.0,1.0,0.0,1.0,1.0,10080358,0.0,78.56000000000003,2385.019716160598
1765228585392,0.0,0.0,2.0,20.0,0.0,0.0,0.0,0.0,0.0,0.0,0.0,0.0,0.0,0.0,0.0,0.0,0.0,0.0,-0.01952,0.000122,0.9916159999999999,-0.6300000000000001,0.35000000000000003,0.0,25.0,3.27,3.32,3.23,3.25,3.26,3.28,3.25,3.25,3.28,3.28,3.29,3.28,3.27,3.27,3.27,3.29,3.28,3.27,3.27,3.27,3.29,3.29,3.28,3.27,3.32,3.23,44.0,1.0,0.0,1.0,1.0,10080366,0.0,78.56000000000003,2385.019716160598
1765228585400,0.0,0.0,2.0,20.0,0.0,0.0,0.0,0.0,0.0,0.0,0.0,0.0,0.0,0.0,0.0,0.0,0.0,0.0,-0.01952,0.000122,0.9916159999999999,-0.6300000000000001,0.35000000000000003,0.0,25.0,3.27,3.32,3.23,3.25,3.26,3.28,3.25,3.25,3.28,3.28,3.29,3.28,3.27,3.27,3.27,3.29,3.28,3.27,3.27,3.27,3.29,3.29,3.28,3.27,3.32,3.23,44.0,1.0,0.0,1.0,1.0,10080374,0.0,78.56000000000003,2385.019716160598
1765228585408,0.0,0.0,2.0,20.0,0.0,0.0,0.0,0.0,0.0,0.0,0.0,0.0,0.0,0.0,0.0,0.0,0.0,0.0,-0.01952,0.000122,0.9916159999999999,-0.6300000000000001,0.35000000000000003,0.0,25.0,3.27,3.32,3.23,3.25,3.26,3.28,3.25,3.25,3.28,3.28,3.29,3.28,3.27,3.27,3.27,3.29,3.28,3.27,3.27,3.27,3.29,3.29,3.28,3.27,3.32,3.23,44.0,1.0,0.0,1.0,1.0,10080382,0.0,78.56000000000003,2385.019716160598
1765228585416,0.0,0.0,2.0,20.0,0.0,0.0,0.0,0.0,0.0,0.0,0.0,0.0,0.0,0.0,0.0,0.0,0.0,0.0,-0.020739999999999998,0.000976,0.99064,-0.6300000000000001,0.35000000000000003,0.0,25.0,3.27,3.32,3.23,3.25,3.26,3.28,3.25,3.25,3.28,3.28,3.29,3.28,3.27,3.27,3.27,3.29,3.28,3.27,3.27,3.27,3.29,3.29,3.28,3.27,3.32,3.23,44.0,1.0,0.0,1.0,1.0,10080390,0.0,78.56000000000003,2385.019716160598
1765228585426,0.0,0.0,2.0,20.0,0.0,0.0,0.0,0.0,0.0,0.0,0.0,0.0,0.0,0.0,0.0,0.0,0.0,0.0,-0.020739999999999998,0.000976,0.99064,-0.6300000000000001,0.21000000000000002,-0.07,25.0,3.27,3.32,3.23,3.25,3.26,3.28,3.25,3.25,3.28,3.28,3.29,3.28,3.27,3.27,3.27,3.29,3.28,3.27,3.27,3.27,3.29,3.29,3.28,3.27,3.32,3.23,44.0,1.0,0.0,1.0,1.0,10080400,0.0,78.56000000000003,2385.019716160598
1765228585434,0.0,0.0,2.0,20.0,0.0,0.0,0.0,0.0,0.0,0.0,0.0,0.0,0.0,0.0,0.0,0.0,0.0,0.0,-0.020739999999999998,0.000976,0.99064,-0.6300000000000001,0.21000000000000002,-0.07,25.0,3.27,3.32,3.23,3.25,3.26,3.28,3.25,3.25,3.28,3.28,3.29,3.28,3.27,3.27,3.27,3.29,3.28,3.27,3.27,3.27,3.29,3.29,3.28,3.27,3.32,3.23,44.0,1.0,0.0,1.0,1.0,10080408,0.0,78.56000000000003,2385.019716160598
1765228585451,0.0,0.0,2.0,20.0,0.0,0.0,0.0,0.0,0.0,0.0,0.0,0.0,0.0,0.0,0.0,0.0,0.0,0.0,-0.020739999999999998,0.000976,0.99064,-0.6300000000000001,0.21000000000000002,-0.07,25.0,3.27,3.32,3.23,3.25,3.26,3.28,3.25,3.25,3.28,3.28,3.29,3.28,3.27,3.27,3.27,3.29,3.28,3.27,3.27,3.27,3.29,3.29,3.28,3.27,3.32,3.25,45.0,1.0,0.0,1.0,1.0,10080425,0.0,78.56000000000003,2385.019716160598
1765228585460,0.0,0.0,2.0,20.0,0.0,0.0,0.0,0.0,0.0,0.0,0.0,0.0,0.0,0.0,0.0,0.0,0.0,0.0,-0.017324,0.002196,0.997594,-0.6300000000000001,0.21000000000000002,-0.07,25.0,3.27,3.32,3.23,3.25,3.26,3.28,3.25,3.25,3.28,3.28,3.29,3.28,3.27,3.27,3.27,3.29,3.28,3.27,3.27,3.27,3.29,3.29,3.28,3.27,3.32,3.25,45.0,1.0,0.0,1.0,1.0,10080434,0.0,78.56000000000003,2385.019716160598
1765228585469,0.0,0.0,2.0,20.0,0.0,0.0,0.0,0.0,0.0,0.0,0.0,0.0,0.0,0.0,0.0,0.0,0.0,0.0,-0.017324,0.002196,0.997594,-0.56,0.42000000000000004,0.0,25.0,3.27,3.32,3.23,3.25,3.26,3.28,3.25,3.25,3.28,3.28,3.29,3.28,3.27,3.27,3.27,3.29,3.28,3.27,3.27,3.27,3.29,3.29,3.28,3.27,3.32,3.25,45.0,1.0,0.0,1.0,1.0,10080443,0.0,78.56000000000003,2385.019716160598
1765228585478,0.0,0.0,2.0,20.0,0.0,0.0,0.0,0.0,0.0,0.0,0.0,0.0,0.0,0.0,0.0,0.0,0.0,0.0,-0.017324,0.002196,0.997594,-0.56,0.42000000000000004,0.0,25.0,3.27,3.32,3.23,3.25,3.26,3.28,3.25,3.25,3.28,3.28,3.29,3.28,3.27,3.27,3.27,3.29,3.28,3.27,3.27,3.27,3.29,3.29,3.28,3.27,3.32,3.25,45.0,1.0,0.0,1.0,1.0,10080452,0.0,78.56000000000003,2385.019716160598
1765228585487,0.0,0.0,2.0,20.0,0.0,0.0,0.0,0.0,0.0,0.0,0.0,0.0,0.0,0.0,0.0,0.0,0.0,0.0,-0.017324,0.002196,0.997594,-0.56,0.42000000000000004,0.0,25.0,3.27,3.32,3.23,3.25,3.26,3.28,3.25,3.25,3.28,3.28,3.29,3.28,3.27,3.27,3.27,3.29,3.28,3.27,3.27,3.27,3.29,3.29,3.28,3.27,3.32,3.25,45.0,1.0,0.0,1.0,1.0,10080461,0.0,78.56000000000003,2385.019716160598
1765228585496,0.0,0.0,2.0,20.0,0.0,0.0,0.0,0.0,0.0,0.0,0.0,0.0,0.0,0.0,0.0,0.0,0.0,0.0,-0.017324,0.002196,0.997594,-0.56,0.42000000000000004,0.0,25.0,3.27,3.32,3.23,3.25,3.26,3.28,3.25,3.25,3.28,3.28,3.29,3.28,3.27,3.27,3.27,3.29,3.28,3.27,3.27,3.27,3.29,3.29,3.28,3.27,3.32,3.25,45.0,1.0,0.0,1.0,1.0,10080470,0.0,78.56000000000003,2385.019716160598
1765228585504,0.0,0.0,2.0,20.0,0.0,0.0,0.0,0.0,0.0,0.0,0.0,0.0,0.0,0.0,0.0,0.0,0.0,0.0,-0.020618,0.0030499999999999998,0.988444,-0.56,0.42000000000000004,0.0,25.0,3.27,3.32,3.23,3.25,3.26,3.28,3.25,3.25,3.28,3.28,3.29,3.28,3.27,3.27,3.27,3.29,3.28,3.27,3.27,3.27,3.29,3.29,3.28,3.27,3.32,3.25,45.0,1.0,0.0,1.0,1.0,10080478,0.0,78.56000000000003,2385.019716160598
1765228585522,0.0,0.0,2.0,20.0,0.0,0.0,0.0,0.0,0.0,0.0,0.0,0.0,0.0,0.0,0.0,0.0,0.0,0.0,-0.020618,0.0030499999999999998,0.988444,-0.49000000000000005,0.35000000000000003,-0.07,25.0,3.27,3.32,3.23,3.25,3.26,3.28,3.25,3.25,3.28,3.28,3.29,3.28,3.27,3.27,3.27,3.29,3.28,3.27,3.27,3.27,3.29,3.29,3.28,3.27,3.32,3.25,45.0,1.0,0.0,1.0,1.0,10080496,0.0,78.56000000000003,2385.019716160598
1765228585531,0.0,0.0,2.0,20.0,0.0,0.0,0.0,0.0,0.0,0.0,0.0,0.0,0.0,0.0,0.0,0.0,0.0,0.0,-0.018543999999999998,0.002196,0.9946659999999999,-0.49000000000000005,0.35000000000000003,-0.07,25.0,3.27,3.32,3.23,3.25,3.26,3.28,3.25,3.25,3.28,3.28,3.29,3.28,3.27,3.27,3.27,3.29,3.28,3.27,3.27,3.27,3.29,3.29,3.28,3.27,3.32,3.25,45.0,1.0,0.0,1.0,1.0,10080505,0.0,78.56000000000003,2385.019716160598
1765228585550,0.0,0.0,2.0,20.0,0.0,0.0,0.0,0.0,0.0,0.0,0.0,0.0,0.0,0.0,0.0,0.0,0.0,0.0,-0.018543999999999998,0.002196,0.9946659999999999,-0.7000000000000001,0.28,0.07,25.0,3.27,3.32,3.23,3.25,3.26,3.28,3.25,3.25,3.28,3.28,3.29,3.28,3.27,3.27,3.27,3.29,3.28,3.27,3.27,3.27,3.29,3.29,3.28,3.27,3.32,3.25,45.0,1.0,0.0,1.0,1.0,10080524,0.0,78.56000000000003,2385.019716160598
1765228585559,0.0,0.0,2.0,20.0,0.0,0.0,0.0,0.0,0.0,0.0,0.0,0.0,0.0,0.0,0.0,0.0,0.0,0.0,-0.018543999999999998,0.002196,0.9946659999999999,-0.7000000000000001,0.28,0.07,25.0,3.27,3.32,3.23,3.25,3.26,3.28,3.25,3.25,3.28,3.28,3.29,3.28,3.27,3.27,3.27,3.29,3.28,3.27,3.27,3.27,3.29,3.29,3.28,3.27,3.32,3.25,45.0,1.0,0.0,1.0,1.0,10080533,0.0,78.56000000000003,2385.019716160598
1765228585568,0.0,0.0,2.0,20.0,0.0,0.0,0.0,0.0,0.0,0.0,0.0,0.0,0.0,0.0,0.0,0.0,0.0,0.0,-0.018543999999999998,0.002196,0.9946659999999999,-0.7000000000000001,0.28,0.07,25.0,3.27,3.32,3.23,3.25,3.26,3.28,3.25,3.25,3.28,3.28,3.29,3.28,3.27,3.27,3.27,3.29,3.28,3.27,3.27,3.27,3.29,3.29,3.28,3.27,3.32,3.25,45.0,1.0,0.0,1.0,1.0,10080542,0.0,78.56000000000003,2385.019716160598
1765228585606,0.0,0.0,2.0,20.0,0.0,0.0,0.0,0.0,0.0,0.0,0.0,0.0,0.0,0.0,0.0,0.0,0.0,0.0,-0.019764,0.0017079999999999999,0.993202,-0.7000000000000001,0.28,0.07,25.0,3.27,3.32,3.23,3.25,3.26,3.28,3.25,3.25,3.28,3.28,3.29,3.28,3.27,3.27,3.27,3.29,3.28,3.27,3.27,3.27,3.29,3.29,3.28,3.27,3.32,3.25,45.0,1.0,0.0,1.0,1.0,10080580,0.0,78.56000000000003,2385.019716160598
1765228585632,0.0,0.0,2.0,20.0,0.0,0.0,0.0,0.0,0.0,0.0,0.0,0.0,0.0,0.0,0.0,0.0,0.0,0.0,-0.019764,0.0017079999999999999,0.993202,-0.6300000000000001,0.28,0.0,25.0,3.27,3.32,3.23,3.25,3.26,3.28,3.25,3.25,3.28,3.28,3.29,3.28,3.27,3.27,3.27,3.29,3.28,3.27,3.27,3.27,3.29,3.29,3.28,3.27,3.32,3.25,45.0,1.0,0.0,1.0,1.0,10080606,0.0,78.56000000000003,2385.019716160598
1765228585679,0.0,0.0,2.0,20.0,0.0,0.0,0.0,0.0,0.0,0.0,0.0,0.0,0.0,0.0,0.0,0.0,0.0,0.0,-0.019764,0.0017079999999999999,0.993202,-0.6300000000000001,0.28,0.0,25.0,3.27,3.32,3.23,3.25,3.26,3.28,3.25,3.25,3.28,3.28,3.29,3.28,3.27,3.27,3.27,3.29,3.28,3.27,3.27,3.27,3.29,3.29,3.28,3.27,3.32,3.25,45.0,1.0,0.0,1.0,1.0,10080653,0.0,78.56000000000003,2385.019716160598
1765228585686,0.0,0.0,2.0,20.0,0.0,0.0,0.0,0.0,0.0,0.0,0.0,0.0,0.0,0.0,0.0,0.0,0.0,0.0,-0.019764,0.0017079999999999999,0.993202,-0.6300000000000001,0.28,0.0,25.0,3.27,3.32,3.23,3.25,3.26,3.28,3.25,3.25,3.28,3.28,3.29,3.28,3.27,3.27,3.27,3.29,3.28,3.27,3.27,3.27,3.29,3.29,3.28,3.27,3.32,3.25,45.0,1.0,0.0,1.0,1.0,10080660,0.0,78.56000000000003,2385.019716160598
1765228585706,0.0,0.0,2.0,20.0,0.0,0.0,0.0,0.0,0.0,0.0,0.0,0.0,0.0,0.0,0.0,0.0,0.0,0.0,-0.019764,0.0017079999999999999,0.993202,-0.6300000000000001,0.28,0.0,25.0,3.27,3.32,3.23,3.25,3.26,3.28,3.25,3.25,3.28,3.28,3.29,3.28,3.27,3.27,3.27,3.29,3.28,3.27,3.27,3.27,3.29,3.29,3.28,3.27,3.32,3.25,45.0,1.0,0.0,1.0,1.0,10080680,0.0,78.56000000000003,2385.019716160598
1765228585716,0.0,0.0,2.0,20.0,0.0,0.0,0.0,0.0,0.0,0.0,0.0,0.0,0.0,0.0,0.0,0.0,0.0,0.0,-0.019764,0.0017079999999999999,0.993202,-0.6300000000000001,0.28,0.0,25.0,3.27,3.32,3.23,3.25,3.26,3.28,3.25,3.25,3.28,3.28,3.29,3.28,3.27,3.27,3.27,3.29,3.28,3.27,3.27,3.27,3.29,3.29,3.28,3.27,3.32,3.25,45.0,1.0,0.0,1.0,1.0,10080690,0.0,78.56000000000003,2385.019716160598
1765228585727,0.0,0.0,2.0,20.0,0.0,0.0,0.0,0.0,0.0,0.0,0.0,0.0,0.0,0.0,0.0,0.0,0.0,0.0,-0.019275999999999998,0.00183,0.99369,-0.6300000000000001,0.28,0.0,25.0,3.27,3.32,3.23,3.25,3.26,3.28,3.25,3.25,3.28,3.28,3.29,3.28,3.27,3.27,3.27,3.29,3.28,3.27,3.27,3.27,3.29,3.29,3.28,3.27,3.32,3.25,45.0,1.0,0.0,1.0,1.0,10080701,0.0,78.56000000000003,2385.019716160598
1765228585758,0.0,0.0,2.0,20.0,0.0,0.0,0.0,0.0,0.0,0.0,0.0,0.0,0.0,0.0,0.0,0.0,0.0,0.0,-0.019275999999999998,0.00183,0.99369,-0.6300000000000001,0.28,0.0,25.0,3.27,3.32,3.23,3.25,3.26,3.28,3.25,3.25,3.28,3.28,3.29,3.28,3.27,3.27,3.27,3.29,3.28,3.27,3.27,3.27,3.29,3.29,3.28,3.27,3.32,3.25,45.0,1.0,0.0,1.0,1.0,10080732,0.0,78.56000000000003,2385.019716160598
1765228585788,0.0,0.0,2.0,20.0,0.0,0.0,0.0,0.0,0.0,0.0,0.0,0.0,0.0,0.0,0.0,0.0,0.0,0.0,-0.019275999999999998,0.00183,0.99369,-0.56,0.35000000000000003,0.0,25.0,3.27,3.32,3.23,3.25,3.26,3.28,3.25,3.25,3.28,3.28,3.29,3.28,3.27,3.27,3.27,3.29,3.28,3.27,3.27,3.27,3.29,3.29,3.28,3.27,3.32,3.25,45.0,1.0,0.0,1.0,1.0,10080762,0.0,78.56000000000003,2385.019716160598
1765228585820,0.0,0.0,2.0,20.0,0.0,0.0,0.0,0.0,0.0,0.0,0.0,0.0,0.0,0.0,0.0,0.0,0.0,0.0,-0.019275999999999998,0.00183,0.99369,-0.56,0.35000000000000003,0.0,25.0,3.27,3.32,3.23,3.25,3.26,3.28,3.25,3.25,3.28,3.28,3.29,3.28,3.27,3.27,3.27,3.29,3.28,3.27,3.27,3.27,3.29,3.29,3.28,3.27,3.32,3.25,45.0,1.0,0.0,1.0,1.0,10080794,0.0,78.56000000000003,2385.019716160598
1765228585861,0.0,0.0,2.0,20.0,0.0,0.0,0.0,0.0,0.0,0.0,0.0,0.0,0.0,0.0,0.0,0.0,0.0,0.0,-0.019275999999999998,0.00183,0.99369,-0.56,0.35000000000000003,0.0,25.0,3.27,3.32,3.23,3.25,3.26,3.28,3.25,3.25,3.28,3.28,3.29,3.28,3.27,3.27,3.27,3.29,3.28,3.27,3.27,3.27,3.29,3.29,3.28,3.27,3.32,3.25,45.0,1.0,0.0,1.0,1.0,10080835,0.0,78.56000000000003,2385.019716160598
1765228585901,0.0,0.0,2.0,20.0,0.0,0.0,0.0,0.0,0.0,0.0,0.0,0.0,0.0,0.0,0.0,0.0,0.0,0.0,-0.018422,0.0037819999999999998,0.990152,-0.56,0.35000000000000003,0.0,25.0,3.27,3.32,3.23,3.25,3.26,3.28,3.25,3.25,3.28,3.28,3.29,3.28,3.27,3.27,3.27,3.29,3.28,3.27,3.27,3.27,3.29,3.29,3.28,3.27,3.32,3.25,45.0,1.0,0.0,1.0,1.0,10080875,0.0,78.56000000000003,2385.019716160598
1765228585921,0.0,0.0,2.0,20.0,0.0,0.0,0.0,0.0,0.0,0.0,0.0,0.0,0.0,0.0,0.0,0.0,0.0,0.0,-0.018422,0.0037819999999999998,0.990152,-0.56,0.35000000000000003,0.0,25.0,3.28,3.32,3.25,3.27,3.26,3.28,3.25,3.25,3.28,3.28,3.29,3.28,3.27,3.27,3.27,3.29,3.28,3.27,3.27,3.27,3.29,3.29,3.28,3.27,3.32,3.25,45.0,1.0,0.0,1.0,1.0,10080895,0.0,78.61000000000003,2385.019716160598
1765228585940,0.0,0.0,2.0,20.0,0.0,0.0,0.0,0.0,0.0,0.0,0.0,0.0,0.0,0.0,0.0,0.0,0.0,0.0,-0.018422,0.0037819999999999998,0.990152,-0.56,0.35000000000000003,0.0,25.0,3.28,3.32,3.25,3.27,3.28,3.29,3.28,3.28,3.28,3.28,3.29,3.28,3.27,3.27,3.27,3.29,3.28,3.27,3.27,3.27,3.29,3.29,3.28,3.27,3.32,3.25,45.0,1.0,0.0,1.0,1.0,10080914,0.0,78.70000000000003,2385.019716160598
1765228585950,0.0,0.0,2.0,20.0,0.0,0.0,0.0,0.0,0.0,0.0,0.0,0.0,0.0,0.0,0.0,0.0,0.0,0.0,-0.018422,0.0037819999999999998,0.990152,-0.56,0.35000000000000003,0.0,25.0,3.28,3.32,3.25,3.27,3.28,3.29,3.28,3.28,3.28,3.28,3.29,3.28,3.27,3.27,3.27,3.29,3.28,3.27,3.27,3.27,3.29,3.29,3.28,3.27,3.32,3.25,45.0,1.0,0.0,1.0,1.0,10080924,0.0,78.70000000000003,2385.019716160598
1765228585959,0.0,0.0,2.0,20.0,0.0,0.0,0.0,0.0,0.0,0.0,0.0,0.0,0.0,0.0,0.0,0.0,0.0,0.0,-0.018422,0.0037819999999999998,0.990152,-0.56,0.35000000000000003,0.0,25.0,3.28,3.32,3.25,3.27,3.28,3.29,3.28,3.28,3.3,3.3,3.3,3.29,3.27,3.27,3.27,3.29,3.28,3.27,3.27,3.27,3.29,3.29,3.28,3.27,3.32,3.25,45.0,1.0,0.0,1.0,1.0,10080933,0.0,78.76000000000002,2385.019716160598
1765228585968,0.0,0.0,2.0,20.0,0.0,0.0,0.0,0.0,0.0,0.0,0.0,0.0,0.0,0.0,0.0,0.0,0.0,0.0,-0.018422,0.0037819999999999998,0.990152,-0.56,0.35000000000000003,0.0,25.0,3.28,3.32,3.25,3.27,3.28,3.29,3.28,3.28,3.3,3.3,3.3,3.29,3.28,3.28,3.28,3.29,3.28,3.27,3.27,3.27,3.29,3.29,3.28,3.27,3.32,3.25,45.0,1.0,0.0,1.0,1.0,10080942,0.0,78.79000000000002,2385.019716160598
1765228585988,0.0,0.0,2.0,20.0,0.0,0.0,0.0,0.0,0.0,0.0,0.0,0.0,0.0,0.0,0.0,0.0,0.0,0.0,-0.018422,0.0037819999999999998,0.990152,-0.56,0.35000000000000003,0.0,25.0,3.28,3.32,3.25,3.27,3.28,3.29,3.28,3.28,3.3,3.3,3.3,3.29,3.28,3.28,3.28,3.29,3.28,3.29,3.29,3.28,3.29,3.29,3.28,3.27,3.32,3.25,45.0,1.0,0.0,1.0,1.0,10080962,0.0,78.84,2385.019716160598
1765228585998,0.0,0.0,2.0,20.0,0.0,0.0,0.0,0.0,0.0,0.0,0.0,0.0,0.0,0.0,0.0,0.0,0.0,0.0,-0.018422,0.0037819999999999998,0.990152,-0.56,0.35000000000000003,0.0,25.0,3.28,3.32,3.25,3.27,3.28,3.29,3.28,3.28,3.3,3.3,3.3,3.29,3.28,3.28,3.28,3.29,3.28,3.29,3.29,3.28,3.31,3.3,3.3,3.29,3.32,3.25,45.0,1.0,0.0,1.0,1.0,10080972,0.0,78.91,2385.019716160598
1765228586019,0.0,0.0,2.0,20.0,0.0,0.0,0.0,0.0,0.0,0.0,0.0,0.0,0.0,0.0,0.0,0.0,0.0,0.0,-0.018422,0.0037819999999999998,0.990152,-0.56,0.35000000000000003,0.0,25.0,3.28,3.32,3.25,3.27,3.28,3.29,3.28,3.28,3.3,3.3,3.3,3.29,3.28,3.28,3.28,3.29,3.28,3.29,3.29,3.28,3.31,3.3,3.3,3.29,3.32,3.25,45.0,1.0,0.0,1.0,1.0,10080993,0.0,78.91,2385.019716160598
1765228586029,0.0,0.0,2.0,20.0,0.0,0.0,0.0,0.0,0.0,0.0,0.0,0.0,0.0,0.0,0.0,0.0,0.0,0.0,-0.018422,0.0037819999999999998,0.990152,-0.56,0.35000000000000003,0.0,25.0,3.28,3.32,3.25,3.27,3.28,3.29,3.28,3.28,3.3,3.3,3.3,3.29,3.28,3.28,3.28,3.29,3.28,3.29,3.29,3.28,3.31,3.3,3.3,3.29,3.32,3.25,45.0,1.0,0.0,1.0,1.0,10081003,0.0,78.91,2385.019716160598
1765228586039,0.0,0.0,2.0,20.0,0.0,0.0,0.0,0.0,0.0,0.0,0.0,0.0,0.0,0.0,0.0,0.0,0.0,0.0,-0.018422,0.0037819999999999998,0.990152,-0.56,0.35000000000000003,0.0,25.0,3.28,3.32,3.25,3.27,3.28,3.29,3.28,3.28,3.3,3.3,3.3,3.29,3.28,3.28,3.28,3.29,3.28,3.29,3.29,3.28,3.31,3.3,3.3,3.29,3.32,3.25,45.0,1.0,0.0,1.0,1.0,10081013,0.0,78.91,2385.019716160598
1765228586060,0.0,0.0,2.0,20.0,0.0,0.0,0.0,0.0,0.0,0.0,0.0,0.0,0.0,0.0,0.0,0.0,0.0,0.0,-0.018422,0.0037819999999999998,0.990152,-0.56,0.35000000000000003,0.0,25.0,3.28,3.32,3.25,3.27,3.28,3.29,3.28,3.28,3.3,3.3,3.3,3.29,3.28,3.28,3.28,3.29,3.28,3.29,3.29,3.28,3.31,3.3,3.3,3.29,3.32,3.25,45.0,1.0,0.0,1.0,1.0,10081034,0.0,78.91,2385.019716160598
1765228586080,0.0,0.0,2.0,20.0,0.0,0.0,0.0,0.0,0.0,0.0,0.0,0.0,0.0,0.0,0.0,0.0,0.0,0.0,-0.018422,0.0037819999999999998,0.990152,-0.56,0.35000000000000003,0.0,25.0,3.28,3.32,3.25,3.27,3.28,3.29,3.28,3.28,3.3,3.3,3.3,3.29,3.28,3.28,3.28,3.29,3.28,3.29,3.29,3.28,3.31,3.3,3.3,3.29,3.32,3.25,45.0,1.0,0.0,1.0,1.0,10081054,0.0,78.91,2385.019716160598
1765228586100,0.0,0.0,2.0,20.0,0.0,0.0,0.0,0.0,0.0,0.0,0.0,0.0,0.0,0.0,0.0,0.0,0.0,0.0,-0.018422,0.0037819999999999998,0.990152,-0.56,0.35000000000000003,0.0,25.0,3.28,3.32,3.25,3.27,3.28,3.29,3.28,3.28,3.3,3.3,3.3,3.29,3.28,3.28,3.28,3.29,3.28,3.29,3.29,3.28,3.31,3.3,3.3,3.29,3.32,3.25,45.0,1.0,0.0,1.0,1.0,10081074,0.0,78.91,2385.019716160598
1765228586153,0.0,0.0,2.0,20.0,0.0,0.0,0.0,0.0,0.0,0.0,0.0,0.0,0.0,0.0,0.0,0.0,0.0,0.0,-0.018422,0.0037819999999999998,0.990152,-0.56,0.35000000000000003,0.0,25.0,3.28,3.32,3.25,3.27,3.28,3.29,3.28,3.28,3.3,3.3,3.3,3.29,3.28,3.28,3.28,3.29,3.28,3.29,3.29,3.28,3.31,3.3,3.3,3.29,3.32,3.25,45.0,1.0,0.0,1.0,1.0,10081127,0.0,78.91,2385.019716160598
1765228586225,0.0,0.0,2.0,20.0,0.0,0.0,0.0,0.0,0.0,0.0,0.0,0.0,0.0,0.0,0.0,0.0,0.0,0.0,-0.018422,0.0037819999999999998,0.990152,-0.56,0.35000000000000003,0.0,25.0,3.28,3.32,3.25,3.27,3.28,3.29,3.28,3.28,3.3,3.3,3.3,3.29,3.28,3.28,3.28,3.29,3.28,3.29,3.29,3.28,3.31,3.3,3.3,3.29,3.32,3.25,45.0,1.0,0.0,1.0,1.0,10081199,0.0,78.91,2385.019716160598
1765228586269,0.0,0.0,2.0,20.0,0.0,0.0,0.0,0.0,0.0,0.0,0.0,0.0,0.0,0.0,0.0,0.0,0.0,0.0,-0.018422,0.0037819999999999998,0.990152,-0.56,0.35000000000000003,0.0,25.0,3.28,3.32,3.25,3.27,3.28,3.29,3.28,3.28,3.3,3.3,3.3,3.29,3.28,3.28,3.28,3.29,3.28,3.29,3.29,3.28,3.31,3.3,3.3,3.29,3.32,3.25,45.0,1.0,0.0,1.0,1.0,10081243,0.0,78.91,2385.019716160598
1765228586288,0.0,0.0,2.0,20.0,0.0,0.0,0.0,0.0,0.0,0.0,0.0,0.0,0.0,0.0,0.0,0.0,0.0,0.0,-0.018422,0.0037819999999999998,0.990152,-0.56,0.35000000000000003,0.0,25.0,3.28,3.32,3.25,3.27,3.28,3.29,3.28,3.28,3.3,3.3,3.3,3.29,3.28,3.28,3.28,3.29,3.28,3.29,3.29,3.28,3.31,3.3,3.3,3.29,3.32,3.25,45.0,1.0,0.0,1.0,1.0,10081262,0.0,78.91,2385.019716160598
1765228586356,0.0,0.0,2.0,20.0,0.0,0.0,0.0,0.0,0.0,0.0,0.0,0.0,0.0,0.0,0.0,0.0,0.0,0.0,-0.017202,0.0034159999999999998,0.995032,-0.56,0.35000000000000003,0.0,25.0,3.28,3.32,3.25,3.27,3.28,3.29,3.28,3.28,3.3,3.3,3.3,3.29,3.28,3.28,3.28,3.29,3.28,3.29,3.29,3.28,3.31,3.3,3.3,3.29,3.32,3.25,45.0,1.0,0.0,1.0,1.0,10081330,0.0,78.91,2385.019716160598
1765228586376,0.0,0.0,2.0,20.0,0.0,0.0,0.0,0.0,0.0,0.0,0.0,0.0,0.0,0.0,0.0,0.0,0.0,0.0,-0.017202,0.0034159999999999998,0.995032,-0.56,0.21000000000000002,0.07,25.0,3.28,3.32,3.25,3.27,3.28,3.29,3.28,3.28,3.3,3.3,3.3,3.29,3.28,3.28,3.28,3.29,3.28,3.29,3.29,3.28,3.31,3.3,3.3,3.29,3.32,3.25,45.0,1.0,0.0,1.0,1.0,10081350,0.0,78.91,2385.019716160598
1765228586415,0.0,0.0,2.0,20.0,0.0,0.0,0.0,0.0,0.0,0.0,0.0,0.0,0.0,0.0,0.0,0.0,0.0,0.0,-0.017202,0.0034159999999999998,0.995032,-0.56,0.21000000000000002,0.07,25.0,3.28,3.32,3.25,3.27,3.28,3.29,3.28,3.28,3.3,3.3,3.3,3.29,3.28,3.28,3.28,3.29,3.28,3.29,3.29,3.28,3.31,3.3,3.3,3.29,3.32,3.25,45.0,1.0,0.0,1.0,1.0,10081389,0.0,78.91,2385.019716160598
1765228586425,0.0,0.0,2.0,20.0,0.0,0.0,0.0,0.0,0.0,0.0,0.0,0.0,0.0,0.0,0.0,0.0,0.0,0.0,-0.017202,0.0034159999999999998,0.995032,-0.56,0.21000000000000002,0.07,25.0,3.28,3.32,3.25,3.27,3.28,3.29,3.28,3.28,3.3,3.3,3.3,3.29,3.28,3.28,3.28,3.29,3.28,3.29,3.29,3.28,3.31,3.3,3.3,3.29,3.32,3.25,45.0,1.0,0.0,1.0,1.0,10081399,0.0,78.91,2385.019716160598
1765228586444,0.0,0.0,2.0,20.0,0.0,0.0,0.0,0.0,0.0,0.0,0.0,0.0,0.0,0.0,0.0,0.0,0.0,0.0,-0.017202,0.0034159999999999998,0.995032,-0.56,0.21000000000000002,0.07,25.0,3.28,3.32,3.25,3.27,3.28,3.29,3.28,3.28,3.3,3.3,3.3,3.29,3.28,3.28,3.28,3.29,3.28,3.29,3.29,3.28,3.31,3.3,3.3,3.29,3.32,3.25,45.0,1.0,0.0,1.0,1.0,10081418,0.0,78.91,2385.019716160598
1765228586463,0.0,0.0,2.0,20.0,0.0,0.0,0.0,0.0,0.0,0.0,0.0,0.0,0.0,0.0,0.0,0.0,0.0,0.0,-0.017202,0.0034159999999999998,0.995032,-0.56,0.21000000000000002,0.07,25.0,3.28,3.32,3.25,3.27,3.28,3.29,3.28,3.28,3.3,3.3,3.3,3.29,3.28,3.28,3.28,3.29,3.28,3.29,3.29,3.28,3.31,3.3,3.3,3.29,3.32,3.25,45.0,1.0,0.0,1.0,1.0,10081437,0.0,78.91,2385.019716160598
1765228586483,0.0,0.0,2.0,20.0,0.0,0.0,0.0,0.0,0.0,0.0,0.0,0.0,0.0,0.0,0.0,0.0,0.0,0.0,-0.017202,0.0034159999999999998,0.995032,-0.56,0.21000000000000002,0.07,25.0,3.28,3.32,3.25,3.27,3.28,3.29,3.28,3.28,3.3,3.3,3.3,3.29,3.28,3.28,3.28,3.29,3.28,3.29,3.29,3.28,3.31,3.3,3.3,3.29,3.32,3.25,45.0,1.0,0.0,1.0,1.0,10081457,0.0,78.91,2385.019716160598
1765228586493,0.0,0.0,2.0,20.0,0.0,0.0,0.0,0.0,0.0,0.0,0.0,0.0,0.0,0.0,0.0,0.0,0.0,0.0,-0.018422,0.002562,0.9922259999999999,-0.56,0.21000000000000002,0.07,25.0,3.28,3.32,3.25,3.27,3.28,3.29,3.28,3.28,3.3,3.3,3.3,3.29,3.28,3.28,3.28,3.29,3.28,3.29,3.29,3.28,3.31,3.3,3.3,3.29,3.32,3.25,45.0,1.0,0.0,1.0,1.0,10081467,0.0,78.91,2385.019716160598
1765228586544,0.0,0.0,2.0,20.0,0.0,0.0,0.0,0.0,0.0,0.0,0.0,0.0,0.0,0.0,0.0,0.0,0.0,0.0,-0.018422,0.002562,0.9922259999999999,-0.49000000000000005,0.28,0.0,25.0,3.28,3.32,3.25,3.27,3.28,3.29,3.28,3.28,3.3,3.3,3.3,3.29,3.28,3.28,3.28,3.29,3.28,3.29,3.29,3.28,3.31,3.3,3.3,3.29,3.32,3.25,45.0,1.0,0.0,1.0,1.0,10081518,0.0,78.91,2385.019716160598
1765228586559,0.0,0.0,2.0,20.0,0.0,0.0,0.0,0.0,0.0,0.0,0.0,0.0,0.0,0.0,0.0,0.0,0.0,0.0,-0.018422,0.002562,0.9922259999999999,-0.49000000000000005,0.28,0.0,25.0,3.28,3.32,3.25,3.27,3.28,3.29,3.28,3.28,3.3,3.3,3.3,3.29,3.28,3.28,3.28,3.29,3.28,3.29,3.29,3.28,3.31,3.3,3.3,3.29,3.32,3.25,45.0,1.0,0.0,1.0,1.0,10081533,0.0,78.91,2385.019716160598
1765228586611,0.0,0.0,2.0,20.0,0.0,0.0,0.0,0.0,0.0,0.0,0.0,0.0,0.0,0.0,0.0,0.0,0.0,0.0,-0.018422,0.002562,0.9922259999999999,-0.49000000000000005,0.28,0.0,25.0,3.28,3.32,3.25,3.27,3.28,3.29,3.28,3.28,3.3,3.3,3.3,3.29,3.28,3.28,3.28,3.29,3.28,3.29,3.29,3.28,3.31,3.3,3.3,3.29,3.32,3.25,45.0,1.0,0.0,1.0,1.0,10081585,0.0,78.91,2385.019716160598
1765228586655,0.0,0.0,2.0,20.0,0.0,0.0,0.0,0.0,0.0,0.0,0.0,0.0,0.0,0.0,0.0,0.0,0.0,0.0,-0.017811999999999998,0.00244,0.992104,-0.49000000000000005,0.28,0.0,25.0,3.28,3.32,3.25,3.27,3.28,3.29,3.28,3.28,3.3,3.3,3.3,3.29,3.28,3.28,3.28,3.29,3.28,3.29,3.29,3.28,3.31,3.3,3.3,3.29,3.32,3.25,45.0,1.0,0.0,1.0,1.0,10081629,0.0,78.91,2385.019716160598
1765228586672,0.0,0.0,2.0,20.0,0.0,0.0,0.0,0.0,0.0,0.0,0.0,0.0,0.0,0.0,0.0,0.0,0.0,0.0,-0.017811999999999998,0.00244,0.992104,-0.7000000000000001,0.35000000000000003,0.0,25.0,3.28,3.32,3.25,3.27,3.28,3.29,3.28,3.28,3.3,3.3,3.3,3.29,3.28,3.28,3.28,3.29,3.28,3.29,3.29,3.28,3.31,3.3,3.3,3.29,3.32,3.25,45.0,1.0,0.0,1.0,1.0,10081646,0.0,78.91,2385.019716160598
1765228586711,0.0,0.0,2.0,20.0,0.0,0.0,0.0,0.0,0.0,0.0,0.0,0.0,0.0,0.0,0.0,0.0,0.0,0.0,-0.017811999999999998,0.00244,0.992104,-0.7000000000000001,0.35000000000000003,0.0,25.0,3.28,3.32,3.25,3.27,3.28,3.29,3.28,3.28,3.3,3.3,3.3,3.29,3.28,3.28,3.28,3.29,3.28,3.29,3.29,3.28,3.31,3.3,3.3,3.29,3.32,3.25,45.0,1.0,0.0,1.0,1.0,10081685,0.0,78.91,2385.019716160598
1765228586721,0.0,0.0,2.0,20.0,0.0,0.0,0.0,0.0,0.0,0.0,0.0,0.0,0.0,0.0,0.0,0.0,0.0,0.0,-0.017811999999999998,0.00244,0.992104,-0.7000000000000001,0.35000000000000003,0.0,25.0,3.28,3.32,3.25,3.27,3.28,3.29,3.28,3.28,3.3,3.3,3.3,3.29,3.28,3.28,3.28,3.29,3.28,3.29,3.29,3.28,3.31,3.3,3.3,3.29,3.32,3.25,45.0,1.0,0.0,1.0,1.0,10081695,0.0,78.91,2385.019716160598
1765228586730,0.0,0.0,2.0,20.0,0.0,0.0,0.0,0.0,0.0,0.0,0.0,0.0,0.0,0.0,0.0,0.0,0.0,0.0,-0.017811999999999998,0.00244,0.992104,-0.7000000000000001,0.35000000000000003,0.0,25.0,3.28,3.32,3.25,3.27,3.28,3.29,3.28,3.28,3.3,3.3,3.3,3.29,3.28,3.28,3.28,3.29,3.28,3.29,3.29,3.28,3.31,3.3,3.3,3.29,3.32,3.25,45.0,1.0,0.0,1.0,1.0,10081704,0.0,78.91,2385.019716160598
1765228586740,0.0,0.0,2.0,20.0,0.0,0.0,0.0,0.0,0.0,0.0,0.0,0.0,0.0,0.0,0.0,0.0,0.0,0.0,-0.017811999999999998,0.00244,0.992104,-0.7000000000000001,0.35000000000000003,0.0,25.0,3.28,3.32,3.25,3.27,3.28,3.29,3.28,3.28,3.3,3.3,3.3,3.29,3.28,3.28,3.28,3.29,3.28,3.29,3.29,3.28,3.31,3.3,3.3,3.29,3.32,3.25,45.0,1.0,0.0,1.0,1.0,10081714,0.0,78.91,2385.019716160598
1765228586799,0.0,0.0,2.0,20.0,0.0,0.0,0.0,0.0,0.0,0.0,0.0,0.0,0.0,0.0,0.0,0.0,0.0,0.0,-0.017811999999999998,0.00244,0.992104,-0.7000000000000001,0.35000000000000003,0.0,25.0,3.28,3.32,3.25,3.27,3.28,3.29,3.28,3.28,3.3,3.3,3.3,3.29,3.28,3.28,3.28,3.29,3.28,3.29,3.29,3.28,3.31,3.3,3.3,3.29,3.32,3.25,44.0,1.0,0.0,1.0,1.0,10081773,0.0,78.91,2385.019716160598
1765228586808,0.0,0.0,2.0,20.0,0.0,0.0,0.0,0.0,0.0,0.0,0.0,0.0,0.0,0.0,0.0,0.0,0.0,0.0,-0.017811999999999998,0.00244,0.992104,-0.7000000000000001,0.35000000000000003,0.0,25.0,3.28,3.32,3.25,3.27,3.28,3.29,3.28,3.28,3.3,3.3,3.3,3.29,3.28,3.28,3.28,3.29,3.28,3.29,3.29,3.28,3.31,3.3,3.3,3.29,3.32,3.25,44.0,1.0,0.0,1.0,1.0,10081782,0.0,78.91,2385.019716160598
1765228586857,0.0,0.0,2.0,20.0,0.0,0.0,0.0,0.0,0.0,0.0,0.0,0.0,0.0,0.0,0.0,0.0,0.0,0.0,-0.017811999999999998,0.00244,0.992104,-0.7000000000000001,0.35000000000000003,0.0,25.0,3.28,3.32,3.25,3.27,3.28,3.29,3.28,3.28,3.3,3.3,3.3,3.29,3.28,3.28,3.28,3.29,3.28,3.29,3.29,3.28,3.31,3.3,3.3,3.29,3.32,3.25,44.0,1.0,0.0,1.0,1.0,10081831,0.0,78.91,2385.019716160598
1765228586873,0.0,0.0,2.0,20.0,0.0,0.0,0.0,0.0,0.0,0.0,0.0,0.0,0.0,0.0,0.0,0.0,0.0,0.0,-0.017811999999999998,0.00244,0.992104,-0.7000000000000001,0.35000000000000003,0.0,25.0,3.28,3.32,3.25,3.27,3.28,3.29,3.28,3.28,3.3,3.3,3.3,3.29,3.28,3.28,3.28,3.29,3.28,3.29,3.29,3.28,3.31,3.3,3.3,3.29,3.32,3.25,44.0,1.0,0.0,1.0,1.0,10081847,0.0,78.91,2385.019716160598
1765228586909,0.0,0.0,2.0,20.0,0.0,0.0,0.0,0.0,0.0,0.0,0.0,0.0,0.0,0.0,0.0,0.0,0.0,0.0,-0.017811999999999998,0.00244,0.992104,-0.7000000000000001,0.35000000000000003,0.0,25.0,3.28,3.32,3.25,3.27,3.28,3.29,3.28,3.28,3.3,3.3,3.3,3.29,3.28,3.28,3.28,3.29,3.28,3.29,3.29,3.28,3.31,3.3,3.3,3.29,3.32,3.25,44.0,1.0,0.0,1.0,1.0,10081883,0.0,78.91,2385.019716160598
1765228586959,0.0,0.0,2.0,20.0,0.0,0.0,0.0,0.0,0.0,0.0,0.0,0.0,0.0,0.0,0.0,0.0,0.0,0.0,-0.017811999999999998,0.00244,0.992104,-0.7000000000000001,0.35000000000000003,0.0,25.0,3.28,3.32,3.25,3.27,3.28,3.29,3.28,3.28,3.3,3.3,3.3,3.29,3.28,3.28,3.28,3.29,3.28,3.29,3.29,3.28,3.31,3.3,3.3,3.29,3.32,3.25,45.0,1.0,0.0,1.0,1.0,10081933,0.0,78.91,2385.019716160598
1765228586984,0.0,0.0,2.0,20.0,0.0,0.0,0.0,0.0,0.0,0.0,0.0,0.0,0.0,0.0,0.0,0.0,0.0,0.0,-0.017811999999999998,0.00244,0.992104,-0.7000000000000001,0.35000000000000003,0.0,25.0,3.28,3.32,3.25,3.27,3.28,3.29,3.28,3.28,3.3,3.3,3.3,3.29,3.28,3.28,3.28,3.29,3.28,3.29,3.29,3.28,3.31,3.3,3.3,3.29,3.32,3.25,45.0,1.0,0.0,1.0,1.0,10081958,0.0,78.91,2385.019716160598
1765228587002,0.0,0.0,2.0,20.0,0.0,0.0,0.0,0.0,0.0,0.0,0.0,0.0,0.0,0.0,0.0,0.0,0.0,0.0,-0.017811999999999998,0.00244,0.992104,-0.7000000000000001,0.35000000000000003,0.0,25.0,3.28,3.32,3.25,3.27,3.28,3.29,3.28,3.28,3.3,3.3,3.3,3.29,3.28,3.28,3.28,3.29,3.28,3.29,3.29,3.28,3.31,3.3,3.3,3.29,3.32,3.25,45.0,1.0,0.0,1.0,1.0,10081976,0.0,78.91,2385.019716160598
1765228587059,0.0,0.0,2.0,20.0,0.0,0.0,0.0,0.0,0.0,0.0,0.0,0.0,0.0,0.0,0.0,0.0,0.0,0.0,-0.015982,0.0023179999999999997,0.994422,-0.7000000000000001,0.35000000000000003,0.0,25.0,3.28,3.32,3.25,3.27,3.28,3.29,3.28,3.28,3.3,3.3,3.3,3.29,3.28,3.28,3.28,3.29,3.28,3.29,3.29,3.28,3.31,3.3,3.3,3.29,3.32,3.25,45.0,1.0,0.0,1.0,1.0,10082033,0.0,78.91,2385.019716160598
1765228587085,0.0,0.0,2.0,20.0,0.0,0.0,0.0,0.0,0.0,0.0,0.0,0.0,0.0,0.0,0.0,0.0,0.0,0.0,-0.015982,0.0023179999999999997,0.994422,-0.56,0.28,0.0,25.0,3.28,3.32,3.25,3.27,3.28,3.29,3.28,3.28,3.3,3.3,3.3,3.29,3.28,3.28,3.28,3.29,3.28,3.29,3.29,3.28,3.31,3.3,3.3,3.29,3.32,3.25,45.0,1.0,0.0,1.0,1.0,10082059,0.0,78.91,2385.019716160598
1765228587094,0.0,0.0,2.0,20.0,0.0,0.0,0.0,0.0,0.0,0.0,0.0,0.0,0.0,0.0,0.0,0.0,0.0,0.0,-0.015982,0.0023179999999999997,0.994422,-0.56,0.28,0.0,25.0,3.28,3.32,3.25,3.27,3.28,3.29,3.28,3.28,3.3,3.3,3.3,3.29,3.28,3.28,3.28,3.29,3.28,3.29,3.29,3.28,3.31,3.3,3.3,3.29,3.32,3.25,45.0,1.0,0.0,1.0,1.0,10082068,0.0,78.91,2385.019716160598
1765228587140,0.0,0.0,2.0,20.0,0.0,0.0,0.0,0.0,0.0,0.0,0.0,0.0,0.0,0.0,0.0,0.0,0.0,0.0,-0.020496,-0.00183,0.987224,-0.56,0.28,0.0,25.0,3.28,3.32,3.25,3.27,3.28,3.29,3.28,3.28,3.3,3.3,3.3,3.29,3.28,3.28,3.28,3.29,3.28,3.29,3.29,3.28,3.31,3.3,3.3,3.29,3.32,3.25,45.0,1.0,0.0,1.0,1.0,10082114,0.0,78.91,2385.019716160598
1765228587150,0.0,0.0,2.0,20.0,0.0,0.0,0.0,0.0,0.0,0.0,0.0,0.0,0.0,0.0,0.0,0.0,0.0,0.0,-0.020496,-0.00183,0.987224,-0.56,0.28,0.0,25.0,3.28,3.32,3.25,3.27,3.28,3.29,3.28,3.28,3.3,3.3,3.3,3.29,3.28,3.28,3.28,3.29,3.28,3.29,3.29,3.28,3.31,3.3,3.3,3.29,3.32,3.25,45.0,1.0,0.0,1.0,1.0,10082124,0.0,78.91,2385.019716160598
1765228587160,0.0,0.0,2.0,20.0,0.0,0.0,0.0,0.0,0.0,0.0,0.0,0.0,0.0,0.0,0.0,0.0,0.0,0.0,-0.020496,-0.00183,0.987224,-0.56,0.28,0.0,25.0,3.28,3.32,3.25,3.27,3.28,3.29,3.28,3.28,3.3,3.3,3.3,3.29,3.28,3.28,3.28,3.29,3.28,3.29,3.29,3.28,3.31,3.3,3.3,3.29,3.32,3.25,45.0,1.0,0.0,1.0,1.0,10082134,0.0,78.91,2385.019716160598
1765228587169,0.0,0.0,2.0,20.0,0.0,0.0,0.0,0.0,0.0,0.0,0.0,0.0,0.0,0.0,0.0,0.0,0.0,0.0,-0.020496,-0.00183,0.987224,-0.56,0.28,0.0,25.0,3.28,3.32,3.25,3.27,3.28,3.29,3.28,3.28,3.3,3.3,3.3,3.29,3.28,3.28,3.28,3.29,3.28,3.29,3.29,3.28,3.31,3.3,3.3,3.29,3.32,3.25,45.0,1.0,0.0,1.0,1.0,10082143,0.0,78.91,2385.019716160598
1765228587199,0.0,0.0,2.0,20.0,0.0,0.0,0.0,0.0,0.0,0.0,0.0,0.0,0.0,0.0,0.0,0.0,0.0,0.0,-0.020496,-0.00183,0.987224,-0.56,0.35000000000000003,0.0,25.0,3.28,3.32,3.25,3.27,3.28,3.29,3.28,3.28,3.3,3.3,3.3,3.29,3.28,3.28,3.28,3.29,3.28,3.29,3.29,3.28,3.31,3.3,3.3,3.29,3.32,3.25,45.0,1.0,0.0,1.0,1.0,10082173,0.0,78.91,2385.019716160598
1765228587208,0.0,0.0,2.0,20.0,0.0,0.0,0.0,0.0,0.0,0.0,0.0,0.0,0.0,0.0,0.0,0.0,0.0,0.0,-0.020496,-0.00183,0.987224,-0.56,0.35000000000000003,0.0,25.0,3.28,3.32,3.25,3.27,3.28,3.29,3.28,3.28,3.3,3.3,3.3,3.29,3.28,3.28,3.28,3.29,3.28,3.29,3.29,3.28,3.31,3.3,3.3,3.29,3.32,3.25,45.0,1.0,0.0,1.0,1.0,10082182,0.0,78.91,2385.019716160598
1765228587230,0.0,0.0,2.0,20.0,0.0,0.0,0.0,0.0,0.0,0.0,0.0,0.0,0.0,0.0,0.0,0.0,0.0,0.0,-0.020496,-0.00183,0.987224,-0.56,0.35000000000000003,0.0,25.0,3.28,3.32,3.25,3.27,3.28,3.29,3.28,3.28,3.3,3.3,3.3,3.29,3.28,3.28,3.28,3.29,3.28,3.29,3.29,3.28,3.31,3.3,3.3,3.29,3.32,3.25,45.0,1.0,0.0,1.0,1.0,10082204,0.0,78.91,2385.019716160598
1765228587295,0.0,0.0,2.0,20.0,0.0,0.0,0.0,0.0,0.0,0.0,0.0,0.0,0.0,0.0,0.0,0.0,0.0,0.0,-0.020496,-0.00183,0.987224,-0.56,0.35000000000000003,0.0,25.0,3.28,3.32,3.25,3.27,3.28,3.29,3.28,3.28,3.3,3.3,3.3,3.29,3.28,3.28,3.28,3.29,3.28,3.29,3.29,3.28,3.31,3.3,3.3,3.29,3.32,3.25,45.0,1.0,0.0,1.0,1.0,10082269,0.0,78.91,2385.019716160598
1765228587357,0.0,0.0,2.0,20.0,0.0,0.0,0.0,0.0,0.0,0.0,0.0,0.0,0.0,0.0,0.0,0.0,0.0,0.0,-0.019764,0.00183,0.99552,-0.56,0.35000000000000003,0.0,25.0,3.28,3.32,3.25,3.27,3.28,3.29,3.28,3.28,3.3,3.3,3.3,3.29,3.28,3.28,3.28,3.29,3.28,3.29,3.29,3.28,3.31,3.3,3.3,3.29,3.32,3.25,45.0,1.0,0.0,1.0,1.0,10082331,0.0,78.91,2385.019716160598
1765228587378,0.0,0.0,2.0,20.0,0.0,0.0,0.0,0.0,0.0,0.0,0.0,0.0,0.0,0.0,0.0,0.0,0.0,0.0,-0.019764,0.00183,0.99552,-0.56,0.28,-0.07,25.0,3.28,3.32,3.25,3.27,3.28,3.29,3.28,3.28,3.3,3.3,3.3,3.29,3.28,3.28,3.28,3.29,3.28,3.29,3.29,3.28,3.31,3.3,3.3,3.29,3.32,3.25,45.0,1.0,0.0,1.0,1.0,10082352,0.0,78.91,2385.019716160598
1765228587390,0.0,0.0,2.0,20.0,0.0,0.0,0.0,0.0,0.0,0.0,0.0,0.0,0.0,0.0,0.0,0.0,0.0,0.0,-0.019764,0.00183,0.99552,-0.56,0.28,-0.07,25.0,3.28,3.32,3.25,3.27,3.28,3.29,3.28,3.28,3.3,3.3,3.3,3.29,3.28,3.28,3.28,3.29,3.28,3.29,3.29,3.28,3.31,3.3,3.3,3.29,3.32,3.25,45.0,1.0,0.0,1.0,1.0,10082364,0.0,78.91,2385.019716160598
1765228587433,0.0,0.0,2.0,20.0,0.0,0.0,0.0,0.0,0.0,0.0,0.0,0.0,0.0,0.0,0.0,0.0,0.0,0.0,-0.019764,0.00183,0.99552,-0.56,0.28,-0.07,25.0,3.28,3.32,3.25,3.27,3.28,3.29,3.28,3.28,3.3,3.3,3.3,3.29,3.28,3.28,3.28,3.29,3.28,3.29,3.29,3.28,3.31,3.3,3.3,3.29,3.32,3.25,45.0,1.0,0.0,1.0,1.0,10082407,0.0,78.91,2385.019716160598
1765228587502,0.0,0.0,2.0,20.0,0.0,0.0,0.0,0.0,0.0,0.0,0.0,0.0,0.0,0.0,0.0,0.0,0.0,0.0,-0.008296,0.018422,1.000766,-0.56,0.28,-0.07,25.0,3.28,3.32,3.25,3.27,3.28,3.29,3.28,3.28,3.3,3.3,3.3,3.29,3.28,3.28,3.28,3.29,3.28,3.29,3.29,3.28,3.31,3.3,3.3,3.29,3.32,3.25,45.0,1.0,0.0,1.0,1.0,10082476,0.0,78.91,2385.019716160598
1765228587522,0.0,0.0,2.0,20.0,0.0,0.0,0.0,0.0,0.0,0.0,0.0,0.0,0.0,0.0,0.0,0.0,0.0,0.0,-0.008296,0.018422,1.000766,-0.35000000000000003,0.21000000000000002,0.14,25.0,3.28,3.32,3.25,3.27,3.28,3.29,3.28,3.28,3.3,3.3,3.3,3.29,3.28,3.28,3.28,3.29,3.28,3.29,3.29,3.28,3.31,3.3,3.3,3.29,3.32,3.25,45.0,1.0,0.0,1.0,1.0,10082496,0.0,78.91,2385.019716160598
1765228587541,0.0,0.0,2.0,20.0,0.0,0.0,0.0,0.0,0.0,0.0,0.0,0.0,0.0,0.0,0.0,0.0,0.0,0.0,-0.008296,0.018422,1.000766,-0.35000000000000003,0.21000000000000002,0.14,25.0,3.28,3.32,3.25,3.27,3.28,3.29,3.28,3.28,3.3,3.3,3.3,3.29,3.28,3.28,3.28,3.29,3.28,3.29,3.29,3.28,3.31,3.3,3.3,3.29,3.32,3.25,45.0,1.0,0.0,1.0,1.0,10082515,0.0,78.91,2385.019716160598
1765228587561,0.0,0.0,2.0,20.0,0.0,0.0,0.0,0.0,0.0,0.0,0.0,0.0,0.0,0.0,0.0,0.0,0.0,0.0,-0.008296,0.018422,1.000766,-0.35000000000000003,0.21000000000000002,0.14,25.0,3.28,3.32,3.25,3.27,3.28,3.29,3.28,3.28,3.3,3.3,3.3,3.29,3.28,3.28,3.28,3.29,3.28,3.29,3.29,3.28,3.31,3.3,3.3,3.29,3.32,3.25,45.0,1.0,0.0,1.0,1.0,10082535,0.0,78.91,2385.019716160598
1765228587580,0.0,0.0,2.0,20.0,0.0,0.0,0.0,0.0,0.0,0.0,0.0,0.0,0.0,0.0,0.0,0.0,0.0,0.0,-0.008296,0.018422,1.000766,-0.35000000000000003,0.21000000000000002,0.14,25.0,3.28,3.32,3.25,3.27,3.28,3.29,3.28,3.28,3.3,3.3,3.3,3.29,3.28,3.28,3.28,3.29,3.28,3.29,3.29,3.28,3.31,3.3,3.3,3.29,3.32,3.25,45.0,1.0,0.0,1.0,1.0,10082554,0.0,78.91,2385.019716160598
1765228587589,0.0,0.0,2.0,20.0,0.0,0.0,0.0,0.0,0.0,0.0,0.0,0.0,0.0,0.0,0.0,0.0,0.0,0.0,-0.008296,0.018422,1.000766,-0.35000000000000003,0.21000000000000002,0.14,25.0,3.28,3.32,3.25,3.27,3.28,3.29,3.28,3.28,3.3,3.3,3.3,3.29,3.28,3.28,3.28,3.29,3.28,3.29,3.29,3.28,3.31,3.3,3.3,3.29,3.32,3.25,45.0,1.0,0.0,1.0,1.0,10082563,0.0,78.91,2385.019716160598
1765228587609,0.0,0.0,2.0,20.0,0.0,0.0,0.0,0.0,0.0,0.0,0.0,0.0,0.0,0.0,0.0,0.0,0.0,0.0,-0.008296,0.018422,1.000766,-0.35000000000000003,0.21000000000000002,0.14,25.0,3.28,3.32,3.25,3.27,3.28,3.29,3.28,3.28,3.3,3.3,3.3,3.29,3.28,3.28,3.28,3.29,3.28,3.29,3.29,3.28,3.31,3.3,3.3,3.29,3.32,3.25,45.0,1.0,0.0,1.0,1.0,10082583,0.0,78.91,2385.019716160598
1765228587628,0.0,0.0,2.0,20.0,0.0,0.0,0.0,0.0,0.0,0.0,0.0,0.0,0.0,0.0,0.0,0.0,0.0,0.0,-0.019154,0.005612,1.012844,-0.35000000000000003,0.21000000000000002,0.14,25.0,3.28,3.32,3.25,3.27,3.28,3.29,3.28,3.28,3.3,3.3,3.3,3.29,3.28,3.28,3.28,3.29,3.28,3.29,3.29,3.28,3.31,3.3,3.3,3.29,3.32,3.25,45.0,1.0,0.0,1.0,1.0,10082602,0.0,78.91,2385.019716160598
1765228587638,0.0,0.0,2.0,20.0,0.0,0.0,0.0,0.0,0.0,0.0,0.0,0.0,0.0,0.0,0.0,0.0,0.0,0.0,-0.019154,0.005612,1.012844,-0.35000000000000003,0.21000000000000002,0.14,25.0,3.28,3.32,3.25,3.27,3.28,3.29,3.28,3.28,3.3,3.3,3.3,3.29,3.28,3.28,3.28,3.29,3.28,3.29,3.29,3.28,3.31,3.3,3.3,3.29,3.32,3.25,45.0,1.0,0.0,1.0,1.0,10082612,0.0,78.91,2385.019716160598
1765228587687,0.0,0.0,2.0,20.0,0.0,0.0,0.0,0.0,0.0,0.0,0.0,0.0,0.0,0.0,0.0,0.0,0.0,0.0,-0.019154,0.005612,1.012844,-0.6300000000000001,0.49000000000000005,-0.14,25.0,3.28,3.32,3.25,3.27,3.28,3.29,3.28,3.28,3.3,3.3,3.3,3.29,3.28,3.28,3.28,3.29,3.28,3.29,3.29,3.28,3.31,3.3,3.3,3.29,3.32,3.25,45.0,1.0,0.0,1.0,1.0,10082661,0.0,78.91,2385.019716160598
1765228587707,0.0,0.0,2.0,20.0,0.0,0.0,0.0,0.0,0.0,0.0,0.0,0.0,0.0,0.0,0.0,0.0,0.0,0.0,-0.019154,0.005612,1.012844,-0.6300000000000001,0.49000000000000005,-0.14,25.0,3.28,3.32,3.25,3.27,3.28,3.29,3.28,3.28,3.3,3.3,3.3,3.29,3.28,3.28,3.28,3.29,3.28,3.29,3.29,3.28,3.31,3.3,3.3,3.29,3.32,3.25,45.0,1.0,0.0,1.0,1.0,10082681,0.0,78.91,2385.019716160598
1765228587716,0.0,0.0,2.0,20.0,0.0,0.0,0.0,0.0,0.0,0.0,0.0,0.0,0.0,0.0,0.0,0.0,0.0,0.0,-0.019154,0.005612,1.012844,-0.6300000000000001,0.49000000000000005,-0.14,25.0,3.28,3.32,3.25,3.27,3.28,3.29,3.28,3.28,3.3,3.3,3.3,3.29,3.28,3.28,3.28,3.29,3.28,3.29,3.29,3.28,3.31,3.3,3.3,3.29,3.32,3.25,45.0,1.0,0.0,1.0,1.0,10082690,0.0,78.91,2385.019716160598
1765228587745,0.0,0.0,2.0,20.0,0.0,0.0,0.0,0.0,0.0,0.0,0.0,0.0,0.0,0.0,0.0,0.0,0.0,0.0,-0.019154,0.005612,1.012844,-0.6300000000000001,0.49000000000000005,-0.14,25.0,3.28,3.32,3.25,3.27,3.28,3.29,3.28,3.28,3.3,3.3,3.3,3.29,3.28,3.28,3.28,3.29,3.28,3.29,3.29,3.28,3.31,3.3,3.3,3.29,3.32,3.25,45.0,1.0,0.0,1.0,1.0,10082719,0.0,78.91,2385.019716160598
1765228587785,0.0,0.0,2.0,20.0,0.0,0.0,0.0,0.0,0.0,0.0,0.0,0.0,0.0,0.0,0.0,0.0,0.0,0.0,-0.019154,0.005612,1.012844,-0.6300000000000001,0.49000000000000005,-0.14,25.0,3.28,3.32,3.25,3.27,3.28,3.29,3.28,3.28,3.3,3.3,3.3,3.29,3.28,3.28,3.28,3.29,3.28,3.29,3.29,3.28,3.31,3.3,3.3,3.29,3.32,3.25,45.0,1.0,0.0,1.0,1.0,10082759,0.0,78.91,2385.019716160598
1765228587805,0.0,0.0,2.0,20.0,0.0,0.0,0.0,0.0,0.0,0.0,0.0,0.0,0.0,0.0,0.0,0.0,0.0,0.0,-0.019154,0.005612,1.012844,-0.6300000000000001,0.49000000000000005,-0.14,25.0,3.28,3.32,3.25,3.27,3.28,3.29,3.28,3.28,3.3,3.3,3.3,3.29,3.28,3.28,3.28,3.29,3.28,3.29,3.29,3.28,3.31,3.3,3.3,3.29,3.32,3.25,45.0,1.0,0.0,1.0,1.0,10082779,0.0,78.91,2385.019716160598
1765228587815,0.0,0.0,2.0,20.0,0.0,0.0,0.0,0.0,0.0,0.0,0.0,0.0,0.0,0.0,0.0,0.0,0.0,0.0,-0.019154,0.005612,1.012844,-0.6300000000000001,0.49000000000000005,-0.14,25.0,3.28,3.32,3.25,3.27,3.28,3.29,3.28,3.28,3.3,3.3,3.3,3.29,3.28,3.28,3.28,3.29,3.28,3.29,3.29,3.28,3.31,3.3,3.3,3.29,3.32,3.25,45.0,1.0,0.0,1.0,1.0,10082789,0.0,78.91,2385.019716160598
1765228587825,0.0,0.0,2.0,20.0,0.0,0.0,0.0,0.0,0.0,0.0,0.0,0.0,0.0,0.0,0.0,0.0,0.0,0.0,-0.019154,0.005612,1.012844,-0.6300000000000001,0.49000000000000005,-0.14,25.0,3.28,3.32,3.25,3.27,3.28,3.29,3.28,3.28,3.3,3.3,3.3,3.29,3.28,3.28,3.28,3.29,3.28,3.29,3.29,3.28,3.31,3.3,3.3,3.29,3.32,3.25,45.0,1.0,0.0,1.0,1.0,10082799,0.0,78.91,2385.019716160598
1765228587834,0.0,0.0,2.0,20.0,0.0,0.0,0.0,0.0,0.0,0.0,0.0,0.0,0.0,0.0,0.0,0.0,0.0,0.0,-0.019154,0.005612,1.012844,-0.6300000000000001,0.49000000000000005,-0.14,25.0,3.28,3.32,3.25,3.27,3.28,3.29,3.28,3.28,3.3,3.3,3.3,3.29,3.28,3.28,3.28,3.29,3.28,3.29,3.29,3.28,3.31,3.3,3.3,3.29,3.32,3.25,45.0,1.0,0.0,1.0,1.0,10082808,0.0,78.91,2385.019716160598
1765228587874,0.0,0.0,2.0,20.0,0.0,0.0,0.0,0.0,0.0,0.0,0.0,0.0,0.0,0.0,0.0,0.0,0.0,0.0,-0.011224,-0.009516,0.97478,-0.6300000000000001,0.49000000000000005,-0.14,25.0,3.28,3.32,3.25,3.27,3.28,3.29,3.28,3.28,3.3,3.3,3.3,3.29,3.28,3.28,3.28,3.29,3.28,3.29,3.29,3.28,3.31,3.3,3.3,3.29,3.32,3.25,45.0,1.0,0.0,1.0,1.0,10082848,0.0,78.91,2385.019716160598
1765228587899,0.0,0.0,2.0,20.0,0.0,0.0,0.0,0.0,0.0,0.0,0.0,0.0,0.0,0.0,0.0,0.0,0.0,0.0,-0.011224,-0.009516,0.97478,-0.56,0.35000000000000003,0.07,25.0,3.28,3.32,3.25,3.27,3.28,3.29,3.28,3.28,3.3,3.3,3.3,3.29,3.28,3.28,3.28,3.29,3.28,3.29,3.29,3.28,3.31,3.3,3.3,3.29,3.32,3.25,45.0,1.0,0.0,1.0,1.0,10082873,0.0,78.91,2385.019716160598
1765228587909,0.0,0.0,2.0,20.0,0.0,0.0,0.0,0.0,0.0,0.0,0.0,0.0,0.0,0.0,0.0,0.0,0.0,0.0,-0.011224,-0.009516,0.97478,-0.56,0.35000000000000003,0.07,25.0,3.28,3.32,3.25,3.27,3.28,3.29,3.28,3.28,3.3,3.3,3.3,3.29,3.28,3.28,3.28,3.29,3.28,3.29,3.29,3.28,3.31,3.3,3.3,3.29,3.32,3.25,45.0,1.0,0.0,1.0,1.0,10082883,0.0,78.91,2385.019716160598
1765228587918,0.0,0.0,2.0,20.0,0.0,0.0,0.0,0.0,0.0,0.0,0.0,0.0,0.0,0.0,0.0,0.0,0.0,0.0,-0.011224,-0.009516,0.97478,-0.56,0.35000000000000003,0.07,25.0,3.28,3.32,3.25,3.27,3.28,3.29,3.28,3.28,3.3,3.3,3.3,3.29,3.28,3.28,3.28,3.29,3.28,3.29,3.29,3.28,3.31,3.3,3.3,3.29,3.32,3.25,45.0,1.0,0.0,1.0,1.0,10082892,0.0,78.91,2385.019716160598
1765228587929,0.0,0.0,2.0,20.0,0.0,0.0,0.0,0.0,0.0,0.0,0.0,0.0,0.0,0.0,0.0,0.0,0.0,0.0,-0.011224,-0.009516,0.97478,-0.56,0.35000000000000003,0.07,25.0,3.28,3.32,3.25,3.27,3.28,3.29,3.28,3.28,3.3,3.3,3.3,3.29,3.28,3.28,3.28,3.29,3.28,3.29,3.29,3.28,3.31,3.3,3.3,3.29,3.32,3.25,45.0,1.0,0.0,1.0,1.0,10082903,0.0,78.91,2385.019716160598
1765228587948,0.0,0.0,2.0,20.0,0.0,0.0,0.0,0.0,0.0,0.0,0.0,0.0,0.0,0.0,0.0,0.0,0.0,0.0,-0.011224,-0.009516,0.97478,-0.56,0.35000000000000003,0.07,25.0,3.28,3.32,3.25,3.27,3.28,3.29,3.28,3.28,3.3,3.3,3.3,3.29,3.28,3.28,3.28,3.29,3.28,3.29,3.29,3.28,3.31,3.3,3.3,3.29,3.32,3.25,45.0,1.0,0.0,1.0,1.0,10082922,0.0,78.91,2385.019716160598
1765228587958,0.0,0.0,2.0,20.0,0.0,0.0,0.0,0.0,0.0,0.0,0.0,0.0,0.0,0.0,0.0,0.0,0.0,0.0,-0.011224,-0.009516,0.97478,-0.56,0.35000000000000003,0.07,25.0,3.28,3.32,3.25,3.27,3.28,3.29,3.28,3.28,3.3,3.3,3.3,3.29,3.28,3.28,3.28,3.29,3.28,3.29,3.29,3.28,3.31,3.3,3.3,3.29,3.32,3.25,45.0,1.0,0.0,1.0,1.0,10082932,0.0,78.91,2385.019716160598
1765228587997,0.0,0.0,2.0,20.0,0.0,0.0,0.0,0.0,0.0,0.0,0.0,0.0,0.0,0.0,0.0,0.0,0.0,0.0,-0.011224,-0.009516,0.97478,-0.56,0.35000000000000003,0.07,25.0,3.28,3.32,3.25,3.27,3.28,3.29,3.28,3.28,3.3,3.3,3.3,3.29,3.28,3.28,3.28,3.29,3.28,3.29,3.29,3.28,3.31,3.3,3.3,3.29,3.32,3.25,45.0,1.0,0.0,1.0,1.0,10082971,0.0,78.91,2385.019716160598
1765228588045,0.0,0.0,2.0,20.0,0.0,0.0,0.0,0.0,0.0,0.0,0.0,0.0,0.0,0.0,0.0,0.0,0.0,0.0,-0.011224,-0.009516,0.97478,-0.56,0.35000000000000003,0.07,25.0,3.28,3.32,3.25,3.27,3.28,3.29,3.28,3.28,3.3,3.3,3.3,3.29,3.28,3.28,3.28,3.29,3.28,3.29,3.29,3.28,3.31,3.3,3.3,3.29,3.32,3.25,45.0,1.0,0.0,1.0,1.0,10083019,0.0,78.91,2385.019716160598
1765228588065,0.0,0.0,2.0,20.0,0.0,0.0,0.0,0.0,0.0,0.0,0.0,0.0,0.0,0.0,0.0,0.0,0.0,0.0,-0.011224,-0.009516,0.97478,-0.56,0.35000000000000003,0.07,25.0,3.28,3.32,3.25,3.27,3.28,3.29,3.28,3.28,3.3,3.3,3.3,3.29,3.28,3.28,3.28,3.29,3.28,3.29,3.29,3.28,3.31,3.3,3.3,3.29,3.32,3.25,45.0,1.0,0.0,1.0,1.0,10083039,0.0,78.91,2385.019716160598
1765228588084,0.0,0.0,2.0,20.0,0.0,0.0,0.0,0.0,0.0,0.0,0.0,0.0,0.0,0.0,0.0,0.0,0.0,0.0,-0.011224,-0.009516,0.97478,-0.49000000000000005,0.28,0.14,25.0,3.28,3.32,3.25,3.27,3.28,3.29,3.28,3.28,3.3,3.3,3.3,3.29,3.28,3.28,3.28,3.29,3.28,3.29,3.29,3.28,3.31,3.3,3.3,3.29,3.32,3.25,45.0,1.0,0.0,1.0,1.0,10083058,0.0,78.91,2385.019716160598
1765228588094,0.0,0.0,2.0,20.0,0.0,0.0,0.0,0.0,0.0,0.0,0.0,0.0,0.0,0.0,0.0,0.0,0.0,0.0,-0.011224,-0.009516,0.97478,-0.49000000000000005,0.28,0.14,25.0,3.28,3.32,3.25,3.27,3.28,3.29,3.28,3.28,3.3,3.3,3.3,3.29,3.28,3.28,3.28,3.29,3.28,3.29,3.29,3.28,3.31,3.3,3.3,3.29,3.32,3.25,45.0,1.0,0.0,1.0,1.0,10083068,0.0,78.91,2385.019716160598
1765228588123,0.0,0.0,2.0,20.0,0.0,0.0,0.0,0.0,0.0,0.0,0.0,0.0,0.0,0.0,0.0,0.0,0.0,0.0,-0.011224,-0.009516,0.97478,-0.49000000000000005,0.28,0.14,25.0,3.28,3.32,3.25,3.27,3.28,3.29,3.28,3.28,3.3,3.3,3.3,3.29,3.28,3.28,3.28,3.29,3.28,3.29,3.29,3.28,3.31,3.3,3.3,3.29,3.32,3.25,45.0,1.0,0.0,1.0,1.0,10083097,0.0,78.91,2385.019716160598
1765228588133,0.0,0.0,2.0,20.0,0.0,0.0,0.0,0.0,0.0,0.0,0.0,0.0,0.0,0.0,0.0,0.0,0.0,0.0,-0.011224,-0.009516,0.97478,-0.49000000000000005,0.28,0.14,25.0,3.28,3.32,3.25,3.27,3.28,3.29,3.28,3.28,3.3,3.3,3.3,3.29,3.28,3.28,3.28,3.29,3.28,3.29,3.29,3.28,3.31,3.3,3.3,3.29,3.32,3.25,45.0,1.0,0.0,1.0,1.0,10083107,0.0,78.91,2385.019716160598
1765228588173,0.0,0.0,2.0,20.0,0.0,0.0,0.0,0.0,0.0,0.0,0.0,0.0,0.0,0.0,0.0,0.0,0.0,0.0,-0.011224,-0.009516,0.97478,-0.49000000000000005,0.28,0.14,25.0,3.28,3.32,3.25,3.27,3.28,3.29,3.28,3.28,3.3,3.3,3.3,3.29,3.28,3.28,3.28,3.29,3.28,3.29,3.29,3.28,3.31,3.3,3.3,3.29,3.32,3.25,45.0,1.0,0.0,1.0,1.0,10083147,0.0,78.91,2385.019716160598
1765228588254,0.0,0.0,2.0,20.0,0.0,0.0,0.0,0.0,0.0,0.0,0.0,0.0,0.0,0.0,0.0,0.0,0.0,0.0,-0.0183,0.005856,0.9958859999999999,-0.49000000000000005,0.28,0.14,25.0,3.28,3.32,3.25,3.27,3.28,3.29,3.28,3.28,3.3,3.3,3.3,3.29,3.28,3.28,3.28,3.29,3.28,3.29,3.29,3.28,3.31,3.3,3.3,3.29,3.32,3.25,45.0,1.0,0.0,1.0,1.0,10083228,0.0,78.91,2385.019716160598
1765228588264,0.0,0.0,2.0,20.0,0.0,0.0,0.0,0.0,0.0,0.0,0.0,0.0,0.0,0.0,0.0,0.0,0.0,0.0,-0.0183,0.005856,0.9958859999999999,-0.49000000000000005,0.42000000000000004,0.07,25.0,3.28,3.32,3.25,3.27,3.28,3.29,3.28,3.28,3.3,3.3,3.3,3.29,3.28,3.28,3.28,3.29,3.28,3.29,3.29,3.28,3.31,3.3,3.3,3.29,3.32,3.25,45.0,1.0,0.0,1.0,1.0,10083238,0.0,78.91,2385.019716160598
1765228588284,0.0,0.0,2.0,20.0,0.0,0.0,0.0,0.0,0.0,0.0,0.0,0.0,0.0,0.0,0.0,0.0,0.0,0.0,-0.0183,0.005856,0.9958859999999999,-0.49000000000000005,0.42000000000000004,0.07,25.0,3.28,3.32,3.25,3.27,3.28,3.29,3.28,3.28,3.3,3.3,3.3,3.29,3.28,3.28,3.28,3.29,3.28,3.29,3.29,3.28,3.31,3.3,3.3,3.29,3.32,3.25,45.0,1.0,0.0,1.0,1.0,10083258,0.0,78.91,2385.019716160598
1765228588323,0.0,0.0,2.0,20.0,0.0,0.0,0.0,0.0,0.0,0.0,0.0,0.0,0.0,0.0,0.0,0.0,0.0,0.0,-0.0183,0.005856,0.9958859999999999,-0.49000000000000005,0.42000000000000004,0.07,25.0,3.28,3.32,3.25,3.27,3.28,3.29,3.28,3.28,3.3,3.3,3.3,3.29,3.28,3.28,3.28,3.29,3.28,3.29,3.29,3.28,3.31,3.3,3.3,3.29,3.32,3.25,45.0,1.0,0.0,1.0,1.0,10083297,0.0,78.91,2385.019716160598
1765228588331,0.0,0.0,2.0,20.0,0.0,0.0,0.0,0.0,0.0,0.0,0.0,0.0,0.0,0.0,0.0,0.0,0.0,0.0,-0.016592,-0.0008539999999999999,0.98759,-0.49000000000000005,0.42000000000000004,0.07,25.0,3.28,3.32,3.25,3.27,3.28,3.29,3.28,3.28,3.3,3.3,3.3,3.29,3.28,3.28,3.28,3.29,3.28,3.29,3.29,3.28,3.31,3.3,3.3,3.29,3.32,3.25,45.0,1.0,0.0,1.0,1.0,10083305,0.0,78.91,2385.019716160598
1765228588339,0.0,0.0,2.0,20.0,0.0,0.0,0.0,0.0,0.0,0.0,0.0,0.0,0.0,0.0,0.0,0.0,0.0,0.0,-0.016592,-0.0008539999999999999,0.98759,-0.49000000000000005,0.42000000000000004,0.07,25.0,3.28,3.32,3.25,3.27,3.28,3.29,3.28,3.28,3.3,3.3,3.3,3.29,3.28,3.28,3.28,3.29,3.28,3.29,3.29,3.28,3.31,3.3,3.3,3.29,3.32,3.25,45.0,1.0,0.0,1.0,1.0,10083313,0.0,78.91,2385.019716160598
1765228588360,0.0,0.0,2.0,20.0,0.0,0.0,0.0,0.0,0.0,0.0,0.0,0.0,0.0,0.0,0.0,0.0,0.0,0.0,-0.016592,-0.0008539999999999999,0.98759,-0.49000000000000005,0.42000000000000004,0.07,25.0,3.28,3.32,3.25,3.27,3.28,3.29,3.28,3.28,3.3,3.3,3.3,3.29,3.28,3.28,3.28,3.29,3.28,3.29,3.29,3.28,3.31,3.3,3.3,3.29,3.32,3.25,45.0,1.0,0.0,1.0,1.0,10083334,0.0,78.91,2385.019716160598
1765228588376,0.0,0.0,2.0,20.0,0.0,0.0,0.0,0.0,0.0,0.0,0.0,0.0,0.0,0.0,0.0,0.0,0.0,0.0,-0.016592,-0.0008539999999999999,0.98759,-0.49000000000000005,0.42000000000000004,0.07,25.0,3.28,3.32,3.25,3.27,3.28,3.29,3.28,3.28,3.3,3.3,3.3,3.29,3.28,3.28,3.28,3.29,3.28,3.29,3.29,3.28,3.31,3.3,3.3,3.29,3.32,3.25,45.0,1.0,0.0,1.0,1.0,10083350,0.0,78.91,2385.019716160598
1765228588392,0.0,0.0,2.0,20.0,0.0,0.0,0.0,0.0,0.0,0.0,0.0,0.0,0.0,0.0,0.0,0.0,0.0,0.0,-0.016592,-0.0008539999999999999,0.98759,-0.7000000000000001,0.14,0.0,25.0,3.28,3.32,3.25,3.27,3.28,3.29,3.28,3.28,3.3,3.3,3.3,3.29,3.28,3.28,3.28,3.29,3.28,3.29,3.29,3.28,3.31,3.3,3.3,3.29,3.32,3.25,45.0,1.0,0.0,1.0,1.0,10083366,0.0,78.91,2385.019716160598
1765228588409,0.0,0.0,2.0,20.0,0.0,0.0,0.0,0.0,0.0,0.0,0.0,0.0,0.0,0.0,0.0,0.0,0.0,0.0,-0.016592,-0.0008539999999999999,0.98759,-0.7000000000000001,0.14,0.0,25.0,3.28,3.32,3.25,3.27,3.28,3.29,3.28,3.28,3.3,3.3,3.3,3.29,3.28,3.28,3.28,3.29,3.28,3.29,3.29,3.28,3.31,3.3,3.3,3.29,3.32,3.25,45.0,1.0,0.0,1.0,1.0,10083383,0.0,78.91,2385.019716160598
1765228588454,0.0,0.0,2.0,20.0,0.0,0.0,0.0,0.0,0.0,0.0,0.0,0.0,0.0,0.0,0.0,0.0,0.0,0.0,-0.016592,-0.0008539999999999999,0.98759,-0.7000000000000001,0.14,0.0,25.0,3.28,3.32,3.25,3.27,3.28,3.29,3.28,3.28,3.3,3.3,3.3,3.29,3.28,3.28,3.28,3.29,3.28,3.29,3.29,3.28,3.31,3.3,3.3,3.29,3.32,3.25,45.0,1.0,0.0,1.0,1.0,10083428,0.0,78.91,2385.019716160598
1765228588472,0.0,0.0,2.0,20.0,0.0,0.0,0.0,0.0,0.0,0.0,0.0,0.0,0.0,0.0,0.0,0.0,0.0,0.0,-0.016592,-0.0008539999999999999,0.98759,-0.7000000000000001,0.14,0.0,25.0,3.28,3.32,3.25,3.27,3.28,3.29,3.28,3.28,3.3,3.3,3.3,3.29,3.28,3.28,3.28,3.29,3.28,3.29,3.29,3.28,3.31,3.3,3.3,3.29,3.32,3.25,45.0,1.0,0.0,1.0,1.0,10083446,0.0,78.91,2385.019716160598
1765228588554,0.0,0.0,2.0,20.0,0.0,0.0,0.0,0.0,0.0,0.0,0.0,0.0,0.0,0.0,0.0,0.0,0.0,0.0,-0.018666,0.000976,0.995764,-0.7000000000000001,0.14,0.0,25.0,3.28,3.32,3.25,3.27,3.28,3.29,3.28,3.28,3.3,3.3,3.3,3.29,3.28,3.28,3.28,3.29,3.28,3.29,3.29,3.28,3.31,3.3,3.3,3.29,3.32,3.25,45.0,1.0,0.0,1.0,1.0,10083528,0.0,78.91,2385.019716160598
1765228588567,0.0,0.0,2.0,20.0,0.0,0.0,0.0,0.0,0.0,0.0,0.0,0.0,0.0,0.0,0.0,0.0,0.0,0.0,-0.018666,0.000976,0.995764,-0.7000000000000001,0.14,0.0,25.0,3.28,3.32,3.25,3.27,3.28,3.29,3.28,3.28,3.3,3.3,3.3,3.29,3.28,3.28,3.28,3.29,3.28,3.29,3.29,3.28,3.31,3.3,3.3,3.29,3.32,3.25,46.0,1.0,0.0,1.0,1.0,10083541,0.0,78.91,2385.019716160598
1765228588592,0.0,0.0,2.0,20.0,0.0,0.0,0.0,0.0,0.0,0.0,0.0,0.0,0.0,0.0,0.0,0.0,0.0,0.0,-0.018666,0.000976,0.995764,-0.7000000000000001,0.14,0.0,25.0,3.28,3.32,3.25,3.27,3.28,3.29,3.28,3.28,3.3,3.3,3.3,3.29,3.28,3.28,3.28,3.29,3.28,3.29,3.29,3.28,3.31,3.3,3.3,3.29,3.32,3.25,46.0,1.0,0.0,1.0,1.0,10083566,0.0,78.91,2385.019716160598
1765228588603,0.0,0.0,2.0,20.0,0.0,0.0,0.0,0.0,0.0,0.0,0.0,0.0,0.0,0.0,0.0,0.0,0.0,0.0,-0.018666,0.000976,0.995764,-0.49000000000000005,0.28,0.0,25.0,3.28,3.32,3.25,3.27,3.28,3.29,3.28,3.28,3.3,3.3,3.3,3.29,3.28,3.28,3.28,3.29,3.28,3.29,3.29,3.28,3.31,3.3,3.3,3.29,3.32,3.25,46.0,1.0,0.0,1.0,1.0,10083577,0.0,78.91,2385.019716160598
1765228588626,0.0,0.0,2.0,20.0,0.0,0.0,0.0,0.0,0.0,0.0,0.0,0.0,0.0,0.0,0.0,0.0,0.0,0.0,-0.018666,0.000976,0.995764,-0.49000000000000005,0.28,0.0,25.0,3.28,3.32,3.25,3.27,3.28,3.29,3.28,3.28,3.3,3.3,3.3,3.29,3.28,3.28,3.28,3.29,3.28,3.29,3.29,3.28,3.31,3.3,3.3,3.29,3.32,3.25,46.0,1.0,0.0,1.0,1.0,10083600,0.0,78.91,2385.019716160598
1765228588660,0.0,0.0,2.0,20.0,0.0,0.0,0.0,0.0,0.0,0.0,0.0,0.0,0.0,0.0,0.0,0.0,0.0,0.0,-0.018666,0.000976,0.995764,-0.49000000000000005,0.28,0.0,25.0,3.28,3.32,3.25,3.27,3.28,3.29,3.28,3.28,3.3,3.3,3.3,3.29,3.28,3.28,3.28,3.29,3.28,3.29,3.29,3.28,3.31,3.3,3.3,3.29,3.32,3.25,46.0,1.0,0.0,1.0,1.0,10083634,0.0,78.91,2385.019716160598
1765228588693,0.0,0.0,2.0,20.0,0.0,0.0,0.0,0.0,0.0,0.0,0.0,0.0,0.0,0.0,0.0,0.0,0.0,0.0,-0.019764,0.006954,0.989908,-0.49000000000000005,0.28,0.0,25.0,3.28,3.32,3.25,3.27,3.28,3.29,3.28,3.28,3.3,3.3,3.3,3.29,3.28,3.28,3.28,3.29,3.28,3.29,3.29,3.28,3.31,3.3,3.3,3.29,3.32,3.25,46.0,1.0,0.0,1.0,1.0,10083667,0.0,78.91,2385.019716160598
1765228588705,0.0,0.0,2.0,20.0,0.0,0.0,0.0,0.0,0.0,0.0,0.0,0.0,0.0,0.0,0.0,0.0,0.0,0.0,-0.019764,0.006954,0.989908,-0.56,0.28,0.14,25.0,3.28,3.32,3.25,3.27,3.28,3.29,3.28,3.28,3.3,3.3,3.3,3.29,3.28,3.28,3.28,3.29,3.28,3.29,3.29,3.28,3.31,3.3,3.3,3.29,3.32,3.25,46.0,1.0,0.0,1.0,1.0,10083679,0.0,78.91,2385.019716160598
1765228588727,0.0,0.0,2.0,20.0,0.0,0.0,0.0,0.0,0.0,0.0,0.0,0.0,0.0,0.0,0.0,0.0,0.0,0.0,-0.019764,0.006954,0.989908,-0.56,0.28,0.14,25.0,3.28,3.32,3.25,3.27,3.28,3.29,3.28,3.28,3.3,3.3,3.3,3.29,3.28,3.28,3.28,3.29,3.28,3.29,3.29,3.28,3.31,3.3,3.3,3.29,3.32,3.25,44.0,1.0,0.0,1.0,1.0,10083701,0.0,78.91,2385.019716160598
1765228588751,0.0,0.0,2.0,20.0,0.0,0.0,0.0,0.0,0.0,0.0,0.0,0.0,0.0,0.0,0.0,0.0,0.0,0.0,-0.019764,0.006954,0.989908,-0.56,0.28,0.14,25.0,3.28,3.32,3.25,3.27,3.28,3.29,3.28,3.28,3.3,3.3,3.3,3.29,3.28,3.28,3.28,3.29,3.28,3.29,3.29,3.28,3.31,3.3,3.3,3.29,3.32,3.25,44.0,1.0,0.0,1.0,1.0,10083725,0.0,78.91,2385.019716160598
1765228588772,0.0,0.0,2.0,20.0,0.0,0.0,0.0,0.0,0.0,0.0,0.0,0.0,0.0,0.0,0.0,0.0,0.0,0.0,-0.019764,0.006954,0.989908,-0.56,0.28,0.14,25.0,3.28,3.32,3.25,3.27,3.28,3.29,3.28,3.28,3.3,3.3,3.3,3.29,3.28,3.28,3.28,3.29,3.28,3.29,3.29,3.28,3.31,3.3,3.3,3.29,3.32,3.25,44.0,1.0,0.0,1.0,1.0,10083746,0.0,78.91,2385.019716160598
1765228588795,0.0,0.0,2.0,20.0,0.0,0.0,0.0,0.0,0.0,0.0,0.0,0.0,0.0,0.0,0.0,0.0,0.0,0.0,-0.019764,0.006954,0.989908,-0.56,0.28,0.14,25.0,3.28,3.32,3.25,3.27,3.28,3.29,3.28,3.28,3.3,3.3,3.3,3.29,3.28,3.28,3.28,3.29,3.28,3.29,3.29,3.28,3.31,3.3,3.3,3.29,3.32,3.25,44.0,1.0,0.0,1.0,1.0,10083769,0.0,78.91,2385.019716160598
1765228588807,0.0,0.0,2.0,20.0,0.0,0.0,0.0,0.0,0.0,0.0,0.0,0.0,0.0,0.0,0.0,0.0,0.0,0.0,-0.019764,0.006954,0.989908,-0.56,0.28,0.14,25.0,3.28,3.32,3.25,3.27,3.28,3.29,3.28,3.28,3.3,3.3,3.3,3.29,3.28,3.28,3.28,3.29,3.28,3.29,3.29,3.28,3.31,3.3,3.3,3.29,3.32,3.25,44.0,1.0,0.0,1.0,1.0,10083781,0.0,78.91,2385.019716160598
1765228588818,0.0,0.0,2.0,20.0,0.0,0.0,0.0,0.0,0.0,0.0,0.0,0.0,0.0,0.0,0.0,0.0,0.0,0.0,-0.019764,0.006954,0.989908,-0.56,0.28,0.14,25.0,3.28,3.32,3.25,3.27,3.28,3.29,3.28,3.28,3.3,3.3,3.3,3.29,3.28,3.28,3.28,3.29,3.28,3.29,3.29,3.28,3.31,3.3,3.3,3.29,3.32,3.25,44.0,1.0,0.0,1.0,1.0,10083792,0.0,78.91,2385.019716160598
1765228588839,0.0,0.0,2.0,20.0,0.0,0.0,0.0,0.0,0.0,0.0,0.0,0.0,0.0,0.0,0.0,0.0,0.0,0.0,-0.019764,0.006954,0.989908,-0.56,0.28,0.14,25.0,3.28,3.32,3.25,3.27,3.28,3.29,3.28,3.28,3.3,3.3,3.3,3.29,3.28,3.28,3.28,3.29,3.28,3.29,3.29,3.28,3.31,3.3,3.3,3.29,3.32,3.25,44.0,1.0,0.0,1.0,1.0,10083813,0.0,78.91,2385.019716160598
1765228588859,0.0,0.0,2.0,20.0,0.0,0.0,0.0,0.0,0.0,0.0,0.0,0.0,0.0,0.0,0.0,0.0,0.0,0.0,-0.019764,0.006954,0.989908,-0.56,0.28,0.14,25.0,3.28,3.32,3.25,3.27,3.28,3.29,3.28,3.28,3.3,3.3,3.3,3.29,3.28,3.28,3.28,3.29,3.28,3.29,3.29,3.28,3.31,3.3,3.3,3.29,3.32,3.25,44.0,1.0,0.0,1.0,1.0,10083833,0.0,78.91,2385.019716160598
1765228588910,0.0,0.0,2.0,20.0,0.0,0.0,0.0,0.0,0.0,0.0,0.0,0.0,0.0,0.0,0.0,0.0,0.0,0.0,-0.0183,0.0060999999999999995,0.997472,-0.56,0.28,0.14,25.0,3.28,3.32,3.25,3.27,3.28,3.29,3.28,3.28,3.3,3.3,3.3,3.29,3.28,3.28,3.28,3.29,3.28,3.29,3.29,3.28,3.31,3.3,3.3,3.29,3.32,3.25,44.0,1.0,0.0,1.0,1.0,10083884,0.0,78.91,2385.019716160598
1765228588919,0.0,0.0,2.0,20.0,0.0,0.0,0.0,0.0,0.0,0.0,0.0,0.0,0.0,0.0,0.0,0.0,0.0,0.0,-0.0183,0.0060999999999999995,0.997472,-0.56,0.28,0.14,25.0,3.28,3.32,3.25,3.27,3.28,3.29,3.28,3.28,3.3,3.3,3.3,3.29,3.28,3.28,3.28,3.29,3.28,3.29,3.29,3.28,3.31,3.3,3.3,3.29,3.32,3.25,44.0,1.0,0.0,1.0,1.0,10083893,0.0,78.91,2385.019716160598
1765228588980,0.0,0.0,2.0,20.0,0.0,0.0,0.0,0.0,0.0,0.0,0.0,0.0,0.0,0.0,0.0,0.0,0.0,0.0,-0.0183,0.0060999999999999995,0.997472,-0.56,0.28,0.07,25.0,3.28,3.32,3.25,3.27,3.28,3.29,3.28,3.28,3.3,3.3,3.3,3.29,3.28,3.28,3.28,3.29,3.28,3.29,3.29,3.28,3.31,3.3,3.3,3.29,3.32,3.25,44.0,1.0,0.0,1.0,1.0,10083954,0.0,78.91,2385.019716160598
1765228588991,0.0,0.0,2.0,20.0,0.0,0.0,0.0,0.0,0.0,0.0,0.0,0.0,0.0,0.0,0.0,0.0,0.0,0.0,-0.0183,0.0060999999999999995,0.997472,-0.56,0.28,0.07,25.0,3.28,3.32,3.25,3.27,3.28,3.29,3.28,3.28,3.3,3.3,3.3,3.29,3.28,3.28,3.28,3.29,3.28,3.29,3.29,3.28,3.31,3.3,3.3,3.29,3.32,3.25,44.0,1.0,0.0,1.0,1.0,10083965,0.0,78.91,2385.019716160598
1765228589033,0.0,0.0,2.0,20.0,0.0,0.0,0.0,0.0,0.0,0.0,0.0,0.0,0.0,0.0,0.0,0.0,0.0,0.0,-0.019764,-0.001952,0.987956,-0.56,0.28,0.07,25.0,3.28,3.32,3.25,3.27,3.28,3.29,3.28,3.28,3.3,3.3,3.3,3.29,3.28,3.28,3.28,3.29,3.28,3.29,3.29,3.28,3.31,3.3,3.3,3.29,3.32,3.25,44.0,1.0,0.0,1.0,1.0,10084007,0.0,78.91,2385.019716160598
1765228589051,0.0,0.0,2.0,20.0,0.0,0.0,0.0,0.0,0.0,0.0,0.0,0.0,0.0,0.0,0.0,0.0,0.0,0.0,-0.019764,-0.001952,0.987956,-0.42000000000000004,0.21000000000000002,0.0,25.0,3.28,3.32,3.25,3.27,3.28,3.29,3.28,3.28,3.3,3.3,3.3,3.29,3.28,3.28,3.28,3.29,3.28,3.29,3.29,3.28,3.31,3.3,3.3,3.29,3.32,3.25,44.0,1.0,0.0,1.0,1.0,10084025,0.0,78.91,2385.019716160598
1765228589070,0.0,0.0,2.0,20.0,0.0,0.0,0.0,0.0,0.0,0.0,0.0,0.0,0.0,0.0,0.0,0.0,0.0,0.0,-0.019764,-0.001952,0.987956,-0.42000000000000004,0.21000000000000002,0.0,25.0,3.28,3.32,3.25,3.27,3.28,3.29,3.28,3.28,3.3,3.3,3.3,3.29,3.28,3.28,3.28,3.29,3.28,3.29,3.29,3.28,3.31,3.3,3.3,3.29,3.32,3.25,44.0,1.0,0.0,1.0,1.0,10084044,0.0,78.91,2385.019716160598
1765228589081,0.0,0.0,2.0,20.0,0.0,0.0,0.0,0.0,0.0,0.0,0.0,0.0,0.0,0.0,0.0,0.0,0.0,0.0,-0.019764,-0.001952,0.987956,-0.42000000000000004,0.21000000000000002,0.0,25.0,3.28,3.32,3.25,3.27,3.28,3.29,3.28,3.28,3.3,3.3,3.3,3.29,3.28,3.28,3.28,3.29,3.28,3.29,3.29,3.28,3.31,3.3,3.3,3.29,3.32,3.25,44.0,1.0,0.0,1.0,1.0,10084055,0.0,78.91,2385.019716160598
1765228589092,0.0,0.0,2.0,20.0,0.0,0.0,0.0,0.0,0.0,0.0,0.0,0.0,0.0,0.0,0.0,0.0,0.0,0.0,-0.019764,-0.001952,0.987956,-0.42000000000000004,0.21000000000000002,0.0,25.0,3.28,3.32,3.25,3.27,3.28,3.29,3.28,3.28,3.3,3.3,3.3,3.29,3.28,3.28,3.28,3.29,3.28,3.29,3.29,3.28,3.31,3.3,3.3,3.29,3.32,3.25,44.0,1.0,0.0,1.0,1.0,10084066,0.0,78.91,2385.019716160598
1765228589102,0.0,0.0,2.0,20.0,0.0,0.0,0.0,0.0,0.0,0.0,0.0,0.0,0.0,0.0,0.0,0.0,0.0,0.0,-0.019764,-0.001952,0.987956,-0.42000000000000004,0.21000000000000002,0.0,25.0,3.28,3.32,3.25,3.27,3.28,3.29,3.28,3.28,3.3,3.3,3.3,3.29,3.28,3.28,3.28,3.29,3.28,3.29,3.29,3.28,3.31,3.3,3.3,3.29,3.32,3.25,44.0,1.0,0.0,1.0,1.0,10084076,0.0,78.91,2385.019716160598
1765228589113,0.0,0.0,2.0,20.0,0.0,0.0,0.0,0.0,0.0,0.0,0.0,0.0,0.0,0.0,0.0,0.0,0.0,0.0,-0.019764,-0.001952,0.987956,-0.42000000000000004,0.21000000000000002,0.0,25.0,3.28,3.32,3.25,3.27,3.28,3.29,3.28,3.28,3.3,3.3,3.3,3.29,3.28,3.28,3.28,3.29,3.28,3.29,3.29,3.28,3.31,3.3,3.3,3.29,3.32,3.25,44.0,1.0,0.0,1.0,1.0,10084087,0.0,78.91,2385.019716160598
1765228589147,0.0,0.0,2.0,20.0,0.0,0.0,0.0,0.0,0.0,0.0,0.0,0.0,0.0,0.0,0.0,0.0,0.0,0.0,-0.019764,-0.001952,0.987956,-0.42000000000000004,0.21000000000000002,0.0,25.0,3.28,3.32,3.25,3.27,3.28,3.29,3.28,3.28,3.3,3.3,3.3,3.29,3.28,3.28,3.28,3.29,3.28,3.29,3.29,3.28,3.31,3.3,3.3,3.29,3.32,3.25,44.0,1.0,0.0,1.0,1.0,10084121,0.0,78.91,2385.019716160598
1765228589203,0.0,0.0,2.0,20.0,0.0,0.0,0.0,0.0,0.0,0.0,0.0,0.0,0.0,0.0,0.0,0.0,0.0,0.0,-0.019764,-0.001952,0.987956,-0.42000000000000004,0.21000000000000002,0.0,25.0,3.28,3.32,3.25,3.27,3.28,3.29,3.28,3.28,3.3,3.3,3.3,3.29,3.28,3.28,3.28,3.29,3.28,3.29,3.29,3.28,3.31,3.3,3.3,3.29,3.32,3.25,44.0,1.0,0.0,1.0,1.0,10084177,0.0,78.91,2385.019716160598
1765228589226,0.0,0.0,2.0,20.0,0.0,0.0,0.0,0.0,0.0,0.0,0.0,0.0,0.0,0.0,0.0,0.0,0.0,0.0,-0.015493999999999999,0.003538,0.993568,-0.42000000000000004,0.21000000000000002,0.0,25.0,3.28,3.32,3.25,3.27,3.28,3.29,3.28,3.28,3.3,3.3,3.3,3.29,3.28,3.28,3.28,3.29,3.28,3.29,3.29,3.28,3.31,3.3,3.3,3.29,3.32,3.25,44.0,1.0,0.0,1.0,1.0,10084200,0.0,78.91,2385.019716160598
1765228589286,0.0,0.0,2.0,20.0,0.0,0.0,0.0,0.0,0.0,0.0,0.0,0.0,0.0,0.0,0.0,0.0,0.0,0.0,-0.015493999999999999,0.003538,0.993568,-0.56,0.21000000000000002,0.0,25.0,3.28,3.32,3.25,3.27,3.28,3.29,3.28,3.28,3.3,3.3,3.3,3.29,3.28,3.28,3.28,3.29,3.28,3.29,3.29,3.28,3.31,3.3,3.3,3.29,3.32,3.25,44.0,1.0,0.0,1.0,1.0,10084260,0.0,78.91,2385.019716160598
1765228589325,0.0,0.0,2.0,20.0,0.0,0.0,0.0,0.0,0.0,0.0,0.0,0.0,0.0,0.0,0.0,0.0,0.0,0.0,-0.015493999999999999,0.003538,0.993568,-0.56,0.21000000000000002,0.0,25.0,3.28,3.32,3.25,3.27,3.28,3.29,3.28,3.28,3.3,3.3,3.3,3.29,3.28,3.28,3.28,3.29,3.28,3.29,3.29,3.28,3.31,3.3,3.3,3.29,3.32,3.25,44.0,1.0,0.0,1.0,1.0,10084299,0.0,78.91,2385.019716160598
